{
"type": "FeatureCollection",
"name": "CLAUDIO_SANTOS_MARIANO_CARIEL",
"crs": { "type": "name", "properties": { "name": "urn:ogc:def:crs:OGC:1.3:CRS84" } },
"xy_coordinate_resolution": 1e-15,
"features": [
{ "type": "Feature", "properties": { "CNPJ": 36301936000108, "AGENTE": "CLAUDIO_SANTOS_MARIANO_CARIEL", "ACAO": "REALIZAR_SEGUNDA_VISITA", "RAZAO_SOCIAL": "EMPORIO_TREVO_PARADA_VERDE_LTDA", "ENDERECO": "AVENIDAITABERABA_571_NOSSASENHORADOO_SAOPAULO", "CIDADE": "SAO_PAULO", "LATITUDE": -23.4954507, "LONGITUDE": -46.6974945 }, "geometry": { "type": "Point", "coordinates": [ -46.6974945, -23.4954507 ] } },
{ "type": "Feature", "properties": { "CNPJ": 43438563000179, "AGENTE": "CLAUDIO_SANTOS_MARIANO_CARIEL", "ACAO": "REALIZAR_SEGUNDA_VISITA", "RAZAO_SOCIAL": "MARIA_SELENE_DA_PIEDADE", "ENDERECO": "AVENIDAITABERABA_631_NOSSASENHORADOO_SAOPAULO", "CIDADE": "SAO_PAULO", "LATITUDE": -23.4957308, "LONGITUDE": -46.6977874 }, "geometry": { "type": "Point", "coordinates": [ -46.6977874, -23.4957308 ] } },
{ "type": "Feature", "properties": { "CNPJ": 32291516000129, "AGENTE": "CLAUDIO_SANTOS_MARIANO_CARIEL", "ACAO": "REALIZAR_SEGUNDA_VISITA", "RAZAO_SOCIAL": "HORVATHS_FITNESS_LTDA", "ENDERECO": "RUAJAVORAU_366_VILAALBERTINA_SAOPAULO", "CIDADE": "SAO_PAULO", "LATITUDE": -23.4984323, "LONGITUDE": -46.6967644 }, "geometry": { "type": "Point", "coordinates": [ -46.6967644, -23.4984323 ] } },
{ "type": "Feature", "properties": { "CNPJ": 111577000170, "AGENTE": "CLAUDIO_SANTOS_MARIANO_CARIEL", "ACAO": "REALIZAR_SEGUNDA_VISITA", "RAZAO_SOCIAL": "STUCK_COMERCIAL_ELETRONICA_LTDA", "ENDERECO": "RUAJAVORAU_244_VILAALBERTINA_SAOPAULO", "CIDADE": "SAO_PAULO", "LATITUDE": -23.499224, "LONGITUDE": -46.6959641 }, "geometry": { "type": "Point", "coordinates": [ -46.6959641, -23.499224 ] } },
{ "type": "Feature", "properties": { "CNPJ": 8274097000132, "AGENTE": "CLAUDIO_SANTOS_MARIANO_CARIEL", "ACAO": "REALIZAR_SEGUNDA_VISITA", "RAZAO_SOCIAL": "TOCA_DAS_ONCAS_RESTAURANTE_LTDA", "ENDERECO": "RUABONIFACIOCUBAS_181_VILAALBERTINA_SAOPAULO", "CIDADE": "SAO_PAULO", "LATITUDE": -23.5014, "LONGITUDE": -46.6944267 }, "geometry": { "type": "Point", "coordinates": [ -46.6944267, -23.5014 ] } },
{ "type": "Feature", "properties": { "CNPJ": 10555336000174, "AGENTE": "CLAUDIO_SANTOS_MARIANO_CARIEL", "ACAO": "REALIZAR_SEGUNDA_VISITA", "RAZAO_SOCIAL": "DIVINO_CHOCOLATE_COMERCIO_LTDA", "ENDERECO": "RUABONIFACIOCUBAS_163_VILAALBERTINA_SAOPAULO", "CIDADE": "SAO_PAULO", "LATITUDE": -23.5014792, "LONGITUDE": -46.6944944 }, "geometry": { "type": "Point", "coordinates": [ -46.6944944, -23.5014792 ] } },
{ "type": "Feature", "properties": { "CNPJ": 51586806000144, "AGENTE": "CLAUDIO_SANTOS_MARIANO_CARIEL", "ACAO": "REALIZAR_SEGUNDA_VISITA", "RAZAO_SOCIAL": "SISTERS_C&G_SAUDE_E_ESTETICA_LTDA", "ENDERECO": "AVENIDASANTAMARINA_2695_VILAALBERTINA_SAOPAULO", "CIDADE": "SAO_PAULO", "LATITUDE": -23.5015198, "LONGITUDE": -46.6952165 }, "geometry": { "type": "Point", "coordinates": [ -46.6952165, -23.5015198 ] } },
{ "type": "Feature", "properties": { "CNPJ": 4365991000167, "AGENTE": "CLAUDIO_SANTOS_MARIANO_CARIEL", "ACAO": "REALIZAR_SEGUNDA_VISITA", "RAZAO_SOCIAL": "BOUTIQUE_DE_CARNES_EURO_LTDA", "ENDERECO": "RUABONIFACIOCUBAS_108_VILAALBERTINA_SAOPAULO", "CIDADE": "SAO_PAULO", "LATITUDE": -23.5019449, "LONGITUDE": -46.6942147 }, "geometry": { "type": "Point", "coordinates": [ -46.6942147, -23.5019449 ] } },
{ "type": "Feature", "properties": { "CNPJ": 51200502000105, "AGENTE": "CLAUDIO_SANTOS_MARIANO_CARIEL", "ACAO": "REALIZAR_SEGUNDA_VISITA", "RAZAO_SOCIAL": "CARINA_MANTOVANI_OTICA_LTDA", "ENDERECO": "AVENIDASANTAMARINA_2599_VILAALBERTINA_SAOPAULO", "CIDADE": "SAO_PAULO", "LATITUDE": -23.5021425, "LONGITUDE": -46.6948215 }, "geometry": { "type": "Point", "coordinates": [ -46.6948215, -23.5021425 ] } },
{ "type": "Feature", "properties": { "CNPJ": 41724012000146, "AGENTE": "CLAUDIO_SANTOS_MARIANO_CARIEL", "ACAO": "REALIZAR_SEGUNDA_VISITA", "RAZAO_SOCIAL": "DROGARIA_E_PERFUMARIA_FARMAVAN_LTDA", "ENDERECO": "AVENIDASANTAMARINA_2549_VILAALBERTINA_SAOPAULO", "CIDADE": "SAO_PAULO", "LATITUDE": -23.5025951, "LONGITUDE": -46.6946582 }, "geometry": { "type": "Point", "coordinates": [ -46.6946582, -23.5025951 ] } },
{ "type": "Feature", "properties": { "CNPJ": 66185760000129, "AGENTE": "CLAUDIO_SANTOS_MARIANO_CARIEL", "ACAO": "REALIZAR_SEGUNDA_VISITA", "RAZAO_SOCIAL": "MARI'S_COMERCIAL_LTDA", "ENDERECO": "AVENIDASANTAMARINA_2479_VILAALBERTINA_SAOPAULO", "CIDADE": "SAO_PAULO", "LATITUDE": -23.5032379, "LONGITUDE": -46.6943257 }, "geometry": { "type": "Point", "coordinates": [ -46.6943257, -23.5032379 ] } },
{ "type": "Feature", "properties": { "CNPJ": 57454703000107, "AGENTE": "CLAUDIO_SANTOS_MARIANO_CARIEL", "ACAO": "REALIZAR_SEGUNDA_VISITA", "RAZAO_SOCIAL": "SALGATERIA_PAULICEIA_CLIPPER_LTDA", "ENDERECO": "AVENIDASANTAMARINA_2457_VILAALBERTINA_SAOPAULO", "CIDADE": "SAO_PAULO", "LATITUDE": -23.5034702, "LONGITUDE": -46.6942126 }, "geometry": { "type": "Point", "coordinates": [ -46.6942126, -23.5034702 ] } },
{ "type": "Feature", "properties": { "CNPJ": 44862793000123, "AGENTE": "CLAUDIO_SANTOS_MARIANO_CARIEL", "ACAO": "REALIZAR_SEGUNDA_VISITA", "RAZAO_SOCIAL": "COUTO_CELL_COMERCIO_E_MANUTENCAO_DE_APARELHOS_DE_COMUNICACAO_LTDA", "ENDERECO": "AVENIDASANTAMARINA_2455_VILAALBERTINA_SAOPAULO", "CIDADE": "SAO_PAULO", "LATITUDE": -23.5034735, "LONGITUDE": -46.6941935 }, "geometry": { "type": "Point", "coordinates": [ -46.6941935, -23.5034735 ] } },
{ "type": "Feature", "properties": { "CNPJ": 43447280000193, "AGENTE": "CLAUDIO_SANTOS_MARIANO_CARIEL", "ACAO": "REALIZAR_SEGUNDA_VISITA", "RAZAO_SOCIAL": "BIANCA_DOURADO_RIBEIRO_COMERCIAL_-_SEVERINO_BREND", "ENDERECO": "AVENIDAITABERABA_1257_NOSSASENHORADOO_SAOPAULO", "CIDADE": "SAO_PAULO", "LATITUDE": -23.4909793, "LONGITUDE": -46.6948467 }, "geometry": { "type": "Point", "coordinates": [ -46.6948467, -23.4909793 ] } },
{ "type": "Feature", "properties": { "CNPJ": 21189459000155, "AGENTE": "CLAUDIO_SANTOS_MARIANO_CARIEL", "ACAO": "REALIZAR_SEGUNDA_VISITA", "RAZAO_SOCIAL": "ATELIE_ARTE_E_MOVIMENTO_NATALIA_TERRAS_LTDA._-_ATELIE_NATALIA_TERRAS", "ENDERECO": "RUAESTEVAOFURQUIM_428_VILASAOVICENTE_SAOPAULO", "CIDADE": "SAO_PAULO", "LATITUDE": -23.4963331, "LONGITUDE": -46.6939527 }, "geometry": { "type": "Point", "coordinates": [ -46.6939527, -23.4963331 ] } },
{ "type": "Feature", "properties": { "CNPJ": 6186885000141, "AGENTE": "CLAUDIO_SANTOS_MARIANO_CARIEL", "ACAO": "REALIZAR_SEGUNDA_VISITA", "RAZAO_SOCIAL": "DRAGAO_DE_OURO_IMPORTACAO_E_DISTRIBUICAO_DE_PECAS_AUTOMOTIVAS_LTDA_-_DRAGAO_AUTO_PECAS", "ENDERECO": "RUABONIFACIOCUBAS_167_VILASAOVICENTE_SAOPAULO", "CIDADE": "SAO_PAULO", "LATITUDE": -23.4968216, "LONGITUDE": -46.6936882 }, "geometry": { "type": "Point", "coordinates": [ -46.6936882, -23.4968216 ] } },
{ "type": "Feature", "properties": { "CNPJ": 27659154000146, "AGENTE": "CLAUDIO_SANTOS_MARIANO_CARIEL", "ACAO": "REALIZAR_SEGUNDA_VISITA", "RAZAO_SOCIAL": "JUSTIN_SPA_CLINICA_BIOMEDICINA_ESTETICA_AVANCADA_LTDA_-_JUSTIN_SPA", "ENDERECO": "RUABONIFACIOCUBAS_627_VILASAOVICENTE_SAOPAULO", "CIDADE": "SAO_PAULO", "LATITUDE": -23.4973618, "LONGITUDE": -46.6939082 }, "geometry": { "type": "Point", "coordinates": [ -46.6939082, -23.4973618 ] } },
{ "type": "Feature", "properties": { "CNPJ": 45342290000190, "AGENTE": "CLAUDIO_SANTOS_MARIANO_CARIEL", "ACAO": "REALIZAR_SEGUNDA_VISITA", "RAZAO_SOCIAL": "CHARLIE'S_PETSHOP_&_BOUTIQUE_LTDA._-_CHARLES_PET_SHOP", "ENDERECO": "RUABONIFACIOCUBAS_417_VILASAOVICENTE_SAOPAULO", "CIDADE": "SAO_PAULO", "LATITUDE": -23.4992787, "LONGITUDE": -46.6944654 }, "geometry": { "type": "Point", "coordinates": [ -46.6944654, -23.4992787 ] } },
{ "type": "Feature", "properties": { "CNPJ": 29385609000108, "AGENTE": "CLAUDIO_SANTOS_MARIANO_CARIEL", "ACAO": "REALIZAR_SEGUNDA_VISITA", "RAZAO_SOCIAL": "SINFONIA_MUSICAL_COMERCIO_E_MANUTENCAO_DE_INSTRUMENTOS_MUSICAIS_LTDA._-_SINFONIA_MUSICAL", "ENDERECO": "RUABONIFACIOCUBAS_371_VILASAOVICENTE_SAOPAULO", "CIDADE": "SAO_PAULO", "LATITUDE": -23.4996226, "LONGITUDE": -46.6945742 }, "geometry": { "type": "Point", "coordinates": [ -46.6945742, -23.4996226 ] } },
{ "type": "Feature", "properties": { "CNPJ": 32991425000104, "AGENTE": "CLAUDIO_SANTOS_MARIANO_CARIEL", "ACAO": "REALIZAR_SEGUNDA_VISITA", "RAZAO_SOCIAL": "VALDENIR_DIAS_FERREIRA_14824296838_-_VALDEMIR", "ENDERECO": "RUAMOACIRSALESD'AVILA_550_VILAMENCK_OSASCO", "CIDADE": "OSASCO", "LATITUDE": -23.5012686, "LONGITUDE": -46.7653105 }, "geometry": { "type": "Point", "coordinates": [ -46.7653105, -23.5012686 ] } },
{ "type": "Feature", "properties": { "CNPJ": 14017143000110, "AGENTE": "CLAUDIO_SANTOS_MARIANO_CARIEL", "ACAO": "REALIZAR_SEGUNDA_VISITA", "RAZAO_SOCIAL": "ESPACO_LIBERTY_COMERCIAL_LTDA", "ENDERECO": "RUAENEIASLUISCARLOSBARBANTI_436_FREGUESIADOO_SAOPAULO", "CIDADE": "SAO_PAULO", "LATITUDE": -23.50422, "LONGITUDE": -46.6981332 }, "geometry": { "type": "Point", "coordinates": [ -46.6981332, -23.50422 ] } },
{ "type": "Feature", "properties": { "CNPJ": 52361718000107, "AGENTE": "CLAUDIO_SANTOS_MARIANO_CARIEL", "ACAO": "REALIZAR_SEGUNDA_VISITA", "RAZAO_SOCIAL": "LIMA_GONCALVES_MECANICA_LTDA", "ENDERECO": "RUAENEIASLUISCARLOSBARBANTI_442_FREGUESIADOO_SAOPAULO", "CIDADE": "SAO_PAULO", "LATITUDE": -23.504264, "LONGITUDE": -46.6982173 }, "geometry": { "type": "Point", "coordinates": [ -46.6982173, -23.504264 ] } },
{ "type": "Feature", "properties": { "CNPJ": 43825507000197, "AGENTE": "CLAUDIO_SANTOS_MARIANO_CARIEL", "ACAO": "REALIZAR_SEGUNDA_VISITA", "RAZAO_SOCIAL": "BUENAS_PADARIA_E_RESTAURANTE_LTDA", "ENDERECO": "RUAENEIASLUISCARLOSBARBANTI_448_FREGUESIADOO_SAOPAULO", "CIDADE": "SAO_PAULO", "LATITUDE": -23.5043011, "LONGITUDE": -46.6983429 }, "geometry": { "type": "Point", "coordinates": [ -46.6983429, -23.5043011 ] } },
{ "type": "Feature", "properties": { "CNPJ": 32538234000183, "AGENTE": "CLAUDIO_SANTOS_MARIANO_CARIEL", "ACAO": "REALIZAR_SEGUNDA_VISITA", "RAZAO_SOCIAL": "POTENZA_REPAROS_AUTOMOTIVOS_LTDA", "ENDERECO": "RUAENEIASLUISCARLOSBARBANTI_327_FREGUESIADOO_SAOPAULO", "CIDADE": "SAO_PAULO", "LATITUDE": -23.504338, "LONGITUDE": -46.6970704 }, "geometry": { "type": "Point", "coordinates": [ -46.6970704, -23.504338 ] } },
{ "type": "Feature", "properties": { "CNPJ": 22628607000153, "AGENTE": "CLAUDIO_SANTOS_MARIANO_CARIEL", "ACAO": "REALIZAR_SEGUNDA_VISITA", "RAZAO_SOCIAL": "V.G._DE_OLIVEIRA_NETO", "ENDERECO": "RUATENENTEHELICAMARA_57_FREGUESIADOO_SAOPAULO", "CIDADE": "SAO_PAULO", "LATITUDE": -23.5046735, "LONGITUDE": -46.6954639 }, "geometry": { "type": "Point", "coordinates": [ -46.6954639, -23.5046735 ] } },
{ "type": "Feature", "properties": { "CNPJ": 51920293000166, "AGENTE": "CLAUDIO_SANTOS_MARIANO_CARIEL", "ACAO": "REALIZAR_SEGUNDA_VISITA", "RAZAO_SOCIAL": "MONTEIRO_CENTRO_AUTOMOTIVO_LTDA", "ENDERECO": "RUAMUCIOLEAO_50_FREGUESIADOO_SAOPAULO", "CIDADE": "SAO_PAULO", "LATITUDE": -23.5048619, "LONGITUDE": -46.6968517 }, "geometry": { "type": "Point", "coordinates": [ -46.6968517, -23.5048619 ] } },
{ "type": "Feature", "properties": { "CNPJ": 11401691000151, "AGENTE": "CLAUDIO_SANTOS_MARIANO_CARIEL", "ACAO": "REALIZAR_SEGUNDA_VISITA", "RAZAO_SOCIAL": "G_&_C_PECAS_E_SERVICOS_LTDA", "ENDERECO": "RUABALSA_270_VILAARCADIA_SAOPAULO", "CIDADE": "SAO_PAULO", "LATITUDE": -23.5050716, "LONGITUDE": -46.696502 }, "geometry": { "type": "Point", "coordinates": [ -46.696502, -23.5050716 ] } },
{ "type": "Feature", "properties": { "CNPJ": 53703113000110, "AGENTE": "CLAUDIO_SANTOS_MARIANO_CARIEL", "ACAO": "REALIZAR_SEGUNDA_VISITA", "RAZAO_SOCIAL": "NALAV", "ENDERECO": "RUA_SIMAO_VELHO_467_VILA_ALBERTINA_SAO_PAULO_BRASIL", "CIDADE": "SAO_PAULO", "LATITUDE": -23.4952468, "LONGITUDE": -46.6919075 }, "geometry": { "type": "Point", "coordinates": [ -46.6919075, -23.4952468 ] } },
{ "type": "Feature", "properties": { "CNPJ": 61219443000162, "AGENTE": "CLAUDIO_SANTOS_MARIANO_CARIEL", "ACAO": "REALIZAR_SEGUNDA_VISITA", "RAZAO_SOCIAL": "CAFETEIRA", "ENDERECO": "AVENIDA_MIGUEL_CONEJO_992_VILA_ALBERTINA_SAO_PAULO_BRASIL", "CIDADE": "SAO_PAULO", "LATITUDE": -23.4950534, "LONGITUDE": -46.6921881 }, "geometry": { "type": "Point", "coordinates": [ -46.6921881, -23.4950534 ] } },
{ "type": "Feature", "properties": { "CNPJ": 53003274000109, "AGENTE": "CLAUDIO_SANTOS_MARIANO_CARIEL", "ACAO": "REALIZAR_SEGUNDA_VISITA", "RAZAO_SOCIAL": "JOJOBA_MODAS", "ENDERECO": "AVENIDA_ITABERABA_884_VILA_SAO_VICENTE_SAO_PAULO_BRASIL", "CIDADE": "SAO_PAULO", "LATITUDE": -23.4936251, "LONGITUDE": -46.6968448 }, "geometry": { "type": "Point", "coordinates": [ -46.6968448, -23.4936251 ] } },
{ "type": "Feature", "properties": { "CNPJ": 51206093000146, "AGENTE": "CLAUDIO_SANTOS_MARIANO_CARIEL", "ACAO": "REALIZAR_PRIMEIRA_VISITA", "RAZAO_SOCIAL": "F1_MECANICA_DE_AUTOS_LTDA", "ENDERECO": "RUAFLORIANOALVESDACOSTA_193_JARDIMSANTAFE_SAOPAULO", "CIDADE": "SAO_PAULO", "LATITUDE": -23.4289667, "LONGITUDE": -46.7924517 }, "geometry": { "type": "Point", "coordinates": [ -46.7924517, -23.4289667 ] } },
{ "type": "Feature", "properties": { "CNPJ": 19967029000175, "AGENTE": "CLAUDIO_SANTOS_MARIANO_CARIEL", "ACAO": "REALIZAR_PRIMEIRA_VISITA", "RAZAO_SOCIAL": "M._N._PLAST_-_EMBALAGENS_LTDA", "ENDERECO": "RUALUISDEANDRADE_990_VILAPEREIRABARRETO_SAOPAULO", "CIDADE": "SAO_PAULO", "LATITUDE": -23.4895649, "LONGITUDE": -46.7209109 }, "geometry": { "type": "Point", "coordinates": [ -46.7209109, -23.4895649 ] } },
{ "type": "Feature", "properties": { "CNPJ": 55915197000180, "AGENTE": "CLAUDIO_SANTOS_MARIANO_CARIEL", "ACAO": "REALIZAR_PRIMEIRA_VISITA", "RAZAO_SOCIAL": "NEXT_ORDER_LTDA", "ENDERECO": "AVENIDACRISTOREI_168_VILAPEREIRABARRETO_SAOPAULO", "CIDADE": "SAO_PAULO", "LATITUDE": -23.4897912, "LONGITUDE": -46.7209623 }, "geometry": { "type": "Point", "coordinates": [ -46.7209623, -23.4897912 ] } },
{ "type": "Feature", "properties": { "CNPJ": 11258914000173, "AGENTE": "CLAUDIO_SANTOS_MARIANO_CARIEL", "ACAO": "REALIZAR_PRIMEIRA_VISITA", "RAZAO_SOCIAL": "R.K._PRODUTOS_ALIMENTICIOS_LTDA", "ENDERECO": "RUAJANNARTMOUTINHORIBEIRO_161_JARDIMMANGALOT_SAOPAULO", "CIDADE": "SAO_PAULO", "LATITUDE": -23.4899573, "LONGITUDE": -46.7483834 }, "geometry": { "type": "Point", "coordinates": [ -46.7483834, -23.4899573 ] } },
{ "type": "Feature", "properties": { "CNPJ": 48553921000108, "AGENTE": "CLAUDIO_SANTOS_MARIANO_CARIEL", "ACAO": "REALIZAR_PRIMEIRA_VISITA", "RAZAO_SOCIAL": "HOUCK_IMOVEIS_LTDA", "ENDERECO": "RUAPADREANIBALDIFRANCIA_96_JARDIMMANGALOT_SAOPAULO", "CIDADE": "SAO_PAULO", "LATITUDE": -23.4900417, "LONGITUDE": -46.7496793 }, "geometry": { "type": "Point", "coordinates": [ -46.7496793, -23.4900417 ] } },
{ "type": "Feature", "properties": { "CNPJ": 48938279000266, "AGENTE": "CLAUDIO_SANTOS_MARIANO_CARIEL", "ACAO": "REALIZAR_PRIMEIRA_VISITA", "RAZAO_SOCIAL": "ANGELA_APARECIDA_CHAGAS_DA_SILVA", "ENDERECO": "AVENIDADOUTORALBERTOJACKSONBYINGTON_1435_INDUSTRIALANHANGÜERA_OSASCO", "CIDADE": "OSASCO", "LATITUDE": -23.4908367, "LONGITUDE": -46.770735 }, "geometry": { "type": "Point", "coordinates": [ -46.770735, -23.4908367 ] } },
{ "type": "Feature", "properties": { "CNPJ": 28163399000140, "AGENTE": "CLAUDIO_SANTOS_MARIANO_CARIEL", "ACAO": "REALIZAR_PRIMEIRA_VISITA", "RAZAO_SOCIAL": "OFICINA_MECANICA_TUCANO_LTDA", "ENDERECO": "AVENIDAELISIOCORDEIRODESIQUEIRA_1081_JARDIMSANTOELIAS_SAOPAULO", "CIDADE": "SAO_PAULO", "LATITUDE": -23.4908781, "LONGITUDE": -46.7457013 }, "geometry": { "type": "Point", "coordinates": [ -46.7457013, -23.4908781 ] } },
{ "type": "Feature", "properties": { "CNPJ": 56392451000176, "AGENTE": "CLAUDIO_SANTOS_MARIANO_CARIEL", "ACAO": "REALIZAR_PRIMEIRA_VISITA", "RAZAO_SOCIAL": "RESTAURANTE_E_BAR_BB_LTDA", "ENDERECO": "AVENIDADOUTORALBERTOJACKSONBYINGTON_1444_INDUSTRIALANHANGÜERA_OSASCO", "CIDADE": "OSASCO", "LATITUDE": -23.4910583, "LONGITUDE": -46.770245 }, "geometry": { "type": "Point", "coordinates": [ -46.770245, -23.4910583 ] } },
{ "type": "Feature", "properties": { "CNPJ": 21481348000118, "AGENTE": "CLAUDIO_SANTOS_MARIANO_CARIEL", "ACAO": "REALIZAR_PRIMEIRA_VISITA", "RAZAO_SOCIAL": "ANTONIO_EDUARDO_TEIXEIRA_RIBEIRO_COMERCIAL", "ENDERECO": "AVENIDAITABERABA_1261_NOSSASENHORADOO_SAOPAULO", "CIDADE": "SAO_PAULO", "LATITUDE": -23.4910652, "LONGITUDE": -46.6947369 }, "geometry": { "type": "Point", "coordinates": [ -46.6947369, -23.4910652 ] } },
{ "type": "Feature", "properties": { "CNPJ": 12238061000170, "AGENTE": "CLAUDIO_SANTOS_MARIANO_CARIEL", "ACAO": "REALIZAR_PRIMEIRA_VISITA", "RAZAO_SOCIAL": "REIMO_ARTE_EM_AUTOMOTORES_LTDA", "ENDERECO": "RUADESEMBARGADORCANDIDODACUNHACINTRA_22_JARDIMMANGALOT_SAOPAULO", "CIDADE": "SAO_PAULO", "LATITUDE": -23.4915962, "LONGITUDE": -46.7505781 }, "geometry": { "type": "Point", "coordinates": [ -46.7505781, -23.4915962 ] } },
{ "type": "Feature", "properties": { "CNPJ": 42083290000124, "AGENTE": "CLAUDIO_SANTOS_MARIANO_CARIEL", "ACAO": "REALIZAR_PRIMEIRA_VISITA", "RAZAO_SOCIAL": "MINIMERCADO_GPT_LTDA", "ENDERECO": "RUAISANGA_611_VILAAMERICA_SAOPAULO", "CIDADE": "SAO_PAULO", "LATITUDE": -23.4919752, "LONGITUDE": -46.7035712 }, "geometry": { "type": "Point", "coordinates": [ -46.7035712, -23.4919752 ] } },
{ "type": "Feature", "properties": { "CNPJ": 3801231000192, "AGENTE": "CLAUDIO_SANTOS_MARIANO_CARIEL", "ACAO": "REALIZAR_PRIMEIRA_VISITA", "RAZAO_SOCIAL": "MG_ALMO_LOJA_E_ESCOLA_DE_MUSICA_LTDA", "ENDERECO": "AVENIDAITABERABA_1068_NOSSASENHORADOO_SAOPAULO", "CIDADE": "SAO_PAULO", "LATITUDE": -23.4921205, "LONGITUDE": -46.6960581 }, "geometry": { "type": "Point", "coordinates": [ -46.6960581, -23.4921205 ] } },
{ "type": "Feature", "properties": { "CNPJ": 3591809000123, "AGENTE": "CLAUDIO_SANTOS_MARIANO_CARIEL", "ACAO": "REALIZAR_PRIMEIRA_VISITA", "RAZAO_SOCIAL": "AM_PONTE_CONTABIL_LTDA", "ENDERECO": "AVENIDAMUTINGA_3150_JARDIMSANTOELIAS_SAOPAULO", "CIDADE": "SAO_PAULO", "LATITUDE": -23.4921286, "LONGITUDE": -46.7514026 }, "geometry": { "type": "Point", "coordinates": [ -46.7514026, -23.4921286 ] } },
{ "type": "Feature", "properties": { "CNPJ": 21387978000128, "AGENTE": "CLAUDIO_SANTOS_MARIANO_CARIEL", "ACAO": "REALIZAR_PRIMEIRA_VISITA", "RAZAO_SOCIAL": "ADRIANA_DE_AGUIAR_RANGEL", "ENDERECO": "RUAARMANDOBONILHA_140_VILABONILHANOVA_SAOPAULO", "CIDADE": "SAO_PAULO", "LATITUDE": -23.4927254, "LONGITUDE": -46.7167776 }, "geometry": { "type": "Point", "coordinates": [ -46.7167776, -23.4927254 ] } },
{ "type": "Feature", "properties": { "CNPJ": 72729957000184, "AGENTE": "CLAUDIO_SANTOS_MARIANO_CARIEL", "ACAO": "REALIZAR_PRIMEIRA_VISITA", "RAZAO_SOCIAL": "JOAO_CARLOS_SAMPAIO", "ENDERECO": "RUAJOAQUIMOLIVEIRAFREITAS_1678_VILAMANGALOT_SAOPAULO", "CIDADE": "SAO_PAULO", "LATITUDE": -23.4929361, "LONGITUDE": -46.7451223 }, "geometry": { "type": "Point", "coordinates": [ -46.7451223, -23.4929361 ] } },
{ "type": "Feature", "properties": { "CNPJ": 52202257000120, "AGENTE": "CLAUDIO_SANTOS_MARIANO_CARIEL", "ACAO": "REALIZAR_PRIMEIRA_VISITA", "RAZAO_SOCIAL": "CELCA_ODONTOLOGIA_UNIPESSOAL", "ENDERECO": "AVENIDADOANASTACIO_1671_CITYAMERICA_SAOPAULO", "CIDADE": "SAO_PAULO", "LATITUDE": -23.4942969, "LONGITUDE": -46.7370474 }, "geometry": { "type": "Point", "coordinates": [ -46.7370474, -23.4942969 ] } },
{ "type": "Feature", "properties": { "CNPJ": 17942182000112, "AGENTE": "CLAUDIO_SANTOS_MARIANO_CARIEL", "ACAO": "REALIZAR_PRIMEIRA_VISITA", "RAZAO_SOCIAL": "LUGRAF_SOLUCOES_GRAFICAS_LTDA", "ENDERECO": "RUAJOAQUIMNABUCO_43_VILAMENCK_OSASCO", "CIDADE": "OSASCO", "LATITUDE": -23.4945236, "LONGITUDE": -46.7645026 }, "geometry": { "type": "Point", "coordinates": [ -46.7645026, -23.4945236 ] } },
{ "type": "Feature", "properties": { "CNPJ": 29788008000146, "AGENTE": "CLAUDIO_SANTOS_MARIANO_CARIEL", "ACAO": "REALIZAR_PRIMEIRA_VISITA", "RAZAO_SOCIAL": "SUSHI_PIRITUBA_REFEICOES_LTDA", "ENDERECO": "AVENIDAELISIOCORDEIRODESIQUEIRA_1272_JARDIMSANTOELIAS_SAOPAULO", "CIDADE": "SAO_PAULO", "LATITUDE": -23.4949233, "LONGITUDE": -46.7464683 }, "geometry": { "type": "Point", "coordinates": [ -46.7464683, -23.4949233 ] } },
{ "type": "Feature", "properties": { "CNPJ": 18023324000100, "AGENTE": "CLAUDIO_SANTOS_MARIANO_CARIEL", "ACAO": "REALIZAR_PRIMEIRA_VISITA", "RAZAO_SOCIAL": "ROGERIO_REDLLE_NEVES_DE_JESUS", "ENDERECO": "AVENIDADOANASTACIO_1593_CITYAMERICA_SAOPAULO", "CIDADE": "SAO_PAULO", "LATITUDE": -23.4950298, "LONGITUDE": -46.7367795 }, "geometry": { "type": "Point", "coordinates": [ -46.7367795, -23.4950298 ] } },
{ "type": "Feature", "properties": { "CNPJ": 5687559000155, "AGENTE": "CLAUDIO_SANTOS_MARIANO_CARIEL", "ACAO": "REALIZAR_PRIMEIRA_VISITA", "RAZAO_SOCIAL": "SILVANA_CRISTIANO_DOS_SANTOS_SILVA_SERVICOS_DE_TRANSPORTES_LTDA.", "ENDERECO": "AVENIDAELISIOCORDEIRODESIQUEIRA_1210_JARDIMSANTOELIAS_SAOPAULO", "CIDADE": "SAO_PAULO", "LATITUDE": -23.4955047, "LONGITUDE": -46.7464671 }, "geometry": { "type": "Point", "coordinates": [ -46.7464671, -23.4955047 ] } },
{ "type": "Feature", "properties": { "CNPJ": 234812000100, "AGENTE": "CLAUDIO_SANTOS_MARIANO_CARIEL", "ACAO": "REALIZAR_PRIMEIRA_VISITA", "RAZAO_SOCIAL": "BEG_ARTE_E_CULTURA_LTDA", "ENDERECO": "RUAMANUELMADRUGA_93_MOINHOVELHO_SAOPAULO", "CIDADE": "SAO_PAULO", "LATITUDE": -23.49589, "LONGITUDE": -46.6986533 }, "geometry": { "type": "Point", "coordinates": [ -46.6986533, -23.49589 ] } },
{ "type": "Feature", "properties": { "CNPJ": 27189987000190, "AGENTE": "CLAUDIO_SANTOS_MARIANO_CARIEL", "ACAO": "REALIZAR_PRIMEIRA_VISITA", "RAZAO_SOCIAL": "ROGERIO_APARECIDO_CORREA_COMERCIO_DE_MATERIAIS_DE_CONSTRUCAO", "ENDERECO": "AVENIDAMUTINGA_3651_JARDIMSANTOELIAS_SAOPAULO", "CIDADE": "SAO_PAULO", "LATITUDE": -23.4960346, "LONGITUDE": -46.7511039 }, "geometry": { "type": "Point", "coordinates": [ -46.7511039, -23.4960346 ] } },
{ "type": "Feature", "properties": { "CNPJ": 39309900000150, "AGENTE": "CLAUDIO_SANTOS_MARIANO_CARIEL", "ACAO": "REALIZAR_PRIMEIRA_VISITA", "RAZAO_SOCIAL": "VEXUR_CONSULTORIA_EM_INFORMATICA_LTDA", "ENDERECO": "RUAJOSEBAHIADEAMORIM_66_VILAMANGALOT_SAOPAULO", "CIDADE": "SAO_PAULO", "LATITUDE": -23.4960717, "LONGITUDE": -46.7464383 }, "geometry": { "type": "Point", "coordinates": [ -46.7464383, -23.4960717 ] } },
{ "type": "Feature", "properties": { "CNPJ": 10420386000144, "AGENTE": "CLAUDIO_SANTOS_MARIANO_CARIEL", "ACAO": "REALIZAR_PRIMEIRA_VISITA", "RAZAO_SOCIAL": "LOPES_&_GUEDES_COMERCIO_LTDA", "ENDERECO": "RUAJOSEBAHIADEAMORIM_33_VILAMANGALOT_SAOPAULO", "CIDADE": "SAO_PAULO", "LATITUDE": -23.496159, "LONGITUDE": -46.7460009 }, "geometry": { "type": "Point", "coordinates": [ -46.7460009, -23.496159 ] } },
{ "type": "Feature", "properties": { "CNPJ": 54642350000180, "AGENTE": "CLAUDIO_SANTOS_MARIANO_CARIEL", "ACAO": "REALIZAR_PRIMEIRA_VISITA", "RAZAO_SOCIAL": "INSTITUTO_PSICOTECNICO_VISAO_S/S_LTDA", "ENDERECO": "AVENIDAELISIOCORDEIRODESIQUEIRA_1128_JARDIMSANTOELIAS_SAOPAULO", "CIDADE": "SAO_PAULO", "LATITUDE": -23.496345, "LONGITUDE": -46.7463817 }, "geometry": { "type": "Point", "coordinates": [ -46.7463817, -23.496345 ] } },
{ "type": "Feature", "properties": { "CNPJ": 32897600000190, "AGENTE": "CLAUDIO_SANTOS_MARIANO_CARIEL", "ACAO": "REALIZAR_PRIMEIRA_VISITA", "RAZAO_SOCIAL": "COSTA_E_CRUZ_SERVICO_DE_ALIMENTACAO_LTDA", "ENDERECO": "AVENIDAMUTINGA_3725_JARDIMSANTOELIAS_SAOPAULO", "CIDADE": "SAO_PAULO", "LATITUDE": -23.4967083, "LONGITUDE": -46.7513367 }, "geometry": { "type": "Point", "coordinates": [ -46.7513367, -23.4967083 ] } },
{ "type": "Feature", "properties": { "CNPJ": 47381934000184, "AGENTE": "CLAUDIO_SANTOS_MARIANO_CARIEL", "ACAO": "REALIZAR_PRIMEIRA_VISITA", "RAZAO_SOCIAL": "OTICA_E_RELOJOARIA_KING_LTDA", "ENDERECO": "AVENIDAITABERABA_510_NOSSASENHORADOO_SAOPAULO", "CIDADE": "SAO_PAULO", "LATITUDE": -23.4967959, "LONGITUDE": -46.6978196 }, "geometry": { "type": "Point", "coordinates": [ -46.6978196, -23.4967959 ] } },
{ "type": "Feature", "properties": { "CNPJ": 51126972000168, "AGENTE": "CLAUDIO_SANTOS_MARIANO_CARIEL", "ACAO": "REALIZAR_PRIMEIRA_VISITA", "RAZAO_SOCIAL": "OTICA_VISTORIA_VEICULAR_LTDA", "ENDERECO": "AVENIDAELISIOCORDEIRODESIQUEIRA_1070_JARDIMSANTOELIAS_SAOPAULO", "CIDADE": "SAO_PAULO", "LATITUDE": -23.4968017, "LONGITUDE": -46.74652 }, "geometry": { "type": "Point", "coordinates": [ -46.74652, -23.4968017 ] } },
{ "type": "Feature", "properties": { "CNPJ": 47079149000171, "AGENTE": "CLAUDIO_SANTOS_MARIANO_CARIEL", "ACAO": "REALIZAR_PRIMEIRA_VISITA", "RAZAO_SOCIAL": "BILLIARDS_POINTS_BAR_LTDA", "ENDERECO": "RUAROMAOMARTINS_49_JARDIMSANTOELIAS_SAOPAULO", "CIDADE": "SAO_PAULO", "LATITUDE": -23.4970133, "LONGITUDE": -46.7473733 }, "geometry": { "type": "Point", "coordinates": [ -46.7473733, -23.4970133 ] } },
{ "type": "Feature", "properties": { "CNPJ": 13876221000170, "AGENTE": "CLAUDIO_SANTOS_MARIANO_CARIEL", "ACAO": "REALIZAR_PRIMEIRA_VISITA", "RAZAO_SOCIAL": "SWEET_SLEEP_COLCHOES_LTDA", "ENDERECO": "AVENIDAMUTINGA_3827_JARDIMSANTOELIAS_SAOPAULO", "CIDADE": "SAO_PAULO", "LATITUDE": -23.4973321, "LONGITUDE": -46.7514324 }, "geometry": { "type": "Point", "coordinates": [ -46.7514324, -23.4973321 ] } },
{ "type": "Feature", "properties": { "CNPJ": 27742852000100, "AGENTE": "CLAUDIO_SANTOS_MARIANO_CARIEL", "ACAO": "REALIZAR_PRIMEIRA_VISITA", "RAZAO_SOCIAL": "KATARINA_BOUTIQUE_A_CASA_LTDA", "ENDERECO": "AVENIDAMUTINGA_3803_JARDIMSANTOELIAS_SAOPAULO", "CIDADE": "SAO_PAULO", "LATITUDE": -23.497334, "LONGITUDE": -46.7513346 }, "geometry": { "type": "Point", "coordinates": [ -46.7513346, -23.497334 ] } },
{ "type": "Feature", "properties": { "CNPJ": 57754903000185, "AGENTE": "CLAUDIO_SANTOS_MARIANO_CARIEL", "ACAO": "REALIZAR_PRIMEIRA_VISITA", "RAZAO_SOCIAL": "CLV_FITNESS_LTDA", "ENDERECO": "AVENIDAELISIOCORDEIRODESIQUEIRA_985_JARDIMSANTOELIAS_SAOPAULO", "CIDADE": "SAO_PAULO", "LATITUDE": -23.4976027, "LONGITUDE": -46.7471829 }, "geometry": { "type": "Point", "coordinates": [ -46.7471829, -23.4976027 ] } },
{ "type": "Feature", "properties": { "CNPJ": 1539516000171, "AGENTE": "CLAUDIO_SANTOS_MARIANO_CARIEL", "ACAO": "REALIZAR_PRIMEIRA_VISITA", "RAZAO_SOCIAL": "COPPA_RICA_SORVETERIA_LTDA", "ENDERECO": "RUASEVERINOVILARFILHO_98_PARQUESAODOMINGOS_SAOPAULO", "CIDADE": "SAO_PAULO", "LATITUDE": -23.4980132, "LONGITUDE": -46.7397489 }, "geometry": { "type": "Point", "coordinates": [ -46.7397489, -23.4980132 ] } },
{ "type": "Feature", "properties": { "CNPJ": 28379895000136, "AGENTE": "CLAUDIO_SANTOS_MARIANO_CARIEL", "ACAO": "REALIZAR_PRIMEIRA_VISITA", "RAZAO_SOCIAL": "SORVETE_DO_INDE_LTDA", "ENDERECO": "RUALUISELIASATTIE_248_PARQUESAODOMINGOS_SAOPAULO", "CIDADE": "SAO_PAULO", "LATITUDE": -23.4984135, "LONGITUDE": -46.7371538 }, "geometry": { "type": "Point", "coordinates": [ -46.7371538, -23.4984135 ] } },
{ "type": "Feature", "properties": { "CNPJ": 26400383000260, "AGENTE": "CLAUDIO_SANTOS_MARIANO_CARIEL", "ACAO": "REALIZAR_PRIMEIRA_VISITA", "RAZAO_SOCIAL": "HELOFARMA_COMERCIO_DE_PRODUTOS_FARMACEUTICOS_LTDA", "ENDERECO": "AVENIDAELISIOCORDEIRODESIQUEIRA_887_JARDIMSANTOELIAS_SAOPAULO", "CIDADE": "SAO_PAULO", "LATITUDE": -23.4987249, "LONGITUDE": -46.747252 }, "geometry": { "type": "Point", "coordinates": [ -46.747252, -23.4987249 ] } },
{ "type": "Feature", "properties": { "CNPJ": 32929985000120, "AGENTE": "CLAUDIO_SANTOS_MARIANO_CARIEL", "ACAO": "REALIZAR_PRIMEIRA_VISITA", "RAZAO_SOCIAL": "SUELI_BABINI", "ENDERECO": "RUALUISELIASATTIE_108_PARQUESAODOMINGOS_SAOPAULO", "CIDADE": "SAO_PAULO", "LATITUDE": -23.4988846, "LONGITUDE": -46.7360565 }, "geometry": { "type": "Point", "coordinates": [ -46.7360565, -23.4988846 ] } },
{ "type": "Feature", "properties": { "CNPJ": 39528939000169, "AGENTE": "CLAUDIO_SANTOS_MARIANO_CARIEL", "ACAO": "REALIZAR_PRIMEIRA_VISITA", "RAZAO_SOCIAL": "M.AV1_MULTIMARCAS_LTDA.", "ENDERECO": "AVENIDAELISIOCORDEIRODESIQUEIRA_884_JARDIMSANTOELIAS_SAOPAULO", "CIDADE": "SAO_PAULO", "LATITUDE": -23.499115, "LONGITUDE": -46.7468117 }, "geometry": { "type": "Point", "coordinates": [ -46.7468117, -23.499115 ] } },
{ "type": "Feature", "properties": { "CNPJ": 9509477000171, "AGENTE": "CLAUDIO_SANTOS_MARIANO_CARIEL", "ACAO": "REALIZAR_PRIMEIRA_VISITA", "RAZAO_SOCIAL": "CITY_AMERICA_HAIR_CABELEIREIROS_LTDA.", "ENDERECO": "RUARUMIDERANIERI_196_PARQUESAODOMINGOS_SAOPAULO", "CIDADE": "SAO_PAULO", "LATITUDE": -23.4991349, "LONGITUDE": -46.7356902 }, "geometry": { "type": "Point", "coordinates": [ -46.7356902, -23.4991349 ] } },
{ "type": "Feature", "properties": { "CNPJ": 32081255000112, "AGENTE": "CLAUDIO_SANTOS_MARIANO_CARIEL", "ACAO": "REALIZAR_PRIMEIRA_VISITA", "RAZAO_SOCIAL": "ANA_KAROLINA_GIL_GRANETTO", "ENDERECO": "RUAEMILIOCOLELLA_169_PARQUESAODOMINGOS_SAOPAULO", "CIDADE": "SAO_PAULO", "LATITUDE": -23.4993183, "LONGITUDE": -46.7400783 }, "geometry": { "type": "Point", "coordinates": [ -46.7400783, -23.4993183 ] } },
{ "type": "Feature", "properties": { "CNPJ": 73003204000150, "AGENTE": "CLAUDIO_SANTOS_MARIANO_CARIEL", "ACAO": "REALIZAR_PRIMEIRA_VISITA", "RAZAO_SOCIAL": "INSTITUTO_EDUCACIONAL_PIRITUBANO_LTDA", "ENDERECO": "RUAJOAQUIMOLIVEIRAFREITAS_1828_VILAMANGALOT_SAOPAULO", "CIDADE": "SAO_PAULO", "LATITUDE": -23.4998554, "LONGITUDE": -46.7455642 }, "geometry": { "type": "Point", "coordinates": [ -46.7455642, -23.4998554 ] } },
{ "type": "Feature", "properties": { "CNPJ": 29710055000177, "AGENTE": "CLAUDIO_SANTOS_MARIANO_CARIEL", "ACAO": "REALIZAR_PRIMEIRA_VISITA", "RAZAO_SOCIAL": "FRANCELMA_SOARES_DIAS", "ENDERECO": "RUACELESTINOMARINELLI_10_PARQUESAODOMINGOS_SAOPAULO", "CIDADE": "SAO_PAULO", "LATITUDE": -23.4999, "LONGITUDE": -46.7400217 }, "geometry": { "type": "Point", "coordinates": [ -46.7400217, -23.4999 ] } },
{ "type": "Feature", "properties": { "CNPJ": 28965427000143, "AGENTE": "CLAUDIO_SANTOS_MARIANO_CARIEL", "ACAO": "REALIZAR_PRIMEIRA_VISITA", "RAZAO_SOCIAL": "SILMARA_COLLANERI_MELO_ACESSORIOS_FEMININOS_ME", "ENDERECO": "RUACELESTINOMARINELLI_20_PARQUESAODOMINGOS_SAOPAULO", "CIDADE": "SAO_PAULO", "LATITUDE": -23.4999325, "LONGITUDE": -46.740287 }, "geometry": { "type": "Point", "coordinates": [ -46.740287, -23.4999325 ] } },
{ "type": "Feature", "properties": { "CNPJ": 59453367000103, "AGENTE": "CLAUDIO_SANTOS_MARIANO_CARIEL", "ACAO": "REALIZAR_PRIMEIRA_VISITA", "RAZAO_SOCIAL": "BRAD'S_BOUTIQUE_LTDA", "ENDERECO": "RUABRIGADEIROHENRIQUEFONTENELLE_852_PARQUESAODOMINGOS_SAOPAULO", "CIDADE": "SAO_PAULO", "LATITUDE": -23.5000815, "LONGITUDE": -46.7390467 }, "geometry": { "type": "Point", "coordinates": [ -46.7390467, -23.5000815 ] } },
{ "type": "Feature", "properties": { "CNPJ": 3172219000166, "AGENTE": "CLAUDIO_SANTOS_MARIANO_CARIEL", "ACAO": "REALIZAR_PRIMEIRA_VISITA", "RAZAO_SOCIAL": "SALUTARIS_COMERCIO_DE_AGUA_MINERAL_LTDA", "ENDERECO": "RUACELESTINOMARINELLI_124_PARQUESAODOMINGOS_SAOPAULO", "CIDADE": "SAO_PAULO", "LATITUDE": -23.5005083, "LONGITUDE": -46.74107 }, "geometry": { "type": "Point", "coordinates": [ -46.74107, -23.5005083 ] } },
{ "type": "Feature", "properties": { "CNPJ": 35833467000105, "AGENTE": "CLAUDIO_SANTOS_MARIANO_CARIEL", "ACAO": "REALIZAR_PRIMEIRA_VISITA", "RAZAO_SOCIAL": "CATAO_SERVICOS_AUTOMOTIVOS_LTDA", "ENDERECO": "RUALUISFILGUEIRASOUTO_356_PARQUESAODOMINGOS_SAOPAULO", "CIDADE": "SAO_PAULO", "LATITUDE": -23.5012035, "LONGITUDE": -46.734156 }, "geometry": { "type": "Point", "coordinates": [ -46.734156, -23.5012035 ] } },
{ "type": "Feature", "properties": { "CNPJ": 39538923000137, "AGENTE": "CLAUDIO_SANTOS_MARIANO_CARIEL", "ACAO": "REALIZAR_PRIMEIRA_VISITA", "RAZAO_SOCIAL": "A.O.M_COMERCIO_E_IDIOMAS_LTDA", "ENDERECO": "RUAEURIPEDESTORRES_188_PARQUESAODOMINGOS_SAOPAULO", "CIDADE": "SAO_PAULO", "LATITUDE": -23.5012399, "LONGITUDE": -46.7386098 }, "geometry": { "type": "Point", "coordinates": [ -46.7386098, -23.5012399 ] } },
{ "type": "Feature", "properties": { "CNPJ": 36177245000136, "AGENTE": "CLAUDIO_SANTOS_MARIANO_CARIEL", "ACAO": "REALIZAR_PRIMEIRA_VISITA", "RAZAO_SOCIAL": "AMMURALHA_ATIVIDADES_FISICAS_E_TERAPIAS_LTDA", "ENDERECO": "RUADIRCEUDEALMEIDA_152_PARQUESAODOMINGOS_SAOPAULO", "CIDADE": "SAO_PAULO", "LATITUDE": -23.5013782, "LONGITUDE": -46.741928 }, "geometry": { "type": "Point", "coordinates": [ -46.741928, -23.5013782 ] } },
{ "type": "Feature", "properties": { "CNPJ": 50874757000344, "AGENTE": "CLAUDIO_SANTOS_MARIANO_CARIEL", "ACAO": "REALIZAR_PRIMEIRA_VISITA", "RAZAO_SOCIAL": "DOPRINCIPE_COMERCIO_E_SERVICOS_ALIMENTARES_LTDA", "ENDERECO": "RUAEURIPEDESTORRES_177_PARQUESAODOMINGOS_SAOPAULO", "CIDADE": "SAO_PAULO", "LATITUDE": -23.5014815, "LONGITUDE": -46.7385919 }, "geometry": { "type": "Point", "coordinates": [ -46.7385919, -23.5014815 ] } },
{ "type": "Feature", "properties": { "CNPJ": 58409458000189, "AGENTE": "CLAUDIO_SANTOS_MARIANO_CARIEL", "ACAO": "REALIZAR_PRIMEIRA_VISITA", "RAZAO_SOCIAL": "ENCANTO_TINTAS_PIRITUBA_LTDA", "ENDERECO": "RUAJOAQUIMOLIVEIRAFREITAS_501_VILAMANGALOT_SAOPAULO", "CIDADE": "SAO_PAULO", "LATITUDE": -23.5030967, "LONGITUDE": -46.7469293 }, "geometry": { "type": "Point", "coordinates": [ -46.7469293, -23.5030967 ] } },
{ "type": "Feature", "properties": { "CNPJ": 9398993000176, "AGENTE": "CLAUDIO_SANTOS_MARIANO_CARIEL", "ACAO": "REALIZAR_PRIMEIRA_VISITA", "RAZAO_SOCIAL": "K.G.L._VEDACOES_INDUSTRIA_E_COMERCIO_DE_ARTEFATOS_DE_BORRACHA_LTDA", "ENDERECO": "RUAJOAQUIMOLIVEIRAFREITAS_470_VILAMANGALOT_SAOPAULO", "CIDADE": "SAO_PAULO", "LATITUDE": -23.5033487, "LONGITUDE": -46.74677 }, "geometry": { "type": "Point", "coordinates": [ -46.74677, -23.5033487 ] } },
{ "type": "Feature", "properties": { "CNPJ": 30270182000181, "AGENTE": "CLAUDIO_SANTOS_MARIANO_CARIEL", "ACAO": "REALIZAR_PRIMEIRA_VISITA", "RAZAO_SOCIAL": "NORTELAR_ADMINISTRACAO_E_ASSESSORIA_LTDA", "ENDERECO": "AVENIDADOANASTACIO_547_CITYAMERICA_SAOPAULO", "CIDADE": "SAO_PAULO", "LATITUDE": -23.5034906, "LONGITUDE": -46.7334187 }, "geometry": { "type": "Point", "coordinates": [ -46.7334187, -23.5034906 ] } },
{ "type": "Feature", "properties": { "CNPJ": 27127266000156, "AGENTE": "CLAUDIO_SANTOS_MARIANO_CARIEL", "ACAO": "REALIZAR_PRIMEIRA_VISITA", "RAZAO_SOCIAL": "E.F._PIZZA_LTDA", "ENDERECO": "RUABRIGADEIROHENRIQUEFONTENELLE_448_PARQUESAODOMINGOS_SAOPAULO", "CIDADE": "SAO_PAULO", "LATITUDE": -23.5037183, "LONGITUDE": -46.7395117 }, "geometry": { "type": "Point", "coordinates": [ -46.7395117, -23.5037183 ] } },
{ "type": "Feature", "properties": { "CNPJ": 41851282000118, "AGENTE": "CLAUDIO_SANTOS_MARIANO_CARIEL", "ACAO": "REALIZAR_PRIMEIRA_VISITA", "RAZAO_SOCIAL": "INNOVARE_APOIO_A_EDUCACAO_LTDA", "ENDERECO": "RUABRIGADEIROHENRIQUEFONTENELLE_415_PARQUESAODOMINGOS_SAOPAULO", "CIDADE": "SAO_PAULO", "LATITUDE": -23.5038367, "LONGITUDE": -46.7397717 }, "geometry": { "type": "Point", "coordinates": [ -46.7397717, -23.5038367 ] } },
{ "type": "Feature", "properties": { "CNPJ": 28277865000119, "AGENTE": "CLAUDIO_SANTOS_MARIANO_CARIEL", "ACAO": "REALIZAR_PRIMEIRA_VISITA", "RAZAO_SOCIAL": "CASA_DO_PRODUTOR_CINE_&_EVENTOS_LTDA", "ENDERECO": "RUAJOAQUIMOLIVEIRAFREITAS_325_VILAMANGALOT_SAOPAULO", "CIDADE": "SAO_PAULO", "LATITUDE": -23.5045254, "LONGITUDE": -46.7472967 }, "geometry": { "type": "Point", "coordinates": [ -46.7472967, -23.5045254 ] } },
{ "type": "Feature", "properties": { "CNPJ": 746235000127, "AGENTE": "CLAUDIO_SANTOS_MARIANO_CARIEL", "ACAO": "REALIZAR_PRIMEIRA_VISITA", "RAZAO_SOCIAL": "HEIWA_IMOVEIS_LTDA", "ENDERECO": "RUABRIGADEIROHENRIQUEFONTENELLE_312_PARQUESAODOMINGOS_SAOPAULO", "CIDADE": "SAO_PAULO", "LATITUDE": -23.504765, "LONGITUDE": -46.7398015 }, "geometry": { "type": "Point", "coordinates": [ -46.7398015, -23.504765 ] } },
{ "type": "Feature", "properties": { "CNPJ": 32135068000174, "AGENTE": "CLAUDIO_SANTOS_MARIANO_CARIEL", "ACAO": "REALIZAR_PRIMEIRA_VISITA", "RAZAO_SOCIAL": "CLINICA_CALOVINI_SERVICOS_ODONTOLOGICOS_LTDA", "ENDERECO": "AVENIDADOANASTACIO_285_CITYAMERICA_SAOPAULO", "CIDADE": "SAO_PAULO", "LATITUDE": -23.5058265, "LONGITUDE": -46.733502 }, "geometry": { "type": "Point", "coordinates": [ -46.733502, -23.5058265 ] } },
{ "type": "Feature", "properties": { "CNPJ": 19423456000192, "AGENTE": "CLAUDIO_SANTOS_MARIANO_CARIEL", "ACAO": "REALIZAR_PRIMEIRA_VISITA", "RAZAO_SOCIAL": "MAYRA_MOREIRA_CITA_E_SILVA", "ENDERECO": "AVENIDAMUTINGA_5466_JARDIMSANTOELIAS_SAOPAULO", "CIDADE": "SAO_PAULO", "LATITUDE": -23.50723, "LONGITUDE": -46.76056 }, "geometry": { "type": "Point", "coordinates": [ -46.76056, -23.50723 ] } },
{ "type": "Feature", "properties": { "CNPJ": 24552000130, "AGENTE": "CLAUDIO_SANTOS_MARIANO_CARIEL", "ACAO": "REALIZAR_PRIMEIRA_VISITA", "RAZAO_SOCIAL": "AUTO_ELETRICO_KAZUYOSHI_LTDA", "ENDERECO": "AVENIDAMUTINGA_5375_JARDIMSANTOELIAS_SAOPAULO", "CIDADE": "SAO_PAULO", "LATITUDE": -23.5074287, "LONGITUDE": -46.7604429 }, "geometry": { "type": "Point", "coordinates": [ -46.7604429, -23.5074287 ] } },
{ "type": "Feature", "properties": { "CNPJ": 13729053000190, "AGENTE": "CLAUDIO_SANTOS_MARIANO_CARIEL", "ACAO": "REALIZAR_PRIMEIRA_VISITA", "RAZAO_SOCIAL": "HT_DIRECOES_COMERCIO_E_SERVICOS_AUTOMOTIVOS_LTDA.", "ENDERECO": "RUADOSRADIALISTAS_78_PARQUESAODOMINGOS_SAOPAULO", "CIDADE": "SAO_PAULO", "LATITUDE": -23.5074431, "LONGITUDE": -46.7331492 }, "geometry": { "type": "Point", "coordinates": [ -46.7331492, -23.5074431 ] } },
{ "type": "Feature", "properties": { "CNPJ": 60511308000123, "AGENTE": "CLAUDIO_SANTOS_MARIANO_CARIEL", "ACAO": "REALIZAR_PRIMEIRA_VISITA", "RAZAO_SOCIAL": "INFINITI_TECNOCAR_LTDA", "ENDERECO": "RUAINACIOLUISDACOSTA_1118_PARQUESAODOMINGOS_SAOPAULO", "CIDADE": "SAO_PAULO", "LATITUDE": -23.5081198, "LONGITUDE": -46.7327335 }, "geometry": { "type": "Point", "coordinates": [ -46.7327335, -23.5081198 ] } },
{ "type": "Feature", "properties": { "CNPJ": 22270098000130, "AGENTE": "CLAUDIO_SANTOS_MARIANO_CARIEL", "ACAO": "REALIZAR_PRIMEIRA_VISITA", "RAZAO_SOCIAL": "HENRIQUE_DIOGO", "ENDERECO": "RUACORONELVIRGILIODOSSANTOS_63_VILAJAGUARA_SAOPAULO", "CIDADE": "SAO_PAULO", "LATITUDE": -23.5108166, "LONGITUDE": -46.7469506 }, "geometry": { "type": "Point", "coordinates": [ -46.7469506, -23.5108166 ] } },
{ "type": "Feature", "properties": { "CNPJ": 58147936000120, "AGENTE": "CLAUDIO_SANTOS_MARIANO_CARIEL", "ACAO": "REALIZAR_PRIMEIRA_VISITA", "RAZAO_SOCIAL": "JFX_FOODS_LTDA", "ENDERECO": "RUADOMPEDROHENRIQUEDEORLEANSEBRAGANCA_606_VILAJAGUARA_SAOPAULO", "CIDADE": "SAO_PAULO", "LATITUDE": -23.5124718, "LONGITUDE": -46.7429559 }, "geometry": { "type": "Point", "coordinates": [ -46.7429559, -23.5124718 ] } },
{ "type": "Feature", "properties": { "CNPJ": 46200539000195, "AGENTE": "CLAUDIO_SANTOS_MARIANO_CARIEL", "ACAO": "REALIZAR_PRIMEIRA_VISITA", "RAZAO_SOCIAL": "PARCERIA_COMERCIO_DE_EMBALAGENS_LTDA", "ENDERECO": "RUADOMPEDROHENRIQUEDEORLEANSEBRAGANCA_601_VILAJAGUARA_SAOPAULO", "CIDADE": "SAO_PAULO", "LATITUDE": -23.5126087, "LONGITUDE": -46.7429153 }, "geometry": { "type": "Point", "coordinates": [ -46.7429153, -23.5126087 ] } },
{ "type": "Feature", "properties": { "CNPJ": 26061575000108, "AGENTE": "CLAUDIO_SANTOS_MARIANO_CARIEL", "ACAO": "REALIZAR_PRIMEIRA_VISITA", "RAZAO_SOCIAL": "BONITINHO_RESTAURANTE_LTDA", "ENDERECO": "RUADOMPEDROHENRIQUEDEORLEANSEBRAGANCA_383_VILAJAGUARA_SAOPAULO", "CIDADE": "SAO_PAULO", "LATITUDE": -23.5139417, "LONGITUDE": -46.74161 }, "geometry": { "type": "Point", "coordinates": [ -46.74161, -23.5139417 ] } },
{ "type": "Feature", "properties": { "CNPJ": 7700573000177, "AGENTE": "CLAUDIO_SANTOS_MARIANO_CARIEL", "ACAO": "REALIZAR_PRIMEIRA_VISITA", "RAZAO_SOCIAL": "EDILSON_BATISTA_DE_MORAIS", "ENDERECO": "RUASANTAFRANCISCA_126_VILAJAGUARA_SAOPAULO", "CIDADE": "SAO_PAULO", "LATITUDE": -23.5150683, "LONGITUDE": -46.7420734 }, "geometry": { "type": "Point", "coordinates": [ -46.7420734, -23.5150683 ] } },
{ "type": "Feature", "properties": { "CNPJ": 47531902000118, "AGENTE": "CLAUDIO_SANTOS_MARIANO_CARIEL", "ACAO": "REALIZAR_PRIMEIRA_VISITA", "RAZAO_SOCIAL": "RP_BENDVENDAS_E_SOLUCOES_LTDA", "ENDERECO": "RUAARTURORLANDO_967_VILAJAGUARA_SAOPAULO", "CIDADE": "SAO_PAULO", "LATITUDE": -23.5158191, "LONGITUDE": -46.7438536 }, "geometry": { "type": "Point", "coordinates": [ -46.7438536, -23.5158191 ] } },
{ "type": "Feature", "properties": { "CNPJ": 3586170000198, "AGENTE": "CLAUDIO_SANTOS_MARIANO_CARIEL", "ACAO": "REALIZAR_PRIMEIRA_VISITA", "RAZAO_SOCIAL": "HIDRAU_SYSTEM_MOBIL_LTDA", "ENDERECO": "RUAAGRESTINA_134_VILAJAGUARA_SAOPAULO", "CIDADE": "SAO_PAULO", "LATITUDE": -23.5159377, "LONGITUDE": -46.7416944 }, "geometry": { "type": "Point", "coordinates": [ -46.7416944, -23.5159377 ] } },
{ "type": "Feature", "properties": { "CNPJ": 34855062000105, "AGENTE": "CLAUDIO_SANTOS_MARIANO_CARIEL", "ACAO": "REALIZAR_PRIMEIRA_VISITA", "RAZAO_SOCIAL": "DELICIAS_DA_TERRA_HORTIFRUTI_LTDA", "ENDERECO": "RUACACHOEIRADOSUL_693_VILAJAGUARA_SAOPAULO", "CIDADE": "SAO_PAULO", "LATITUDE": -23.5161799, "LONGITUDE": -46.74113 }, "geometry": { "type": "Point", "coordinates": [ -46.74113, -23.5161799 ] } },
{ "type": "Feature", "properties": { "CNPJ": 3251326000180, "AGENTE": "CLAUDIO_SANTOS_MARIANO_CARIEL", "ACAO": "REALIZAR_PRIMEIRA_VISITA", "RAZAO_SOCIAL": "N._OBATA_MOTORES_COMERCIO_E_SERVICOS_LTDA", "ENDERECO": "PRACABERTHIERBENTOALVES_16_VILAPRIMAVERA_SAOPAULO", "CIDADE": "SAO_PAULO", "LATITUDE": -23.4924472, "LONGITUDE": -46.6922062 }, "geometry": { "type": "Point", "coordinates": [ -46.6922062, -23.4924472 ] } },
{ "type": "Feature", "properties": { "CNPJ": 52515146000173, "AGENTE": "CLAUDIO_SANTOS_MARIANO_CARIEL", "ACAO": "REALIZAR_PRIMEIRA_VISITA", "RAZAO_SOCIAL": "BAR_E_RESTAURANTE_DO_NILTINHO_LTDA", "ENDERECO": "RUAAMELIOPOLIS_56_VILAPRIMAVERA_SAOPAULO", "CIDADE": "SAO_PAULO", "LATITUDE": -23.494489, "LONGITUDE": -46.6915501 }, "geometry": { "type": "Point", "coordinates": [ -46.6915501, -23.494489 ] } },
{ "type": "Feature", "properties": { "CNPJ": 4597995000170, "AGENTE": "CLAUDIO_SANTOS_MARIANO_CARIEL", "ACAO": "REALIZAR_PRIMEIRA_VISITA", "RAZAO_SOCIAL": "GN_MAX_ASSESSORIA_IMOBILIARIA_S/S_LTDA", "ENDERECO": "RUABRITOPEIXOTO_77_VILAPRIMAVERA_SAOPAULO", "CIDADE": "SAO_PAULO", "LATITUDE": -23.4946617, "LONGITUDE": -46.6926141 }, "geometry": { "type": "Point", "coordinates": [ -46.6926141, -23.4946617 ] } },
{ "type": "Feature", "properties": { "CNPJ": 13171446000120, "AGENTE": "CLAUDIO_SANTOS_MARIANO_CARIEL", "ACAO": "REALIZAR_PRIMEIRA_VISITA", "RAZAO_SOCIAL": "BENEDITO_HELENO_FERREIRA_JUNIOR", "ENDERECO": "RUASIMAOVELHO_478_VILAALBERTINA_SAOPAULO", "CIDADE": "SAO_PAULO", "LATITUDE": -23.4948617, "LONGITUDE": -46.69184 }, "geometry": { "type": "Point", "coordinates": [ -46.69184, -23.4948617 ] } },
{ "type": "Feature", "properties": { "CNPJ": 10238401000138, "AGENTE": "CLAUDIO_SANTOS_MARIANO_CARIEL", "ACAO": "REALIZAR_PRIMEIRA_VISITA", "RAZAO_SOCIAL": "TOTTY_PIZZARIA_LTDA", "ENDERECO": "RUABONIFACIOCUBAS_767_VILAALBERTINA_SAOPAULO", "CIDADE": "SAO_PAULO", "LATITUDE": -23.4961429, "LONGITUDE": -46.6935552 }, "geometry": { "type": "Point", "coordinates": [ -46.6935552, -23.4961429 ] } },
{ "type": "Feature", "properties": { "CNPJ": 2362029000149, "AGENTE": "CLAUDIO_SANTOS_MARIANO_CARIEL", "ACAO": "REALIZAR_PRIMEIRA_VISITA", "RAZAO_SOCIAL": "FARMASANTOS_LTDA", "ENDERECO": "RUABARTOLOMEUFARIA_651_VILAALBERTINA_SAOPAULO", "CIDADE": "SAO_PAULO", "LATITUDE": -23.4974857, "LONGITUDE": -46.6900456 }, "geometry": { "type": "Point", "coordinates": [ -46.6900456, -23.4974857 ] } },
{ "type": "Feature", "properties": { "CNPJ": 43734312000131, "AGENTE": "CLAUDIO_SANTOS_MARIANO_CARIEL", "ACAO": "REALIZAR_PRIMEIRA_VISITA", "RAZAO_SOCIAL": "SMILE_ESMALTERIA_NAIL_CAFE_LTDA", "ENDERECO": "RUAJAVORAU_452_VILAALBERTINA_SAOPAULO", "CIDADE": "SAO_PAULO", "LATITUDE": -23.4979213, "LONGITUDE": -46.6975905 }, "geometry": { "type": "Point", "coordinates": [ -46.6975905, -23.4979213 ] } },
{ "type": "Feature", "properties": { "CNPJ": 20549924000159, "AGENTE": "CLAUDIO_SANTOS_MARIANO_CARIEL", "ACAO": "REALIZAR_PRIMEIRA_VISITA", "RAZAO_SOCIAL": "VITORIA_STETIC_CENTER_LTDA", "ENDERECO": "RUAANTONIODECOUROS_359_VILAPALMEIRAS_SAOPAULO", "CIDADE": "SAO_PAULO", "LATITUDE": -23.4983161, "LONGITUDE": -46.6892659 }, "geometry": { "type": "Point", "coordinates": [ -46.6892659, -23.4983161 ] } },
{ "type": "Feature", "properties": { "CNPJ": 24368168000112, "AGENTE": "CLAUDIO_SANTOS_MARIANO_CARIEL", "ACAO": "REALIZAR_PRIMEIRA_VISITA", "RAZAO_SOCIAL": "HM_MAQ_COMERCIO_E_ASSISTENCIA_TECNICA_LTDA", "ENDERECO": "RUAMANUELCORREIA_350_VILAPALMEIRAS_SAOPAULO", "CIDADE": "SAO_PAULO", "LATITUDE": -23.4983916, "LONGITUDE": -46.6888227 }, "geometry": { "type": "Point", "coordinates": [ -46.6888227, -23.4983916 ] } },
{ "type": "Feature", "properties": { "CNPJ": 51026110000163, "AGENTE": "CLAUDIO_SANTOS_MARIANO_CARIEL", "ACAO": "REALIZAR_PRIMEIRA_VISITA", "RAZAO_SOCIAL": "EMOTO_MATERIAIS_DE_CONSTRUCAO_LTDA", "ENDERECO": "RUAANTONIODECOUROS_218_VILAPALMEIRAS_SAOPAULO", "CIDADE": "SAO_PAULO", "LATITUDE": -23.4993075, "LONGITUDE": -46.6881778 }, "geometry": { "type": "Point", "coordinates": [ -46.6881778, -23.4993075 ] } },
{ "type": "Feature", "properties": { "CNPJ": 55925019000130, "AGENTE": "CLAUDIO_SANTOS_MARIANO_CARIEL", "ACAO": "REALIZAR_PRIMEIRA_VISITA", "RAZAO_SOCIAL": "BORELLI_TECH_LTDA", "ENDERECO": "RUAJAVORAU_239_VILAALBERTINA_SAOPAULO", "CIDADE": "SAO_PAULO", "LATITUDE": -23.4995101, "LONGITUDE": -46.6958371 }, "geometry": { "type": "Point", "coordinates": [ -46.6958371, -23.4995101 ] } },
{ "type": "Feature", "properties": { "CNPJ": 57418445000103, "AGENTE": "CLAUDIO_SANTOS_MARIANO_CARIEL", "ACAO": "REALIZAR_PRIMEIRA_VISITA", "RAZAO_SOCIAL": "KEB_MANUTENCAO_DE_EQUIPAMENTOS_LTDA", "ENDERECO": "LADEIRAVELHA_43_FREGUESIADOO_SAOPAULO", "CIDADE": "SAO_PAULO", "LATITUDE": -23.50096, "LONGITUDE": -46.6959151 }, "geometry": { "type": "Point", "coordinates": [ -46.6959151, -23.50096 ] } },
{ "type": "Feature", "properties": { "CNPJ": 40046255000100, "AGENTE": "CLAUDIO_SANTOS_MARIANO_CARIEL", "ACAO": "REALIZAR_PRIMEIRA_VISITA", "RAZAO_SOCIAL": "DUTRA_10_COMERCIO_DE_EXTINTORES_LTDA", "ENDERECO": "RUAENEIASLUISCARLOSBARBANTI_80_FREGUESIADOO_SAOPAULO", "CIDADE": "SAO_PAULO", "LATITUDE": -23.5038007, "LONGITUDE": -46.6947411 }, "geometry": { "type": "Point", "coordinates": [ -46.6947411, -23.5038007 ] } },
{ "type": "Feature", "properties": { "CNPJ": 34593193000153, "AGENTE": "CLAUDIO_SANTOS_MARIANO_CARIEL", "ACAO": "REALIZAR_PRIMEIRA_VISITA", "RAZAO_SOCIAL": "MERCEARIA_CAROL_LTDA", "ENDERECO": "RUAGAETANOPASQUALESERRICHIO_134_VILAARCADIA_SAOPAULO", "CIDADE": "SAO_PAULO", "LATITUDE": -23.5048254, "LONGITUDE": -46.7020296 }, "geometry": { "type": "Point", "coordinates": [ -46.7020296, -23.5048254 ] } },
{ "type": "Feature", "properties": { "CNPJ": 17575780000109, "AGENTE": "CLAUDIO_SANTOS_MARIANO_CARIEL", "ACAO": "REALIZAR_PRIMEIRA_VISITA", "RAZAO_SOCIAL": "BRUNNO_DAMIAO_LEOPOLDO_GODOI", "ENDERECO": "RUAMANUELINACIODACOSTA_2_VILASANTADELFINA_SAOPAULO", "CIDADE": "SAO_PAULO", "LATITUDE": -23.5050933, "LONGITUDE": -46.7051317 }, "geometry": { "type": "Point", "coordinates": [ -46.7051317, -23.5050933 ] } }
]
}
