{
"type": "FeatureCollection",
"name": "GABRIEL_ALBINO",
"crs": { "type": "name", "properties": { "name": "urn:ogc:def:crs:OGC:1.3:CRS84" } },
"xy_coordinate_resolution": 1e-15,
"features": [
{ "type": "Feature", "properties": { "CNPJ": 38300384000130, "AGENTE": "GABRIEL_ALBINO", "ACAO": "REALIZAR_PRIMEIRA_VISITA", "RAZAO_SOCIAL": "MLE_TOP_BARATO_MANIA_LTDA", "ENDERECO": "AVENIDA_CORONEL_JOSE_SOARES_MARCONDES_1591_VILA_EUCLIDES_PRESIDENTE_PRUDENTE", "CIDADE": "PRESIDENTE_PRUDENTE", "LATITUDE": -22.1252856, "LONGITUDE": -51.3896659 }, "geometry": { "type": "Point", "coordinates": [ -51.3896659, -22.1252856 ] } },
{ "type": "Feature", "properties": { "CNPJ": 58363635000133, "AGENTE": "GABRIEL_ALBINO", "ACAO": "REALIZAR_PRIMEIRA_VISITA", "RAZAO_SOCIAL": "EVOLUIREE_CENTRO_MULTIDISCIPLINAR_PARA_ANALISE_E_INTERVENCAO_COMPORTAMENTAL_LTDA", "ENDERECO": "AVENIDA_GETULIO_VARGAS_143_BOSQUE_PRESIDENTE_PRUDENTE", "CIDADE": "PRESIDENTE_PRUDENTE", "LATITUDE": -22.1190128, "LONGITUDE": -51.3828194 }, "geometry": { "type": "Point", "coordinates": [ -51.3828194, -22.1190128 ] } },
{ "type": "Feature", "properties": { "CNPJ": 8826468000141, "AGENTE": "GABRIEL_ALBINO", "ACAO": "REALIZAR_PRIMEIRA_VISITA", "RAZAO_SOCIAL": "CORNELIO_IGNACIO_DA_SILVA", "ENDERECO": "AVENIDA_JOSE_BONIFACIO_951_CENTRO_DRACENA", "CIDADE": "DRACENA", "LATITUDE": -21.4897607, "LONGITUDE": -51.5348253 }, "geometry": { "type": "Point", "coordinates": [ -51.5348253, -21.4897607 ] } },
{ "type": "Feature", "properties": { "CNPJ": 37833541000291, "AGENTE": "GABRIEL_ALBINO", "ACAO": "REALIZAR_PRIMEIRA_VISITA", "RAZAO_SOCIAL": "RECANTO_DAS_FLORES_NASCIMENTO_LTDA", "ENDERECO": "AVENIDA_JOSE_BONIFACIO_973_CENTRO_DRACENA", "CIDADE": "DRACENA", "LATITUDE": -21.4894819, "LONGITUDE": -51.5350138 }, "geometry": { "type": "Point", "coordinates": [ -51.5350138, -21.4894819 ] } },
{ "type": "Feature", "properties": { "CNPJ": 47618269000108, "AGENTE": "GABRIEL_ALBINO", "ACAO": "REALIZAR_PRIMEIRA_VISITA", "RAZAO_SOCIAL": "TSUBOI_COMERCIO_DE_PNEUS_DRACENA_LTDA", "ENDERECO": "AVENIDA_PRESIDENTE_ROOSEVELT_1108_CENTRO_DRACENA", "CIDADE": "DRACENA", "LATITUDE": -21.4875902, "LONGITUDE": -51.5382281 }, "geometry": { "type": "Point", "coordinates": [ -51.5382281, -21.4875902 ] } },
{ "type": "Feature", "properties": { "CNPJ": 1173554000153, "AGENTE": "GABRIEL_ALBINO", "ACAO": "REALIZAR_PRIMEIRA_VISITA", "RAZAO_SOCIAL": "ADALBERTO_DESPENCIERI_DRACENA", "ENDERECO": "AVENIDA_PRESIDENTE_ROOSEVELT_1134_CENTRO_DRACENA", "CIDADE": "DRACENA", "LATITUDE": -21.4872136, "LONGITUDE": -51.5388556 }, "geometry": { "type": "Point", "coordinates": [ -51.5388556, -21.4872136 ] } },
{ "type": "Feature", "properties": { "CNPJ": 65436016000197, "AGENTE": "GABRIEL_ALBINO", "ACAO": "REALIZAR_PRIMEIRA_VISITA", "RAZAO_SOCIAL": "COMERCIAL_KONDA_LTDA", "ENDERECO": "AVENIDA_PRESIDENTE_ROOSEVELT_1168_CENTRO_DRACENA", "CIDADE": "DRACENA", "LATITUDE": -21.4872545, "LONGITUDE": -51.5391073 }, "geometry": { "type": "Point", "coordinates": [ -51.5391073, -21.4872545 ] } },
{ "type": "Feature", "properties": { "CNPJ": 30258915000162, "AGENTE": "GABRIEL_ALBINO", "ACAO": "REALIZAR_PRIMEIRA_VISITA", "RAZAO_SOCIAL": "R_C_DE_SOUZA_RODRIGUES_BOUTIQUE_LTDA", "ENDERECO": "AVENIDA_PRESIDENTE_ROOSEVELT_529_CENTRO_DRACENA", "CIDADE": "DRACENA", "LATITUDE": -21.4888841, "LONGITUDE": -51.5333029 }, "geometry": { "type": "Point", "coordinates": [ -51.5333029, -21.4888841 ] } },
{ "type": "Feature", "properties": { "CNPJ": 7047664000155, "AGENTE": "GABRIEL_ALBINO", "ACAO": "REALIZAR_PRIMEIRA_VISITA", "RAZAO_SOCIAL": "SANTI_&_SCALIANTE_LIVRARIA_LTDA", "ENDERECO": "AVENIDA_PRESIDENTE_ROOSEVELT_537_CENTRO_DRACENA", "CIDADE": "DRACENA", "LATITUDE": -21.4888919, "LONGITUDE": -51.5333436 }, "geometry": { "type": "Point", "coordinates": [ -51.5333436, -21.4888919 ] } },
{ "type": "Feature", "properties": { "CNPJ": 61292959000132, "AGENTE": "GABRIEL_ALBINO", "ACAO": "REALIZAR_PRIMEIRA_VISITA", "RAZAO_SOCIAL": "TERRA_PIRES_&_CIA_LTDA", "ENDERECO": "AVENIDA_WASHINGTON_LUIZ_2046_JARDIM_PAULISTA_PRESIDENTE_PRUDENTE", "CIDADE": "PRESIDENTE_PRUDENTE", "LATITUDE": -22.1158657, "LONGITUDE": -51.4005718 }, "geometry": { "type": "Point", "coordinates": [ -51.4005718, -22.1158657 ] } },
{ "type": "Feature", "properties": { "CNPJ": 10495973000100, "AGENTE": "GABRIEL_ALBINO", "ACAO": "REALIZAR_PRIMEIRA_VISITA", "RAZAO_SOCIAL": "T._A._PEREIRA_LANCHONETE", "ENDERECO": "RUA_ABILIO_NASCIMENTO_1320_JARDIM_SANTA_MARTA_PRESIDENTE_PRUDENTE", "CIDADE": "PRESIDENTE_PRUDENTE", "LATITUDE": -22.1387481, "LONGITUDE": -51.37594 }, "geometry": { "type": "Point", "coordinates": [ -51.37594, -22.1387481 ] } },
{ "type": "Feature", "properties": { "CNPJ": 5435173000156, "AGENTE": "GABRIEL_ALBINO", "ACAO": "REALIZAR_PRIMEIRA_VISITA", "RAZAO_SOCIAL": "M.M._COMERCIO_DE_GAS_PRESIDENTE_PRUDENTE_LTDA", "ENDERECO": "RUA_ALBERTO_ARTONI_35_JARDIM_SANTANA_PRESIDENTE_PRUDENTE", "CIDADE": "PRESIDENTE_PRUDENTE", "LATITUDE": -22.146272, "LONGITUDE": -51.3853109 }, "geometry": { "type": "Point", "coordinates": [ -51.3853109, -22.146272 ] } },
{ "type": "Feature", "properties": { "CNPJ": 37501878000110, "AGENTE": "GABRIEL_ALBINO", "ACAO": "REALIZAR_PRIMEIRA_VISITA", "RAZAO_SOCIAL": "F_M_DIONIZIO_PET_SHOP_LTDA", "ENDERECO": "RUA_ALVINO_GOMES_TEIXEIRA_2140_PARQUE_FURQUIM_PRESIDENTE_PRUDENTE", "CIDADE": "PRESIDENTE_PRUDENTE", "LATITUDE": -22.1029471, "LONGITUDE": -51.3887156 }, "geometry": { "type": "Point", "coordinates": [ -51.3887156, -22.1029471 ] } },
{ "type": "Feature", "properties": { "CNPJ": 66577222000180, "AGENTE": "GABRIEL_ALBINO", "ACAO": "REALIZAR_PRIMEIRA_VISITA", "RAZAO_SOCIAL": "VANESSA_DE_SOUSA_PAZOTE_ZAQUI_LTDA", "ENDERECO": "RUA_ANTONIO_ROBLES_FERNANDES_101_JARDIM_NOVA_PLANALTINA_PRESIDENTE_PRUDENTE", "CIDADE": "PRESIDENTE_PRUDENTE", "LATITUDE": -22.1430765, "LONGITUDE": -51.3820949 }, "geometry": { "type": "Point", "coordinates": [ -51.3820949, -22.1430765 ] } },
{ "type": "Feature", "properties": { "CNPJ": 20424608000150, "AGENTE": "GABRIEL_ALBINO", "ACAO": "REALIZAR_PRIMEIRA_VISITA", "RAZAO_SOCIAL": "SOLANGE_SAKIMI_SATO_MATTOS", "ENDERECO": "RUA_BARAO_DO_RIO_BRANCO_1510_VILA_SANTA_HELENA_PRESIDENTE_PRUDENTE", "CIDADE": "PRESIDENTE_PRUDENTE", "LATITUDE": -22.1194814, "LONGITUDE": -51.3964258 }, "geometry": { "type": "Point", "coordinates": [ -51.3964258, -22.1194814 ] } },
{ "type": "Feature", "properties": { "CNPJ": 446092000138, "AGENTE": "GABRIEL_ALBINO", "ACAO": "REALIZAR_PRIMEIRA_VISITA", "RAZAO_SOCIAL": "LIMP-LAR_INDUSTRIA_E_COMERCIO_DE_MATERIAIS_DE_LIMPEZA_LTDA", "ENDERECO": "RUA_BARAO_DO_RIO_BRANCO_1680_VILA_SANTA_HELENA_PRESIDENTE_PRUDENTE", "CIDADE": "PRESIDENTE_PRUDENTE", "LATITUDE": -22.1188529, "LONGITUDE": -51.3980466 }, "geometry": { "type": "Point", "coordinates": [ -51.3980466, -22.1188529 ] } },
{ "type": "Feature", "properties": { "CNPJ": 21211457000115, "AGENTE": "GABRIEL_ALBINO", "ACAO": "REALIZAR_PRIMEIRA_VISITA", "RAZAO_SOCIAL": "MARTA_OLINDA_FERREIRA", "ENDERECO": "RUA_BARAO_DO_RIO_BRANCO_941_CENTRO_PRESIDENTE_PRUDENTE", "CIDADE": "PRESIDENTE_PRUDENTE", "LATITUDE": -22.1221506, "LONGITUDE": -51.3915669 }, "geometry": { "type": "Point", "coordinates": [ -51.3915669, -22.1221506 ] } },
{ "type": "Feature", "properties": { "CNPJ": 36089247000173, "AGENTE": "GABRIEL_ALBINO", "ACAO": "REALIZAR_PRIMEIRA_VISITA", "RAZAO_SOCIAL": "MITIGOU_TECH_CURSOS_E_TREINAMENTOS_LTDA", "ENDERECO": "RUA_BARAO_DO_RIO_BRANCO_999_CENTRO_PRESIDENTE_PRUDENTE", "CIDADE": "PRESIDENTE_PRUDENTE", "LATITUDE": -22.1219236, "LONGITUDE": -51.3920562 }, "geometry": { "type": "Point", "coordinates": [ -51.3920562, -22.1219236 ] } },
{ "type": "Feature", "properties": { "CNPJ": 72692569000176, "AGENTE": "GABRIEL_ALBINO", "ACAO": "REALIZAR_PRIMEIRA_VISITA", "RAZAO_SOCIAL": "LANCHONETE_O_REI_DO_MOCOTO_PRESIDENTE_PRUDENTE_LTDA", "ENDERECO": "RUA_BENEDITO_SOARES_MARCONDES_877_VILA_RAMOS_DE_FREITAS_PRESIDENTE_PRUDENTE", "CIDADE": "PRESIDENTE_PRUDENTE", "LATITUDE": -22.1400614, "LONGITUDE": -51.3795322 }, "geometry": { "type": "Point", "coordinates": [ -51.3795322, -22.1400614 ] } },
{ "type": "Feature", "properties": { "CNPJ": 3351862000157, "AGENTE": "GABRIEL_ALBINO", "ACAO": "REALIZAR_PRIMEIRA_VISITA", "RAZAO_SOCIAL": "LOVITHA_TRANSPORTES_LTDA", "ENDERECO": "RUA_CARLOS_IGNACIO_ALCENCIO_152_JARDIM_PLANALTO_PRESIDENTE_PRUDENTE", "CIDADE": "PRESIDENTE_PRUDENTE", "LATITUDE": -22.1497919, "LONGITUDE": -51.3863029 }, "geometry": { "type": "Point", "coordinates": [ -51.3863029, -22.1497919 ] } },
{ "type": "Feature", "properties": { "CNPJ": 74274648000192, "AGENTE": "GABRIEL_ALBINO", "ACAO": "REALIZAR_PRIMEIRA_VISITA", "RAZAO_SOCIAL": "DROGARIA_MARIOTO_PRESIDENTE_PRUDENTE_LTDA", "ENDERECO": "RUA_JOAQUIM_MARQUES_CALDEIRA_274_JARDIM_BRASILIA_PRESIDENTE_PRUDENTE", "CIDADE": "PRESIDENTE_PRUDENTE", "LATITUDE": -22.143695, "LONGITUDE": -51.3859219 }, "geometry": { "type": "Point", "coordinates": [ -51.3859219, -22.143695 ] } },
{ "type": "Feature", "properties": { "CNPJ": 3314418000161, "AGENTE": "GABRIEL_ALBINO", "ACAO": "REALIZAR_PRIMEIRA_VISITA", "RAZAO_SOCIAL": "M_C_GOMES_COMERCIAL_LTDA", "ENDERECO": "RUA_JOSE_MENUZZI_13_JARDIM_SANTANA_PRESIDENTE_PRUDENTE", "CIDADE": "PRESIDENTE_PRUDENTE", "LATITUDE": -22.1463695, "LONGITUDE": -51.3857917 }, "geometry": { "type": "Point", "coordinates": [ -51.3857917, -22.1463695 ] } },
{ "type": "Feature", "properties": { "CNPJ": 47063094000101, "AGENTE": "GABRIEL_ALBINO", "ACAO": "REALIZAR_PRIMEIRA_VISITA", "RAZAO_SOCIAL": "CIRULABOR_PRODUTOS_CIRURGICOS_LTDA", "ENDERECO": "RUA_JOSE_THEODORO_126_VILA_EUCLIDES_PRESIDENTE_PRUDENTE", "CIDADE": "PRESIDENTE_PRUDENTE", "LATITUDE": -22.1276372, "LONGITUDE": -51.3930304 }, "geometry": { "type": "Point", "coordinates": [ -51.3930304, -22.1276372 ] } },
{ "type": "Feature", "properties": { "CNPJ": 7083706000103, "AGENTE": "GABRIEL_ALBINO", "ACAO": "REALIZAR_PRIMEIRA_VISITA", "RAZAO_SOCIAL": "JONAS_KOJI_SATO", "ENDERECO": "RUA_MONTE_CASTELO_1066_CENTRO_DRACENA", "CIDADE": "DRACENA", "LATITUDE": -21.4891655, "LONGITUDE": -51.5334702 }, "geometry": { "type": "Point", "coordinates": [ -51.5334702, -21.4891655 ] } },
{ "type": "Feature", "properties": { "CNPJ": 27828885000178, "AGENTE": "GABRIEL_ALBINO", "ACAO": "REALIZAR_PRIMEIRA_VISITA", "RAZAO_SOCIAL": "MEDICAL_PET_CLINICA_VETERINARIA_LTDA", "ENDERECO": "RUA_MONTE_CASTELO_1073_CENTRO_DRACENA", "CIDADE": "DRACENA", "LATITUDE": -21.4891758, "LONGITUDE": -51.5338741 }, "geometry": { "type": "Point", "coordinates": [ -51.5338741, -21.4891758 ] } },
{ "type": "Feature", "properties": { "CNPJ": 8088087000102, "AGENTE": "GABRIEL_ALBINO", "ACAO": "REALIZAR_PRIMEIRA_VISITA", "RAZAO_SOCIAL": "RODRIGO_AKAHOSHI_GASPARELLI", "ENDERECO": "RUA_SAO_PAULO_981_DRACENA_DRACENA", "CIDADE": "DRACENA", "LATITUDE": -21.4876168, "LONGITUDE": -51.539583 }, "geometry": { "type": "Point", "coordinates": [ -51.539583, -21.4876168 ] } },
{ "type": "Feature", "properties": { "CNPJ": 20097673000119, "AGENTE": "GABRIEL_ALBINO", "ACAO": "REALIZAR_PRIMEIRA_VISITA", "RAZAO_SOCIAL": "ALVES_DIAS_AUTOELETRICA_LTDA", "ENDERECO": "RUA_SARGENTO_FIRMINO_LEAO_153_VILA_MARCONDES_PRESIDENTE_PRUDENTE", "CIDADE": "PRESIDENTE_PRUDENTE", "LATITUDE": -22.1254287, "LONGITUDE": -51.3812828 }, "geometry": { "type": "Point", "coordinates": [ -51.3812828, -22.1254287 ] } },
{ "type": "Feature", "properties": { "CNPJ": 48423036000104, "AGENTE": "GABRIEL_ALBINO", "ACAO": "REALIZAR_PRIMEIRA_VISITA", "RAZAO_SOCIAL": "CARBONE_&_LIMA_LTDA", "ENDERECO": "RUA_VISCONDE_DO_RIO_BRANCO_995_CENTRO_DRACENA", "CIDADE": "DRACENA", "LATITUDE": -21.4876498, "LONGITUDE": -51.5385982 }, "geometry": { "type": "Point", "coordinates": [ -51.5385982, -21.4876498 ] } },
{ "type": "Feature", "properties": { "CNPJ": 4074904000112, "AGENTE": "GABRIEL_ALBINO", "ACAO": "REALIZAR_SEGUNDA_VISITA", "RAZAO_SOCIAL": "SAPO_COMERCIO_E_LOCACAO_DE_EQUIPAMENTOS_PARA_CONSTRUCAO_LTDA_-_SAPO_LOCACOES", "ENDERECO": "AVENIDA_BRASIL_3092_VILA_FORMOSA_PRESIDENTE_PRUDENTE", "CIDADE": "PRESIDENTE_PRUDENTE", "LATITUDE": -22.1451344, "LONGITUDE": -51.395447 }, "geometry": { "type": "Point", "coordinates": [ -51.395447, -22.1451344 ] } },
{ "type": "Feature", "properties": { "CNPJ": 38093974000130, "AGENTE": "GABRIEL_ALBINO", "ACAO": "REALIZAR_SEGUNDA_VISITA", "RAZAO_SOCIAL": "W_&_W_MARQUES_AUTO_PECAS_LTDA_-_MARQUES_AUTO_PECAS", "ENDERECO": "AVENIDA_BRASIL_3137_VILA_FORMOSA_PRESIDENTE_PRUDENTE", "CIDADE": "PRESIDENTE_PRUDENTE", "LATITUDE": -22.1455563, "LONGITUDE": -51.3953801 }, "geometry": { "type": "Point", "coordinates": [ -51.3953801, -22.1455563 ] } },
{ "type": "Feature", "properties": { "CNPJ": 30723264000134, "AGENTE": "GABRIEL_ALBINO", "ACAO": "REALIZAR_SEGUNDA_VISITA", "RAZAO_SOCIAL": "30.723.264_TAYLA_NILESSA_DE_LIMA_-_RETIFICA_PRUDENTE", "ENDERECO": "AVENIDA_BRASIL_3147_VILA_FORMOSA_PRESIDENTE_PRUDENTE", "CIDADE": "PRESIDENTE_PRUDENTE", "LATITUDE": -22.1456093, "LONGITUDE": -51.3954657 }, "geometry": { "type": "Point", "coordinates": [ -51.3954657, -22.1456093 ] } },
{ "type": "Feature", "properties": { "CNPJ": 21602765000171, "AGENTE": "GABRIEL_ALBINO", "ACAO": "REALIZAR_SEGUNDA_VISITA", "RAZAO_SOCIAL": "MISSE_AGRO_FERRAMENTAS_LTDA_-_MISSE", "ENDERECO": "AVENIDA_BRASIL_3167_VILA_FORMOSA_PRESIDENTE_PRUDENTE", "CIDADE": "PRESIDENTE_PRUDENTE", "LATITUDE": -22.1458157, "LONGITUDE": -51.3953501 }, "geometry": { "type": "Point", "coordinates": [ -51.3953501, -22.1458157 ] } },
{ "type": "Feature", "properties": { "CNPJ": 46742829000160, "AGENTE": "GABRIEL_ALBINO", "ACAO": "REALIZAR_SEGUNDA_VISITA", "RAZAO_SOCIAL": "PRUDENFLEX_-_FERRAMENTAS__SERVICOS_E_LOCACOES_LTDA_-_PRUDENFLEX", "ENDERECO": "AVENIDA_BRASIL_3177_VILA_FORMOSA_PRESIDENTE_PRUDENTE", "CIDADE": "PRESIDENTE_PRUDENTE", "LATITUDE": -22.1458984, "LONGITUDE": -51.3956095 }, "geometry": { "type": "Point", "coordinates": [ -51.3956095, -22.1458984 ] } },
{ "type": "Feature", "properties": { "CNPJ": 48799670000146, "AGENTE": "GABRIEL_ALBINO", "ACAO": "REALIZAR_SEGUNDA_VISITA", "RAZAO_SOCIAL": "PRUDENTAO_AUTO_PECAS_LTDA_-_PRUDENTAO_AUTO_PECAS", "ENDERECO": "AVENIDA_BRASIL_3187_VILA_FORMOSA_PRESIDENTE_PRUDENTE", "CIDADE": "PRESIDENTE_PRUDENTE", "LATITUDE": -22.1459283, "LONGITUDE": -51.3957438 }, "geometry": { "type": "Point", "coordinates": [ -51.3957438, -22.1459283 ] } },
{ "type": "Feature", "properties": { "CNPJ": 60697030000120, "AGENTE": "GABRIEL_ALBINO", "ACAO": "REALIZAR_SEGUNDA_VISITA", "RAZAO_SOCIAL": "MECANICA_PRUDENTE_LTDA_-_MECANICA_PRUDENTE", "ENDERECO": "AVENIDA_BRASIL_3199_VILA_FORMOSA_PRESIDENTE_PRUDENTE", "CIDADE": "PRESIDENTE_PRUDENTE", "LATITUDE": -22.1460627, "LONGITUDE": -51.3956328 }, "geometry": { "type": "Point", "coordinates": [ -51.3956328, -22.1460627 ] } },
{ "type": "Feature", "properties": { "CNPJ": 11378413000120, "AGENTE": "GABRIEL_ALBINO", "ACAO": "REALIZAR_SEGUNDA_VISITA", "RAZAO_SOCIAL": "RRCB_RECUPERADORA_LTDA_-_EMBRESUL", "ENDERECO": "AVENIDA_BRASIL_3209_VILA_FORMOSA_PRESIDENTE_PRUDENTE", "CIDADE": "PRESIDENTE_PRUDENTE", "LATITUDE": -22.146165, "LONGITUDE": -51.3957492 }, "geometry": { "type": "Point", "coordinates": [ -51.3957492, -22.146165 ] } },
{ "type": "Feature", "properties": { "CNPJ": 19355831000104, "AGENTE": "GABRIEL_ALBINO", "ACAO": "REALIZAR_SEGUNDA_VISITA", "RAZAO_SOCIAL": "LT_TRATORES_E_MAQUINAS_LTDA_-_LT_TRATORES", "ENDERECO": "AVENIDA_BRASIL_3219_VILA_FORMOSA_PRESIDENTE_PRUDENTE", "CIDADE": "PRESIDENTE_PRUDENTE", "LATITUDE": -22.1462003, "LONGITUDE": -51.3957849 }, "geometry": { "type": "Point", "coordinates": [ -51.3957849, -22.1462003 ] } },
{ "type": "Feature", "properties": { "CNPJ": 55325831000125, "AGENTE": "GABRIEL_ALBINO", "ACAO": "REALIZAR_SEGUNDA_VISITA", "RAZAO_SOCIAL": "BAZAR_BRASILIA_PRESIDENTE_PRUDENTE_LTDA_-_BAZAR_BRASILIA", "ENDERECO": "AVENIDA_CORONEL_JOSE_SOARES_MARCONDES_1477_CENTRO_PRESIDENTE_PRUDENTE", "CIDADE": "PRESIDENTE_PRUDENTE", "LATITUDE": -22.1242658, "LONGITUDE": -51.3891403 }, "geometry": { "type": "Point", "coordinates": [ -51.3891403, -22.1242658 ] } },
{ "type": "Feature", "properties": { "CNPJ": 56924611000180, "AGENTE": "GABRIEL_ALBINO", "ACAO": "REALIZAR_SEGUNDA_VISITA", "RAZAO_SOCIAL": "ANICIA_COMERCIO_DE_PRODUTOS_NATURAIS_LTDA_-_CASA_DE_ERVAS_MEDICINAIS", "ENDERECO": "AVENIDA_CORONEL_JOSE_SOARES_MARCONDES_1485_CENTRO_PRESIDENTE_PRUDENTE", "CIDADE": "PRESIDENTE_PRUDENTE", "LATITUDE": -22.1243127, "LONGITUDE": -51.3891505 }, "geometry": { "type": "Point", "coordinates": [ -51.3891505, -22.1243127 ] } },
{ "type": "Feature", "properties": { "CNPJ": 59662106000101, "AGENTE": "GABRIEL_ALBINO", "ACAO": "REALIZAR_SEGUNDA_VISITA", "RAZAO_SOCIAL": "PRUDEN-MODAS_CONFECCOES_LTDA_-_TRIBOS", "ENDERECO": "AVENIDA_CORONEL_JOSE_SOARES_MARCONDES_1491_CENTRO_PRESIDENTE_PRUDENTE", "CIDADE": "PRESIDENTE_PRUDENTE", "LATITUDE": -22.1243626, "LONGITUDE": -51.3892121 }, "geometry": { "type": "Point", "coordinates": [ -51.3892121, -22.1243626 ] } },
{ "type": "Feature", "properties": { "CNPJ": 41589752000117, "AGENTE": "GABRIEL_ALBINO", "ACAO": "REALIZAR_SEGUNDA_VISITA", "RAZAO_SOCIAL": "CARLOS_ALBERTO_ZAVATIERI_24939495876_-_ZAVAS_CABELEIREIRO", "ENDERECO": "AVENIDA_CORONEL_JOSE_SOARES_MARCONDES_1495_CENTRO_PRESIDENTE_PRUDENTE", "CIDADE": "PRESIDENTE_PRUDENTE", "LATITUDE": -22.124396, "LONGITUDE": -51.3891993 }, "geometry": { "type": "Point", "coordinates": [ -51.3891993, -22.124396 ] } },
{ "type": "Feature", "properties": { "CNPJ": 48721895000180, "AGENTE": "GABRIEL_ALBINO", "ACAO": "REALIZAR_SEGUNDA_VISITA", "RAZAO_SOCIAL": "ANTONIO_DE_FARO_TEIXEIRA_04609785862_-_BAZAR_DA_COSTURA", "ENDERECO": "AVENIDA_CORONEL_JOSE_SOARES_MARCONDES_1502_CENTRO_PRESIDENTE_PRUDENTE", "CIDADE": "PRESIDENTE_PRUDENTE", "LATITUDE": -22.1241165, "LONGITUDE": -51.3894195 }, "geometry": { "type": "Point", "coordinates": [ -51.3894195, -22.1241165 ] } },
{ "type": "Feature", "properties": { "CNPJ": 27322416000182, "AGENTE": "GABRIEL_ALBINO", "ACAO": "REALIZAR_SEGUNDA_VISITA", "RAZAO_SOCIAL": "MARLI_PEREIRA_DA_SILVA_10922061831_-_SPACO_DELLAS", "ENDERECO": "AVENIDA_CORONEL_JOSE_SOARES_MARCONDES_1550_CENTRO_PRESIDENTE_PRUDENTE", "CIDADE": "PRESIDENTE_PRUDENTE", "LATITUDE": -22.1247198, "LONGITUDE": -51.3896145 }, "geometry": { "type": "Point", "coordinates": [ -51.3896145, -22.1247198 ] } },
{ "type": "Feature", "properties": { "CNPJ": 55285805000110, "AGENTE": "GABRIEL_ALBINO", "ACAO": "REALIZAR_SEGUNDA_VISITA", "RAZAO_SOCIAL": "LUCLER_DECORACOES_LTDA_-_ALUIZIO_DECORACOES", "ENDERECO": "AVENIDA_CORONEL_JOSE_SOARES_MARCONDES_2635_VILA_EUCLIDES_PRESIDENTE_PRUDENTE", "CIDADE": "PRESIDENTE_PRUDENTE", "LATITUDE": -22.1239187, "LONGITUDE": -51.3896438 }, "geometry": { "type": "Point", "coordinates": [ -51.3896438, -22.1239187 ] } },
{ "type": "Feature", "properties": { "CNPJ": 22067781000174, "AGENTE": "GABRIEL_ALBINO", "ACAO": "REALIZAR_SEGUNDA_VISITA", "RAZAO_SOCIAL": "RAFAEL_T_MESTRINELLI_-_MULT_COLCHOES", "ENDERECO": "AVENIDA_MANOEL_GOULART_428_VILA_NOVA_PRESIDENTE_PRUDENTE", "CIDADE": "PRESIDENTE_PRUDENTE", "LATITUDE": -22.1255945, "LONGITUDE": -51.3887789 }, "geometry": { "type": "Point", "coordinates": [ -51.3887789, -22.1255945 ] } },
{ "type": "Feature", "properties": { "CNPJ": 56444640000145, "AGENTE": "GABRIEL_ALBINO", "ACAO": "REALIZAR_SEGUNDA_VISITA", "RAZAO_SOCIAL": "56.444.640_JONATHAN_DOUGLAS_LIMA_COSTA_-_STUDIO_7", "ENDERECO": "RUA_ANTONIO_RODRIGUES_70_VILA_MIRIAN_PRESIDENTE_PRUDENTE", "CIDADE": "PRESIDENTE_PRUDENTE", "LATITUDE": -22.1256745, "LONGITUDE": -51.3877992 }, "geometry": { "type": "Point", "coordinates": [ -51.3877992, -22.1256745 ] } },
{ "type": "Feature", "properties": { "CNPJ": 60108800000152, "AGENTE": "GABRIEL_ALBINO", "ACAO": "REALIZAR_SEGUNDA_VISITA", "RAZAO_SOCIAL": "SIDNEI_BARILLE_-_BAILE_REI_DAS_MAQUINAS", "ENDERECO": "RUA_BARAO_DO_RIO_BRANCO_444_VILA_DO_ESTADIO_PRESIDENTE_PRUDENTE", "CIDADE": "PRESIDENTE_PRUDENTE", "LATITUDE": -22.1240241, "LONGITUDE": -51.3872415 }, "geometry": { "type": "Point", "coordinates": [ -51.3872415, -22.1240241 ] } },
{ "type": "Feature", "properties": { "CNPJ": 5358433000137, "AGENTE": "GABRIEL_ALBINO", "ACAO": "REALIZAR_SEGUNDA_VISITA", "RAZAO_SOCIAL": "REGISLENE_CASSEMIRO_-_SAO_MARCOS_CASA_DE_CARNES", "ENDERECO": "RUA_CAMPESTRE_148_VILA_FORMOSA_PRESIDENTE_PRUDENTE", "CIDADE": "PRESIDENTE_PRUDENTE", "LATITUDE": -22.1455145, "LONGITUDE": -51.394305 }, "geometry": { "type": "Point", "coordinates": [ -51.394305, -22.1455145 ] } },
{ "type": "Feature", "properties": { "CNPJ": 33748909000181, "AGENTE": "GABRIEL_ALBINO", "ACAO": "REALIZAR_SEGUNDA_VISITA", "RAZAO_SOCIAL": "LIDERANCA_RADIADORES_LTDA_-_LIDERANCA_RADIADORES", "ENDERECO": "RUA_CAMPESTRE_168_VILA_FORMOSA_PRESIDENTE_PRUDENTE", "CIDADE": "PRESIDENTE_PRUDENTE", "LATITUDE": -22.145571, "LONGITUDE": -51.3940786 }, "geometry": { "type": "Point", "coordinates": [ -51.3940786, -22.145571 ] } },
{ "type": "Feature", "properties": { "CNPJ": 38136761000148, "AGENTE": "GABRIEL_ALBINO", "ACAO": "REALIZAR_SEGUNDA_VISITA", "RAZAO_SOCIAL": "VERDEMAQ_COMERCIO_DE_PECAS_AGRICOLAS_E_SERVICOS_DE_MANUTENCOES_LTDA_-_VERDMAQ", "ENDERECO": "RUA_CAMPESTRE_178_VILA_FORMOSA_PRESIDENTE_PRUDENTE", "CIDADE": "PRESIDENTE_PRUDENTE", "LATITUDE": -22.1455962, "LONGITUDE": -51.3938775 }, "geometry": { "type": "Point", "coordinates": [ -51.3938775, -22.1455962 ] } },
{ "type": "Feature", "properties": { "CNPJ": 23981185000168, "AGENTE": "GABRIEL_ALBINO", "ACAO": "REALIZAR_SEGUNDA_VISITA", "RAZAO_SOCIAL": "NELSON_BELLAFRONTE_JUNIOR_-_OFICINA_BELAFRONTE", "ENDERECO": "RUA_CAMPESTRE_275_VILA_FORMOSA_PRESIDENTE_PRUDENTE", "CIDADE": "PRESIDENTE_PRUDENTE", "LATITUDE": -22.1457175, "LONGITUDE": -51.3928188 }, "geometry": { "type": "Point", "coordinates": [ -51.3928188, -22.1457175 ] } },
{ "type": "Feature", "properties": { "CNPJ": 8927124000129, "AGENTE": "GABRIEL_ALBINO", "ACAO": "REALIZAR_SEGUNDA_VISITA", "RAZAO_SOCIAL": "FUNAPEL_EMBALAGENS_LTDA_-_FUNAPEL", "ENDERECO": "RUA_JOAO_VICENTE_MENDONCA_FILHO_408_VILA_FORMOSA_PRESIDENTE_PRUDENTE", "CIDADE": "PRESIDENTE_PRUDENTE", "LATITUDE": -22.1455993, "LONGITUDE": -51.3922968 }, "geometry": { "type": "Point", "coordinates": [ -51.3922968, -22.1455993 ] } },
{ "type": "Feature", "properties": { "CNPJ": 46066471000101, "AGENTE": "GABRIEL_ALBINO", "ACAO": "REALIZAR_SEGUNDA_VISITA", "RAZAO_SOCIAL": "46.066.471_ELIANE_CARRARA_-_LI_ANGELS", "ENDERECO": "RUA_JOAQUIM_NABUCO_764_CENTRO_PRESIDENTE_PRUDENTE", "CIDADE": "PRESIDENTE_PRUDENTE", "LATITUDE": -22.1244434, "LONGITUDE": -51.3882434 }, "geometry": { "type": "Point", "coordinates": [ -51.3882434, -22.1244434 ] } },
{ "type": "Feature", "properties": { "CNPJ": 52014963000148, "AGENTE": "GABRIEL_ALBINO", "ACAO": "REALIZAR_SEGUNDA_VISITA", "RAZAO_SOCIAL": "52.014.963_ANGELICA_OLIVEIRA_DE_BRITO_-_ANGELS", "ENDERECO": "RUA_JOAQUIM_NABUCO_764_CENTRO_PRESIDENTE_PRUDENTE", "CIDADE": "PRESIDENTE_PRUDENTE", "LATITUDE": -22.1244831, "LONGITUDE": -51.3883014 }, "geometry": { "type": "Point", "coordinates": [ -51.3883014, -22.1244831 ] } },
{ "type": "Feature", "properties": { "CNPJ": 57804213000193, "AGENTE": "GABRIEL_ALBINO", "ACAO": "REALIZAR_SEGUNDA_VISITA", "RAZAO_SOCIAL": "MAQ-CENTER_PAPELARIA_LTDA_-_MAQ_CENTER", "ENDERECO": "RUA_JOAQUIM_NABUCO_808_CENTRO_PRESIDENTE_PRUDENTE", "CIDADE": "PRESIDENTE_PRUDENTE", "LATITUDE": -22.1247116, "LONGITUDE": -51.3884539 }, "geometry": { "type": "Point", "coordinates": [ -51.3884539, -22.1247116 ] } },
{ "type": "Feature", "properties": { "CNPJ": 29974861000152, "AGENTE": "GABRIEL_ALBINO", "ACAO": "REALIZAR_SEGUNDA_VISITA", "RAZAO_SOCIAL": "HOMBRE_CONFECCOES_PRUDENTE_LTDA_-_HOMBRE", "ENDERECO": "RUA_JOAQUIM_NABUCO_809_CENTRO_PRESIDENTE_PRUDENTE", "CIDADE": "PRESIDENTE_PRUDENTE", "LATITUDE": -22.1247828, "LONGITUDE": -51.3883851 }, "geometry": { "type": "Point", "coordinates": [ -51.3883851, -22.1247828 ] } },
{ "type": "Feature", "properties": { "CNPJ": 53298383000192, "AGENTE": "GABRIEL_ALBINO", "ACAO": "REALIZAR_SEGUNDA_VISITA", "RAZAO_SOCIAL": "53.298.383_MAISA_CIANFA_DA_GALLO_-_MAIS_GALO", "ENDERECO": "RUA_JOAQUIM_NABUCO_819_CENTRO_PRESIDENTE_PRUDENTE", "CIDADE": "PRESIDENTE_PRUDENTE", "LATITUDE": -22.1248848, "LONGITUDE": -51.3884232 }, "geometry": { "type": "Point", "coordinates": [ -51.3884232, -22.1248848 ] } },
{ "type": "Feature", "properties": { "CNPJ": 47456797000108, "AGENTE": "GABRIEL_ALBINO", "ACAO": "REALIZAR_SEGUNDA_VISITA", "RAZAO_SOCIAL": "LAYRA_CRISTINA_MARTINS_COUTINHO_42566422850_-_COLT_SHOES", "ENDERECO": "RUA_JOAQUIM_NABUCO_819_CENTRO_PRESIDENTE_PRUDENTE", "CIDADE": "PRESIDENTE_PRUDENTE", "LATITUDE": -22.1249474, "LONGITUDE": -51.3884036 }, "geometry": { "type": "Point", "coordinates": [ -51.3884036, -22.1249474 ] } },
{ "type": "Feature", "properties": { "CNPJ": 5455706000161, "AGENTE": "GABRIEL_ALBINO", "ACAO": "REALIZAR_SEGUNDA_VISITA", "RAZAO_SOCIAL": "SEBO_PRUDENTE_LTDA_-_SEBO_PRUDENTE", "ENDERECO": "RUA_MAJOR_FELICIO_TARABAY_750_CENTRO_PRESIDENTE_PRUDENTE", "CIDADE": "PRESIDENTE_PRUDENTE", "LATITUDE": -22.1253004, "LONGITUDE": -51.3865238 }, "geometry": { "type": "Point", "coordinates": [ -51.3865238, -22.1253004 ] } },
{ "type": "Feature", "properties": { "CNPJ": 33088482000132, "AGENTE": "GABRIEL_ALBINO", "ACAO": "REALIZAR_SEGUNDA_VISITA", "RAZAO_SOCIAL": "PAULO_PIRES_DA_SILVA_36701515835_-_PJ_JOIA", "ENDERECO": "RUA_MAJOR_FELICIO_TARABAY_774_CENTRO_PRESIDENTE_PRUDENTE", "CIDADE": "PRESIDENTE_PRUDENTE", "LATITUDE": -22.1256123, "LONGITUDE": -51.3865919 }, "geometry": { "type": "Point", "coordinates": [ -51.3865919, -22.1256123 ] } },
{ "type": "Feature", "properties": { "CNPJ": 58434560000134, "AGENTE": "GABRIEL_ALBINO", "ACAO": "REALIZAR_SEGUNDA_VISITA", "RAZAO_SOCIAL": "HBG_CLINICA_ODONTOLOGICA_LTDA_-_ODONTO_EXCELLENCE", "ENDERECO": "RUA_MAJOR_FELICIO_TARABAY_784_CENTRO_PRESIDENTE_PRUDENTE", "CIDADE": "PRESIDENTE_PRUDENTE", "LATITUDE": -22.1255726, "LONGITUDE": -51.3865874 }, "geometry": { "type": "Point", "coordinates": [ -51.3865874, -22.1255726 ] } },
{ "type": "Feature", "properties": { "CNPJ": 45118377000188, "AGENTE": "GABRIEL_ALBINO", "ACAO": "REALIZAR_SEGUNDA_VISITA", "RAZAO_SOCIAL": "EDULAR_MOVEIS_LTDA_-_EDULAR", "ENDERECO": "RUA_MAJOR_FELICIO_TARABAY_803_CENTRO_PRESIDENTE_PRUDENTE", "CIDADE": "PRESIDENTE_PRUDENTE", "LATITUDE": -22.1258423, "LONGITUDE": -51.3871231 }, "geometry": { "type": "Point", "coordinates": [ -51.3871231, -22.1258423 ] } },
{ "type": "Feature", "properties": { "CNPJ": 68359074000152, "AGENTE": "GABRIEL_ALBINO", "ACAO": "REALIZAR_SEGUNDA_VISITA", "RAZAO_SOCIAL": "ANTONINHO_COMERCIO_DE_DECORACAO_LTDA_-_PAULAS_DECOR", "ENDERECO": "RUA_MAJOR_FELICIO_TARABAY_827_CENTRO_PRESIDENTE_PRUDENTE", "CIDADE": "PRESIDENTE_PRUDENTE", "LATITUDE": -22.1260575, "LONGITUDE": -51.3866322 }, "geometry": { "type": "Point", "coordinates": [ -51.3866322, -22.1260575 ] } },
{ "type": "Feature", "properties": { "CNPJ": 52841250000158, "AGENTE": "GABRIEL_ALBINO", "ACAO": "REALIZAR_SEGUNDA_VISITA", "RAZAO_SOCIAL": "S._R._DE_SOUZA_ATACADISTA_LTDA_-_ATACADAO_DAS_PELICULA", "ENDERECO": "RUA_MAJOR_FELICIO_TARABAY_834_CENTRO_PRESIDENTE_PRUDENTE", "CIDADE": "PRESIDENTE_PRUDENTE", "LATITUDE": -22.1259355, "LONGITUDE": -51.3870111 }, "geometry": { "type": "Point", "coordinates": [ -51.3870111, -22.1259355 ] } },
{ "type": "Feature", "properties": { "CNPJ": 1048525000160, "AGENTE": "GABRIEL_ALBINO", "ACAO": "REALIZAR_SEGUNDA_VISITA", "RAZAO_SOCIAL": "CAIO_COMERCIO_DE_EMBALAGENS_LTDA_-_CAIO_EMBALAGENS", "ENDERECO": "RUA_MAJOR_FELICIO_TARABAY_848_CENTRO_PRESIDENTE_PRUDENTE", "CIDADE": "PRESIDENTE_PRUDENTE", "LATITUDE": -22.1261872, "LONGITUDE": -51.3870078 }, "geometry": { "type": "Point", "coordinates": [ -51.3870078, -22.1261872 ] } },
{ "type": "Feature", "properties": { "CNPJ": 50466052000126, "AGENTE": "GABRIEL_ALBINO", "ACAO": "REALIZAR_SEGUNDA_VISITA", "RAZAO_SOCIAL": "50.466.052_WELLINGTON_FERREIRA_DE_SOUZA_-_WEPALU", "ENDERECO": "RUA_PRINCESA_ISABEL_978_DRACENA_DRACENA", "CIDADE": "DRACENA", "LATITUDE": -21.4887234, "LONGITUDE": -51.536837 }, "geometry": { "type": "Point", "coordinates": [ -51.536837, -21.4887234 ] } },
{ "type": "Feature", "properties": { "CNPJ": 51995737000122, "AGENTE": "GABRIEL_ALBINO", "ACAO": "REALIZAR_SEGUNDA_VISITA", "RAZAO_SOCIAL": "TIA_SANDRA_CENTRO_DE_ESTETICA_-_ESCOLA_GROOMER_LTDA_-_TIA_SANDRA", "ENDERECO": "RUA_RIBEIRO_DE_BARROS_1944_VILA_DUBUS_PRESIDENTE_PRUDENTE", "CIDADE": "PRESIDENTE_PRUDENTE", "LATITUDE": -22.1239196, "LONGITUDE": -51.3902517 }, "geometry": { "type": "Point", "coordinates": [ -51.3902517, -22.1239196 ] } },
{ "type": "Feature", "properties": { "CNPJ": 48344996000189, "AGENTE": "GABRIEL_ALBINO", "ACAO": "REALIZAR_SEGUNDA_VISITA", "RAZAO_SOCIAL": "48.344.996_EVELYN_SANTIAGO_QUIRINO_-_CENTRO_DE_ESTETICA_ANIMAL", "ENDERECO": "RUA_RIBEIRO_DE_BARROS_1944_VILA_DUBUS_PRESIDENTE_PRUDENTE", "CIDADE": "PRESIDENTE_PRUDENTE", "LATITUDE": -22.1239556, "LONGITUDE": -51.3902773 }, "geometry": { "type": "Point", "coordinates": [ -51.3902773, -22.1239556 ] } },
{ "type": "Feature", "properties": { "CNPJ": 30063000190, "AGENTE": "GABRIEL_ALBINO", "ACAO": "REALIZAR_SEGUNDA_VISITA", "RAZAO_SOCIAL": "C.J._DE_OLIVEIRA_FRIOS_E_LATICINIOS_-_EMPORIO_COLONIAL", "ENDERECO": "RUA_RUI_BARBOSA_1145_CENTRO_PRESIDENTE_PRUDENTE", "CIDADE": "PRESIDENTE_PRUDENTE", "LATITUDE": -22.1218245, "LONGITUDE": -51.3943421 }, "geometry": { "type": "Point", "coordinates": [ -51.3943421, -22.1218245 ] } },
{ "type": "Feature", "properties": { "CNPJ": 7454730000101, "AGENTE": "GABRIEL_ALBINO", "ACAO": "REALIZAR_SEGUNDA_VISITA", "RAZAO_SOCIAL": "LUIS_RENATO_COLLA_MARANHO_-_CANTINHO_DAS_BOLSAS", "ENDERECO": "RUA_RUI_BARBOSA_145_CENTRO_PRESIDENTE_PRUDENTE", "CIDADE": "PRESIDENTE_PRUDENTE", "LATITUDE": -22.1257623, "LONGITUDE": -51.3857818 }, "geometry": { "type": "Point", "coordinates": [ -51.3857818, -22.1257623 ] } },
{ "type": "Feature", "properties": { "CNPJ": 28862098000105, "AGENTE": "GABRIEL_ALBINO", "ACAO": "REALIZAR_SEGUNDA_VISITA", "RAZAO_SOCIAL": "MINHA_LIVRARIA_CRISTA_LTDA_-_EMERICK", "ENDERECO": "RUA_RUI_BARBOSA_153_CENTRO_PRESIDENTE_PRUDENTE", "CIDADE": "PRESIDENTE_PRUDENTE", "LATITUDE": -22.1257351, "LONGITUDE": -51.3859099 }, "geometry": { "type": "Point", "coordinates": [ -51.3859099, -22.1257351 ] } },
{ "type": "Feature", "properties": { "CNPJ": 8512614000164, "AGENTE": "GABRIEL_ALBINO", "ACAO": "REALIZAR_SEGUNDA_VISITA", "RAZAO_SOCIAL": "CLAUDIANO_BARBOSA_DE_SOUZA_MOVEIS_-_SOLLAR_COLCHOES", "ENDERECO": "RUA_RUI_BARBOSA_165_CENTRO_PRESIDENTE_PRUDENTE", "CIDADE": "PRESIDENTE_PRUDENTE", "LATITUDE": -22.1256798, "LONGITUDE": -51.3859573 }, "geometry": { "type": "Point", "coordinates": [ -51.3859573, -22.1256798 ] } },
{ "type": "Feature", "properties": { "CNPJ": 55244629000179, "AGENTE": "GABRIEL_ALBINO", "ACAO": "REALIZAR_SEGUNDA_VISITA", "RAZAO_SOCIAL": "55.244.629_ANDERSON_JOSE_DOS_SANTOS_CESARIO_-_BUSCAPE", "ENDERECO": "RUA_RUI_BARBOSA_1713_VILA_SANTA_HELENA_PRESIDENTE_PRUDENTE", "CIDADE": "PRESIDENTE_PRUDENTE", "LATITUDE": -22.1195426, "LONGITUDE": -51.3992419 }, "geometry": { "type": "Point", "coordinates": [ -51.3992419, -22.1195426 ] } },
{ "type": "Feature", "properties": { "CNPJ": 74398579000129, "AGENTE": "GABRIEL_ALBINO", "ACAO": "REALIZAR_SEGUNDA_VISITA", "RAZAO_SOCIAL": "JULIO_KITAMURA_LTDA_-_EDULAR_2", "ENDERECO": "RUA_RUI_BARBOSA_185_CENTRO_PRESIDENTE_PRUDENTE", "CIDADE": "PRESIDENTE_PRUDENTE", "LATITUDE": -22.1256392, "LONGITUDE": -51.3861271 }, "geometry": { "type": "Point", "coordinates": [ -51.3861271, -22.1256392 ] } },
{ "type": "Feature", "properties": { "CNPJ": 20316250000142, "AGENTE": "GABRIEL_ALBINO", "ACAO": "REALIZAR_SEGUNDA_VISITA", "RAZAO_SOCIAL": "CLAUDEMIR_ROBERTO_NUVOLI_VOLTARELI_06974894856_-_CLAUDEMIR_CABELEIREIRO", "ENDERECO": "RUA_RUI_BARBOSA_195_CENTRO_PRESIDENTE_PRUDENTE", "CIDADE": "PRESIDENTE_PRUDENTE", "LATITUDE": -22.1255137, "LONGITUDE": -51.3862697 }, "geometry": { "type": "Point", "coordinates": [ -51.3862697, -22.1255137 ] } },
{ "type": "Feature", "properties": { "CNPJ": 51428049000180, "AGENTE": "GABRIEL_ALBINO", "ACAO": "REALIZAR_SEGUNDA_VISITA", "RAZAO_SOCIAL": "51.428.049_FERNANDA_FERREIRA_DE_ANDRADE_-_ENVOLVENTE_MODA_INTIMA", "ENDERECO": "RUA_RUI_BARBOSA_211_CENTRO_PRESIDENTE_PRUDENTE", "CIDADE": "PRESIDENTE_PRUDENTE", "LATITUDE": -22.1254853, "LONGITUDE": -51.3862857 }, "geometry": { "type": "Point", "coordinates": [ -51.3862857, -22.1254853 ] } },
{ "type": "Feature", "properties": { "CNPJ": 3739963000108, "AGENTE": "GABRIEL_ALBINO", "ACAO": "REALIZAR_SEGUNDA_VISITA", "RAZAO_SOCIAL": "ROCHA_PELLOSI_LIVRARIA_LTDA_-_A_CATOLICA", "ENDERECO": "RUA_RUI_BARBOSA_212_CENTRO_PRESIDENTE_PRUDENTE", "CIDADE": "PRESIDENTE_PRUDENTE", "LATITUDE": -22.1253728, "LONGITUDE": -51.3863919 }, "geometry": { "type": "Point", "coordinates": [ -51.3863919, -22.1253728 ] } },
{ "type": "Feature", "properties": { "CNPJ": 28594503000151, "AGENTE": "GABRIEL_ALBINO", "ACAO": "REALIZAR_SEGUNDA_VISITA", "RAZAO_SOCIAL": "FRANKLIN_VIEIRA_DOS_SANTOS_-_ELOAH_CRED", "ENDERECO": "RUA_RUI_BARBOSA_267_CENTRO_PRESIDENTE_PRUDENTE", "CIDADE": "PRESIDENTE_PRUDENTE", "LATITUDE": -22.1252702, "LONGITUDE": -51.3871305 }, "geometry": { "type": "Point", "coordinates": [ -51.3871305, -22.1252702 ] } },
{ "type": "Feature", "properties": { "CNPJ": 56706199000122, "AGENTE": "GABRIEL_ALBINO", "ACAO": "REALIZAR_SEGUNDA_VISITA", "RAZAO_SOCIAL": "PELAGIO_COLCHOES_LTDA_-_LIDER_COLCHOES", "ENDERECO": "RUA_RUI_BARBOSA_276_CENTRO_PRESIDENTE_PRUDENTE", "CIDADE": "PRESIDENTE_PRUDENTE", "LATITUDE": -22.1252223, "LONGITUDE": -51.386684 }, "geometry": { "type": "Point", "coordinates": [ -51.386684, -22.1252223 ] } },
{ "type": "Feature", "properties": { "CNPJ": 44229515000133, "AGENTE": "GABRIEL_ALBINO", "ACAO": "REALIZAR_SEGUNDA_VISITA", "RAZAO_SOCIAL": "KAREN_TIEROLLYN_SANCHES_JACINTO_43776273844_-_PARADA_DO_CROPPED", "ENDERECO": "RUA_RUI_BARBOSA_279_CENTRO_PRESIDENTE_PRUDENTE", "CIDADE": "PRESIDENTE_PRUDENTE", "LATITUDE": -22.1252568, "LONGITUDE": -51.3869963 }, "geometry": { "type": "Point", "coordinates": [ -51.3869963, -22.1252568 ] } },
{ "type": "Feature", "properties": { "CNPJ": 53878915000160, "AGENTE": "GABRIEL_ALBINO", "ACAO": "REALIZAR_SEGUNDA_VISITA", "RAZAO_SOCIAL": "NANES_MODA_FEMININA_FITNESS_LTDA_-_NANES", "ENDERECO": "RUA_RUI_BARBOSA_280_CENTRO_PRESIDENTE_PRUDENTE", "CIDADE": "PRESIDENTE_PRUDENTE", "LATITUDE": -22.125243, "LONGITUDE": -51.3868241 }, "geometry": { "type": "Point", "coordinates": [ -51.3868241, -22.125243 ] } },
{ "type": "Feature", "properties": { "CNPJ": 15805838000120, "AGENTE": "GABRIEL_ALBINO", "ACAO": "REALIZAR_SEGUNDA_VISITA", "RAZAO_SOCIAL": "CENTRAL_COPIAS_LTDA_-_CENTRAL_COPIAS", "ENDERECO": "RUA_RUI_BARBOSA_293_CENTRO_PRESIDENTE_PRUDENTE", "CIDADE": "PRESIDENTE_PRUDENTE", "LATITUDE": -22.125177, "LONGITUDE": -51.3870707 }, "geometry": { "type": "Point", "coordinates": [ -51.3870707, -22.125177 ] } },
{ "type": "Feature", "properties": { "CNPJ": 11063334000120, "AGENTE": "GABRIEL_ALBINO", "ACAO": "REALIZAR_SEGUNDA_VISITA", "RAZAO_SOCIAL": "ROSILENE_A._DE_AZEVEDO_MENDES_ALVES_-_LEVE_MODAS", "ENDERECO": "RUA_RUI_BARBOSA_306_CENTRO_PRESIDENTE_PRUDENTE", "CIDADE": "PRESIDENTE_PRUDENTE", "LATITUDE": -22.1251174, "LONGITUDE": -51.3871067 }, "geometry": { "type": "Point", "coordinates": [ -51.3871067, -22.1251174 ] } },
{ "type": "Feature", "properties": { "CNPJ": 34274940000190, "AGENTE": "GABRIEL_ALBINO", "ACAO": "REALIZAR_SEGUNDA_VISITA", "RAZAO_SOCIAL": "LETICIA_ZENGO_TETILA_DOS_SANTOS_35877945882_-_LOVE_MAKE", "ENDERECO": "RUA_RUI_BARBOSA_312_CENTRO_PRESIDENTE_PRUDENTE", "CIDADE": "PRESIDENTE_PRUDENTE", "LATITUDE": -22.1250327, "LONGITUDE": -51.3872898 }, "geometry": { "type": "Point", "coordinates": [ -51.3872898, -22.1250327 ] } },
{ "type": "Feature", "properties": { "CNPJ": 52557293000106, "AGENTE": "GABRIEL_ALBINO", "ACAO": "REALIZAR_SEGUNDA_VISITA", "RAZAO_SOCIAL": "PRUDENTE_COMERCIO_DE_ROUPAS_LTDA_-_OUTLET_PRUDENTE", "ENDERECO": "RUA_RUI_BARBOSA_340_CENTRO_PRESIDENTE_PRUDENTE", "CIDADE": "PRESIDENTE_PRUDENTE", "LATITUDE": -22.1248565, "LONGITUDE": -51.387496 }, "geometry": { "type": "Point", "coordinates": [ -51.387496, -22.1248565 ] } },
{ "type": "Feature", "properties": { "CNPJ": 25118024000251, "AGENTE": "GABRIEL_ALBINO", "ACAO": "REALIZAR_SEGUNDA_VISITA", "RAZAO_SOCIAL": "MENDES_E_MERINO_LTDA_-_PRIME", "ENDERECO": "RUA_RUI_BARBOSA_354_CENTRO_PRESIDENTE_PRUDENTE", "CIDADE": "PRESIDENTE_PRUDENTE", "LATITUDE": -22.1247785, "LONGITUDE": -51.3875699 }, "geometry": { "type": "Point", "coordinates": [ -51.3875699, -22.1247785 ] } },
{ "type": "Feature", "properties": { "CNPJ": 18952526000137, "AGENTE": "GABRIEL_ALBINO", "ACAO": "REALIZAR_SEGUNDA_VISITA", "RAZAO_SOCIAL": "AGENCIA_DE_VIAGENS_PROMOTUR_LTDA_-_PROMOTUR", "ENDERECO": "RUA_RUI_BARBOSA_354_CENTRO_PRESIDENTE_PRUDENTE", "CIDADE": "PRESIDENTE_PRUDENTE", "LATITUDE": -22.1248147, "LONGITUDE": -51.3877066 }, "geometry": { "type": "Point", "coordinates": [ -51.3877066, -22.1248147 ] } },
{ "type": "Feature", "properties": { "CNPJ": 55312874000176, "AGENTE": "GABRIEL_ALBINO", "ACAO": "REALIZAR_SEGUNDA_VISITA", "RAZAO_SOCIAL": "55.312.874_MURILO_PACHECO_-_LA_BARBA", "ENDERECO": "RUA_RUI_BARBOSA_358_CENTRO_PRESIDENTE_PRUDENTE", "CIDADE": "PRESIDENTE_PRUDENTE", "LATITUDE": -22.124682, "LONGITUDE": -51.3876443 }, "geometry": { "type": "Point", "coordinates": [ -51.3876443, -22.124682 ] } },
{ "type": "Feature", "properties": { "CNPJ": 32817789000164, "AGENTE": "GABRIEL_ALBINO", "ACAO": "REALIZAR_SEGUNDA_VISITA", "RAZAO_SOCIAL": "32.817.789_VICTOR_HUGO_ALMEIDA_SANTOS_-_LA_BARBA", "ENDERECO": "RUA_RUI_BARBOSA_358_CENTRO_PRESIDENTE_PRUDENTE", "CIDADE": "PRESIDENTE_PRUDENTE", "LATITUDE": -22.124789, "LONGITUDE": -51.3877619 }, "geometry": { "type": "Point", "coordinates": [ -51.3877619, -22.124789 ] } },
{ "type": "Feature", "properties": { "CNPJ": 47196891000167, "AGENTE": "GABRIEL_ALBINO", "ACAO": "REALIZAR_SEGUNDA_VISITA", "RAZAO_SOCIAL": "VICTOR_HUGO_FERRAZ_PONTES_ROUPAS_-_DIVINO_LOOK", "ENDERECO": "RUA_RUI_BARBOSA_362_CENTRO_PRESIDENTE_PRUDENTE", "CIDADE": "PRESIDENTE_PRUDENTE", "LATITUDE": -22.1246616, "LONGITUDE": -51.3876907 }, "geometry": { "type": "Point", "coordinates": [ -51.3876907, -22.1246616 ] } },
{ "type": "Feature", "properties": { "CNPJ": 60161330000190, "AGENTE": "GABRIEL_ALBINO", "ACAO": "REALIZAR_SEGUNDA_VISITA", "RAZAO_SOCIAL": "60.161.330_ANA_CAROLINA_MOLERO_FLORES_-_STUDIO_HAIR_CAROL", "ENDERECO": "RUA_RUI_BARBOSA_368_CENTRO_PRESIDENTE_PRUDENTE", "CIDADE": "PRESIDENTE_PRUDENTE", "LATITUDE": -22.1247278, "LONGITUDE": -51.3877737 }, "geometry": { "type": "Point", "coordinates": [ -51.3877737, -22.1247278 ] } },
{ "type": "Feature", "properties": { "CNPJ": 49468140000188, "AGENTE": "GABRIEL_ALBINO", "ACAO": "REALIZAR_SEGUNDA_VISITA", "RAZAO_SOCIAL": "49.468.140_MARIA_HELENA_PIRES_TRUCILLO_-_LENINHA_CALCADOS", "ENDERECO": "RUA_RUI_BARBOSA_368_CENTRO_PRESIDENTE_PRUDENTE", "CIDADE": "PRESIDENTE_PRUDENTE", "LATITUDE": -22.1247425, "LONGITUDE": -51.387826 }, "geometry": { "type": "Point", "coordinates": [ -51.387826, -22.1247425 ] } },
{ "type": "Feature", "properties": { "CNPJ": 73055741000143, "AGENTE": "GABRIEL_ALBINO", "ACAO": "REALIZAR_SEGUNDA_VISITA", "RAZAO_SOCIAL": "SONOCENTER_COMERCIO_DE_MOVEIS_E_COLCHOES_LTDA._-_SONOCENTER", "ENDERECO": "RUA_RUI_BARBOSA_39_CENTRO_PRESIDENTE_PRUDENTE", "CIDADE": "PRESIDENTE_PRUDENTE", "LATITUDE": -22.1262335, "LONGITUDE": -51.3849101 }, "geometry": { "type": "Point", "coordinates": [ -51.3849101, -22.1262335 ] } },
{ "type": "Feature", "properties": { "CNPJ": 17413643000160, "AGENTE": "GABRIEL_ALBINO", "ACAO": "REALIZAR_SEGUNDA_VISITA", "RAZAO_SOCIAL": "CASA_TRICOT_LTDA_-_CASA_DO_TRICOT", "ENDERECO": "RUA_RUI_BARBOSA_390_CENTRO_PRESIDENTE_PRUDENTE", "CIDADE": "PRESIDENTE_PRUDENTE", "LATITUDE": -22.1246206, "LONGITUDE": -51.3878576 }, "geometry": { "type": "Point", "coordinates": [ -51.3878576, -22.1246206 ] } },
{ "type": "Feature", "properties": { "CNPJ": 65871808000190, "AGENTE": "GABRIEL_ALBINO", "ACAO": "REALIZAR_SEGUNDA_VISITA", "RAZAO_SOCIAL": "COMERCIO_DE_MALHAS_L.D_LTDA_-_MALHAS_SO_KILO", "ENDERECO": "RUA_RUI_BARBOSA_400_CENTRO_PRESIDENTE_PRUDENTE", "CIDADE": "PRESIDENTE_PRUDENTE", "LATITUDE": -22.1246077, "LONGITUDE": -51.3879213 }, "geometry": { "type": "Point", "coordinates": [ -51.3879213, -22.1246077 ] } },
{ "type": "Feature", "properties": { "CNPJ": 57619604000138, "AGENTE": "GABRIEL_ALBINO", "ACAO": "REALIZAR_SEGUNDA_VISITA", "RAZAO_SOCIAL": "57.619.604_ISABELLE_NEVES_DE_OLIVEIRA_-_CLOSET_NEVES", "ENDERECO": "RUA_RUI_BARBOSA_406_CENTRO_PRESIDENTE_PRUDENTE", "CIDADE": "PRESIDENTE_PRUDENTE", "LATITUDE": -22.1246297, "LONGITUDE": -51.3879567 }, "geometry": { "type": "Point", "coordinates": [ -51.3879567, -22.1246297 ] } },
{ "type": "Feature", "properties": { "CNPJ": 29088020000148, "AGENTE": "GABRIEL_ALBINO", "ACAO": "REALIZAR_SEGUNDA_VISITA", "RAZAO_SOCIAL": "AURELIO_RANEL_DAS_NEVES_-_LA_BIJU", "ENDERECO": "RUA_RUI_BARBOSA_407_CENTRO_PRESIDENTE_PRUDENTE", "CIDADE": "PRESIDENTE_PRUDENTE", "LATITUDE": -22.1247158, "LONGITUDE": -51.387819 }, "geometry": { "type": "Point", "coordinates": [ -51.387819, -22.1247158 ] } },
{ "type": "Feature", "properties": { "CNPJ": 4251660000104, "AGENTE": "GABRIEL_ALBINO", "ACAO": "REALIZAR_SEGUNDA_VISITA", "RAZAO_SOCIAL": "CLAUDIA_HITOMI_TOKASHIKI_SIMAKAWA_-_BABY_MANIA", "ENDERECO": "RUA_RUI_BARBOSA_423_CENTRO_PRESIDENTE_PRUDENTE", "CIDADE": "PRESIDENTE_PRUDENTE", "LATITUDE": -22.124632, "LONGITUDE": -51.3884081 }, "geometry": { "type": "Point", "coordinates": [ -51.3884081, -22.124632 ] } },
{ "type": "Feature", "properties": { "CNPJ": 10852646000150, "AGENTE": "GABRIEL_ALBINO", "ACAO": "REALIZAR_SEGUNDA_VISITA", "RAZAO_SOCIAL": "CARIMBOS_CARLOS_LTDA_-_CARLOS_CARIMBOS", "ENDERECO": "RUA_RUI_BARBOSA_445_CENTRO_PRESIDENTE_PRUDENTE", "CIDADE": "PRESIDENTE_PRUDENTE", "LATITUDE": -22.1245521, "LONGITUDE": -51.3884005 }, "geometry": { "type": "Point", "coordinates": [ -51.3884005, -22.1245521 ] } },
{ "type": "Feature", "properties": { "CNPJ": 53389037000110, "AGENTE": "GABRIEL_ALBINO", "ACAO": "REALIZAR_SEGUNDA_VISITA", "RAZAO_SOCIAL": "FARMACIA_FLORA_MEDICA_LTDA_-_FLORA_MEDICA", "ENDERECO": "RUA_RUI_BARBOSA_449_CENTRO_PRESIDENTE_PRUDENTE", "CIDADE": "PRESIDENTE_PRUDENTE", "LATITUDE": -22.1245471, "LONGITUDE": -51.3884173 }, "geometry": { "type": "Point", "coordinates": [ -51.3884173, -22.1245471 ] } },
{ "type": "Feature", "properties": { "CNPJ": 53731474000170, "AGENTE": "GABRIEL_ALBINO", "ACAO": "REALIZAR_SEGUNDA_VISITA", "RAZAO_SOCIAL": "CS_UNIFORMES_E_ARMARINHO_LTDA_-_PAULINHA_UNIFORMES", "ENDERECO": "RUA_RUI_BARBOSA_455_CENTRO_PRESIDENTE_PRUDENTE", "CIDADE": "PRESIDENTE_PRUDENTE", "LATITUDE": -22.1245113, "LONGITUDE": -51.388434 }, "geometry": { "type": "Point", "coordinates": [ -51.388434, -22.1245113 ] } },
{ "type": "Feature", "properties": { "CNPJ": 48640300000161, "AGENTE": "GABRIEL_ALBINO", "ACAO": "REALIZAR_SEGUNDA_VISITA", "RAZAO_SOCIAL": "JOAO_PAULO_SANTIAGO_NERES_34347960883_-_ODOYA_IEMANJA", "ENDERECO": "RUA_RUI_BARBOSA_464_CENTRO_PRESIDENTE_PRUDENTE", "CIDADE": "PRESIDENTE_PRUDENTE", "LATITUDE": -22.1243353, "LONGITUDE": -51.3884864 }, "geometry": { "type": "Point", "coordinates": [ -51.3884864, -22.1243353 ] } },
{ "type": "Feature", "properties": { "CNPJ": 3401291000118, "AGENTE": "GABRIEL_ALBINO", "ACAO": "REALIZAR_SEGUNDA_VISITA", "RAZAO_SOCIAL": "MILTON_SERAFIM_09759628848_-_OTICA_BELA_VISTA", "ENDERECO": "RUA_RUI_BARBOSA_475_CENTRO_PRESIDENTE_PRUDENTE", "CIDADE": "PRESIDENTE_PRUDENTE", "LATITUDE": -22.124407, "LONGITUDE": -51.3886671 }, "geometry": { "type": "Point", "coordinates": [ -51.3886671, -22.124407 ] } },
{ "type": "Feature", "properties": { "CNPJ": 37712242000118, "AGENTE": "GABRIEL_ALBINO", "ACAO": "REALIZAR_SEGUNDA_VISITA", "RAZAO_SOCIAL": "37.712.242_ANDRESSA_SANCHES_DE_SOUZA_-_ASNAILS", "ENDERECO": "RUA_RUI_BARBOSA_475_CENTRO_PRESIDENTE_PRUDENTE", "CIDADE": "PRESIDENTE_PRUDENTE", "LATITUDE": -22.1244323, "LONGITUDE": -51.3886987 }, "geometry": { "type": "Point", "coordinates": [ -51.3886987, -22.1244323 ] } },
{ "type": "Feature", "properties": { "CNPJ": 50741050000106, "AGENTE": "GABRIEL_ALBINO", "ACAO": "REALIZAR_SEGUNDA_VISITA", "RAZAO_SOCIAL": "BARUKA_PRODUTOS_NATURAIS_LTDA_-_BARUKA", "ENDERECO": "RUA_RUI_BARBOSA_480_CENTRO_PRESIDENTE_PRUDENTE", "CIDADE": "PRESIDENTE_PRUDENTE", "LATITUDE": -22.1243002, "LONGITUDE": -51.3885937 }, "geometry": { "type": "Point", "coordinates": [ -51.3885937, -22.1243002 ] } },
{ "type": "Feature", "properties": { "CNPJ": 59065543000130, "AGENTE": "GABRIEL_ALBINO", "ACAO": "REALIZAR_SEGUNDA_VISITA", "RAZAO_SOCIAL": "59.065.543_FERNANDA_DE_OLIVEIRA_QUINTILIANO_-_FERNANDA_CILIOS", "ENDERECO": "RUA_RUI_BARBOSA_501_CENTRO_PRESIDENTE_PRUDENTE", "CIDADE": "PRESIDENTE_PRUDENTE", "LATITUDE": -22.1243526, "LONGITUDE": -51.3890171 }, "geometry": { "type": "Point", "coordinates": [ -51.3890171, -22.1243526 ] } },
{ "type": "Feature", "properties": { "CNPJ": 31636388000145, "AGENTE": "GABRIEL_ALBINO", "ACAO": "REALIZAR_SEGUNDA_VISITA", "RAZAO_SOCIAL": "31.636.388_ALEXSANDRA_APARECIDA_NUNES_MARUITI_-_FRANQUIA_DOS_CABELOS", "ENDERECO": "RUA_RUI_BARBOSA_501_CENTRO_PRESIDENTE_PRUDENTE", "CIDADE": "PRESIDENTE_PRUDENTE", "LATITUDE": -22.124379, "LONGITUDE": -51.3889101 }, "geometry": { "type": "Point", "coordinates": [ -51.3889101, -22.124379 ] } },
{ "type": "Feature", "properties": { "CNPJ": 15180155000124, "AGENTE": "GABRIEL_ALBINO", "ACAO": "REALIZAR_SEGUNDA_VISITA", "RAZAO_SOCIAL": "LOVANE_TEREZINHA_TARELLI_DA_SILVA_47392533134_-_NANE_STUDIO", "ENDERECO": "RUA_RUI_BARBOSA_562_CENTRO_PRESIDENTE_PRUDENTE", "CIDADE": "PRESIDENTE_PRUDENTE", "LATITUDE": -22.1240188, "LONGITUDE": -51.3894152 }, "geometry": { "type": "Point", "coordinates": [ -51.3894152, -22.1240188 ] } },
{ "type": "Feature", "properties": { "CNPJ": 11699075000129, "AGENTE": "GABRIEL_ALBINO", "ACAO": "REALIZAR_SEGUNDA_VISITA", "RAZAO_SOCIAL": "S_C_QUEIROZ_TAYLOR_-_JHENIFER_CASA_DAS_PERUCAS", "ENDERECO": "RUA_RUI_BARBOSA_578_CENTRO_PRESIDENTE_PRUDENTE", "CIDADE": "PRESIDENTE_PRUDENTE", "LATITUDE": -22.1238965, "LONGITUDE": -51.3895054 }, "geometry": { "type": "Point", "coordinates": [ -51.3895054, -22.1238965 ] } },
{ "type": "Feature", "properties": { "CNPJ": 23059970000168, "AGENTE": "GABRIEL_ALBINO", "ACAO": "REALIZAR_SEGUNDA_VISITA", "RAZAO_SOCIAL": "NOCA_IMOVEIS_LTDA_-_NOCAO_IMOVEIS", "ENDERECO": "RUA_RUI_BARBOSA_579_CENTRO_PRESIDENTE_PRUDENTE", "CIDADE": "PRESIDENTE_PRUDENTE", "LATITUDE": -22.1240687, "LONGITUDE": -51.3895584 }, "geometry": { "type": "Point", "coordinates": [ -51.3895584, -22.1240687 ] } },
{ "type": "Feature", "properties": { "CNPJ": 21280480000161, "AGENTE": "GABRIEL_ALBINO", "ACAO": "REALIZAR_SEGUNDA_VISITA", "RAZAO_SOCIAL": "21.280.480_TEREZA_APARECIDA_DA_SILVA_-_TENDA_DECORACAO", "ENDERECO": "RUA_RUI_BARBOSA_588_CENTRO_PRESIDENTE_PRUDENTE", "CIDADE": "PRESIDENTE_PRUDENTE", "LATITUDE": -22.1239016, "LONGITUDE": -51.3896598 }, "geometry": { "type": "Point", "coordinates": [ -51.3896598, -22.1239016 ] } },
{ "type": "Feature", "properties": { "CNPJ": 10144085000135, "AGENTE": "GABRIEL_ALBINO", "ACAO": "REALIZAR_SEGUNDA_VISITA", "RAZAO_SOCIAL": "M._A._BARBOSA_ESPORTIVO_-_TOTAL_SPORTS", "ENDERECO": "RUA_RUI_BARBOSA_61_CENTRO_PRESIDENTE_PRUDENTE", "CIDADE": "PRESIDENTE_PRUDENTE", "LATITUDE": -22.1260651, "LONGITUDE": -51.3850786 }, "geometry": { "type": "Point", "coordinates": [ -51.3850786, -22.1260651 ] } },
{ "type": "Feature", "properties": { "CNPJ": 53559611000130, "AGENTE": "GABRIEL_ALBINO", "ACAO": "REALIZAR_SEGUNDA_VISITA", "RAZAO_SOCIAL": "53.559.611_PEDRO_HENRIQUE_NEVES_CORRAL_FERNANDES_-_GATA_DE_LUXO", "ENDERECO": "RUA_RUI_BARBOSA_61_CENTRO_PRESIDENTE_PRUDENTE", "CIDADE": "PRESIDENTE_PRUDENTE", "LATITUDE": -22.1260728, "LONGITUDE": -51.3850804 }, "geometry": { "type": "Point", "coordinates": [ -51.3850804, -22.1260728 ] } },
{ "type": "Feature", "properties": { "CNPJ": 4682657000137, "AGENTE": "GABRIEL_ALBINO", "ACAO": "REALIZAR_SEGUNDA_VISITA", "RAZAO_SOCIAL": "OLIVEIRA_&_NASCIMENTO_S/C_LTDA_-_ELEGANCIA_A_RIGOR", "ENDERECO": "RUA_RUI_BARBOSA_66_CENTRO_PRESIDENTE_PRUDENTE", "CIDADE": "PRESIDENTE_PRUDENTE", "LATITUDE": -22.1260387, "LONGITUDE": -51.3850828 }, "geometry": { "type": "Point", "coordinates": [ -51.3850828, -22.1260387 ] } },
{ "type": "Feature", "properties": { "CNPJ": 25158595000139, "AGENTE": "GABRIEL_ALBINO", "ACAO": "REALIZAR_SEGUNDA_VISITA", "RAZAO_SOCIAL": "MILENE_ROSE_MARTELI_SILVA_27069032870_-_ORTICA___MARTELI", "ENDERECO": "RUA_RUI_BARBOSA_92_CENTRO_PRESIDENTE_PRUDENTE", "CIDADE": "PRESIDENTE_PRUDENTE", "LATITUDE": -22.1259361, "LONGITUDE": -51.3853259 }, "geometry": { "type": "Point", "coordinates": [ -51.3853259, -22.1259361 ] } },
{ "type": "Feature", "properties": { "CNPJ": 20140650000140, "AGENTE": "GABRIEL_ALBINO", "ACAO": "REALIZAR_SEGUNDA_VISITA", "RAZAO_SOCIAL": "R_F_CONTABILIDADE_LTDA_-_RF_CONTABILIDADE", "ENDERECO": "RUA_SETE_DE_SETEMBRO_1400_VILA_DO_ESTADIO_PRESIDENTE_PRUDENTE", "CIDADE": "PRESIDENTE_PRUDENTE", "LATITUDE": -22.1177622, "LONGITUDE": -51.3925576 }, "geometry": { "type": "Point", "coordinates": [ -51.3925576, -22.1177622 ] } },
{ "type": "Feature", "properties": { "CNPJ": 46879733000149, "AGENTE": "GABRIEL_ALBINO", "ACAO": "REALIZAR_SEGUNDA_VISITA", "RAZAO_SOCIAL": "INOVAVET_CLINICA_VETERINARIA_LTDA_-_INOVAVET", "ENDERECO": "RUA_SETE_DE_SETEMBRO_1731_VILA_DO_ESTADIO_PRESIDENTE_PRUDENTE", "CIDADE": "PRESIDENTE_PRUDENTE", "LATITUDE": -22.1205607, "LONGITUDE": -51.3938644 }, "geometry": { "type": "Point", "coordinates": [ -51.3938644, -22.1205607 ] } },
{ "type": "Feature", "properties": { "CNPJ": 8830137000185, "AGENTE": "GABRIEL_ALBINO", "ACAO": "REALIZAR_SEGUNDA_VISITA", "RAZAO_SOCIAL": "08.830.137_CLAUDIO_MITSUYOSHI_KAWAGUCHI_-_DROGAN_LAN_HOUSE", "ENDERECO": "RUA_SIQUEIRA_CAMPOS_780_CENTRO_PRESIDENTE_PRUDENTE", "CIDADE": "PRESIDENTE_PRUDENTE", "LATITUDE": -22.1252724, "LONGITUDE": -51.3873881 }, "geometry": { "type": "Point", "coordinates": [ -51.3873881, -22.1252724 ] } },
{ "type": "Feature", "properties": { "CNPJ": 7572020000186, "AGENTE": "GABRIEL_ALBINO", "ACAO": "REALIZAR_SEGUNDA_VISITA", "RAZAO_SOCIAL": "ALESSANDRA_DE_A._TATEISI_-_JERUSALEM", "ENDERECO": "RUA_SIQUEIRA_CAMPOS_843_CENTRO_PRESIDENTE_PRUDENTE", "CIDADE": "PRESIDENTE_PRUDENTE", "LATITUDE": -22.1257084, "LONGITUDE": -51.3877191 }, "geometry": { "type": "Point", "coordinates": [ -51.3877191, -22.1257084 ] } },
{ "type": "Feature", "properties": { "CNPJ": 21734963000199, "AGENTE": "GABRIEL_ALBINO", "ACAO": "REALIZAR_SEGUNDA_VISITA", "RAZAO_SOCIAL": "21.734.963_JACQUELINE_FRANCO_MODAELLI_MANEA_-_SABOR_DA_CASA", "ENDERECO": "RUA_TULIO_CECHETTI_961_VILA_FORMOSA_PRESIDENTE_PRUDENTE", "CIDADE": "PRESIDENTE_PRUDENTE", "LATITUDE": -22.1437587, "LONGITUDE": -51.3971303 }, "geometry": { "type": "Point", "coordinates": [ -51.3971303, -22.1437587 ] } },
{ "type": "Feature", "properties": { "CNPJ": 59640517000198, "AGENTE": "GABRIEL_ALBINO", "ACAO": "REALIZAR_SEGUNDA_VISITA", "RAZAO_SOCIAL": "59.640.517_LEANDRO_RIBEIRO_MANEA_-_WESTBLEND", "ENDERECO": "RUA_TULIO_CECHETTI_961_VILA_FORMOSA_PRESIDENTE_PRUDENTE", "CIDADE": "PRESIDENTE_PRUDENTE", "LATITUDE": -22.1437613, "LONGITUDE": -51.3971362 }, "geometry": { "type": "Point", "coordinates": [ -51.3971362, -22.1437613 ] } }
]
}
