{
"type": "FeatureCollection",
"name": "GABRIEL_ALBINO",
"crs": { "type": "name", "properties": { "name": "urn:ogc:def:crs:OGC:1.3:CRS84" } },
"xy_coordinate_resolution": 1e-15,
"features": [
{ "type": "Feature", "properties": { "CNPJ": 38300384000130, "AGENTE": "GABRIEL_ALBINO", "ACAO": "REALIZAR_PRIMEIRA_VISITA", "RAZAO_SOCIAL": "MLE_TOP_BARATO_MANIA_LTDA", "ENDERECO": "AVENIDA_CORONEL_JOSE_SOARES_MARCONDES_1591_VILA_EUCLIDES_PRESIDENTE_PRUDENTE", "CIDADE": "PRESIDENTE_PRUDENTE", "LATITUDE": -22.1252856, "LONGITUDE": -51.3896659 }, "geometry": { "type": "Point", "coordinates": [ -51.3896659, -22.1252856 ] } },
{ "type": "Feature", "properties": { "CNPJ": 58363635000133, "AGENTE": "GABRIEL_ALBINO", "ACAO": "REALIZAR_PRIMEIRA_VISITA", "RAZAO_SOCIAL": "EVOLUIREE_CENTRO_MULTIDISCIPLINAR_PARA_ANALISE_E_INTERVENCAO_COMPORTAMENTAL_LTDA", "ENDERECO": "AVENIDA_GETULIO_VARGAS_143_BOSQUE_PRESIDENTE_PRUDENTE", "CIDADE": "PRESIDENTE_PRUDENTE", "LATITUDE": -22.1190128, "LONGITUDE": -51.3828194 }, "geometry": { "type": "Point", "coordinates": [ -51.3828194, -22.1190128 ] } },
{ "type": "Feature", "properties": { "CNPJ": 8826468000141, "AGENTE": "GABRIEL_ALBINO", "ACAO": "REALIZAR_PRIMEIRA_VISITA", "RAZAO_SOCIAL": "CORNELIO_IGNACIO_DA_SILVA", "ENDERECO": "AVENIDA_JOSE_BONIFACIO_951_CENTRO_DRACENA", "CIDADE": "DRACENA", "LATITUDE": -21.4897607, "LONGITUDE": -51.5348253 }, "geometry": { "type": "Point", "coordinates": [ -51.5348253, -21.4897607 ] } },
{ "type": "Feature", "properties": { "CNPJ": 37833541000291, "AGENTE": "GABRIEL_ALBINO", "ACAO": "REALIZAR_PRIMEIRA_VISITA", "RAZAO_SOCIAL": "RECANTO_DAS_FLORES_NASCIMENTO_LTDA", "ENDERECO": "AVENIDA_JOSE_BONIFACIO_973_CENTRO_DRACENA", "CIDADE": "DRACENA", "LATITUDE": -21.4894819, "LONGITUDE": -51.5350138 }, "geometry": { "type": "Point", "coordinates": [ -51.5350138, -21.4894819 ] } },
{ "type": "Feature", "properties": { "CNPJ": 47618269000108, "AGENTE": "GABRIEL_ALBINO", "ACAO": "REALIZAR_PRIMEIRA_VISITA", "RAZAO_SOCIAL": "TSUBOI_COMERCIO_DE_PNEUS_DRACENA_LTDA", "ENDERECO": "AVENIDA_PRESIDENTE_ROOSEVELT_1108_CENTRO_DRACENA", "CIDADE": "DRACENA", "LATITUDE": -21.4875902, "LONGITUDE": -51.5382281 }, "geometry": { "type": "Point", "coordinates": [ -51.5382281, -21.4875902 ] } },
{ "type": "Feature", "properties": { "CNPJ": 1173554000153, "AGENTE": "GABRIEL_ALBINO", "ACAO": "REALIZAR_PRIMEIRA_VISITA", "RAZAO_SOCIAL": "ADALBERTO_DESPENCIERI_DRACENA", "ENDERECO": "AVENIDA_PRESIDENTE_ROOSEVELT_1134_CENTRO_DRACENA", "CIDADE": "DRACENA", "LATITUDE": -21.4872136, "LONGITUDE": -51.5388556 }, "geometry": { "type": "Point", "coordinates": [ -51.5388556, -21.4872136 ] } },
{ "type": "Feature", "properties": { "CNPJ": 65436016000197, "AGENTE": "GABRIEL_ALBINO", "ACAO": "REALIZAR_PRIMEIRA_VISITA", "RAZAO_SOCIAL": "COMERCIAL_KONDA_LTDA", "ENDERECO": "AVENIDA_PRESIDENTE_ROOSEVELT_1168_CENTRO_DRACENA", "CIDADE": "DRACENA", "LATITUDE": -21.4872545, "LONGITUDE": -51.5391073 }, "geometry": { "type": "Point", "coordinates": [ -51.5391073, -21.4872545 ] } },
{ "type": "Feature", "properties": { "CNPJ": 30258915000162, "AGENTE": "GABRIEL_ALBINO", "ACAO": "REALIZAR_PRIMEIRA_VISITA", "RAZAO_SOCIAL": "R_C_DE_SOUZA_RODRIGUES_BOUTIQUE_LTDA", "ENDERECO": "AVENIDA_PRESIDENTE_ROOSEVELT_529_CENTRO_DRACENA", "CIDADE": "DRACENA", "LATITUDE": -21.4888841, "LONGITUDE": -51.5333029 }, "geometry": { "type": "Point", "coordinates": [ -51.5333029, -21.4888841 ] } },
{ "type": "Feature", "properties": { "CNPJ": 7047664000155, "AGENTE": "GABRIEL_ALBINO", "ACAO": "REALIZAR_PRIMEIRA_VISITA", "RAZAO_SOCIAL": "SANTI_&_SCALIANTE_LIVRARIA_LTDA", "ENDERECO": "AVENIDA_PRESIDENTE_ROOSEVELT_537_CENTRO_DRACENA", "CIDADE": "DRACENA", "LATITUDE": -21.4888919, "LONGITUDE": -51.5333436 }, "geometry": { "type": "Point", "coordinates": [ -51.5333436, -21.4888919 ] } },
{ "type": "Feature", "properties": { "CNPJ": 61292959000132, "AGENTE": "GABRIEL_ALBINO", "ACAO": "REALIZAR_PRIMEIRA_VISITA", "RAZAO_SOCIAL": "TERRA_PIRES_&_CIA_LTDA", "ENDERECO": "AVENIDA_WASHINGTON_LUIZ_2046_JARDIM_PAULISTA_PRESIDENTE_PRUDENTE", "CIDADE": "PRESIDENTE_PRUDENTE", "LATITUDE": -22.1158657, "LONGITUDE": -51.4005718 }, "geometry": { "type": "Point", "coordinates": [ -51.4005718, -22.1158657 ] } },
{ "type": "Feature", "properties": { "CNPJ": 10495973000100, "AGENTE": "GABRIEL_ALBINO", "ACAO": "REALIZAR_PRIMEIRA_VISITA", "RAZAO_SOCIAL": "T._A._PEREIRA_LANCHONETE", "ENDERECO": "RUA_ABILIO_NASCIMENTO_1320_JARDIM_SANTA_MARTA_PRESIDENTE_PRUDENTE", "CIDADE": "PRESIDENTE_PRUDENTE", "LATITUDE": -22.1387481, "LONGITUDE": -51.37594 }, "geometry": { "type": "Point", "coordinates": [ -51.37594, -22.1387481 ] } },
{ "type": "Feature", "properties": { "CNPJ": 5435173000156, "AGENTE": "GABRIEL_ALBINO", "ACAO": "REALIZAR_PRIMEIRA_VISITA", "RAZAO_SOCIAL": "M.M._COMERCIO_DE_GAS_PRESIDENTE_PRUDENTE_LTDA", "ENDERECO": "RUA_ALBERTO_ARTONI_35_JARDIM_SANTANA_PRESIDENTE_PRUDENTE", "CIDADE": "PRESIDENTE_PRUDENTE", "LATITUDE": -22.146272, "LONGITUDE": -51.3853109 }, "geometry": { "type": "Point", "coordinates": [ -51.3853109, -22.146272 ] } },
{ "type": "Feature", "properties": { "CNPJ": 37501878000110, "AGENTE": "GABRIEL_ALBINO", "ACAO": "REALIZAR_PRIMEIRA_VISITA", "RAZAO_SOCIAL": "F_M_DIONIZIO_PET_SHOP_LTDA", "ENDERECO": "RUA_ALVINO_GOMES_TEIXEIRA_2140_PARQUE_FURQUIM_PRESIDENTE_PRUDENTE", "CIDADE": "PRESIDENTE_PRUDENTE", "LATITUDE": -22.1029471, "LONGITUDE": -51.3887156 }, "geometry": { "type": "Point", "coordinates": [ -51.3887156, -22.1029471 ] } },
{ "type": "Feature", "properties": { "CNPJ": 66577222000180, "AGENTE": "GABRIEL_ALBINO", "ACAO": "REALIZAR_PRIMEIRA_VISITA", "RAZAO_SOCIAL": "VANESSA_DE_SOUSA_PAZOTE_ZAQUI_LTDA", "ENDERECO": "RUA_ANTONIO_ROBLES_FERNANDES_101_JARDIM_NOVA_PLANALTINA_PRESIDENTE_PRUDENTE", "CIDADE": "PRESIDENTE_PRUDENTE", "LATITUDE": -22.1430765, "LONGITUDE": -51.3820949 }, "geometry": { "type": "Point", "coordinates": [ -51.3820949, -22.1430765 ] } },
{ "type": "Feature", "properties": { "CNPJ": 20424608000150, "AGENTE": "GABRIEL_ALBINO", "ACAO": "REALIZAR_PRIMEIRA_VISITA", "RAZAO_SOCIAL": "SOLANGE_SAKIMI_SATO_MATTOS", "ENDERECO": "RUA_BARAO_DO_RIO_BRANCO_1510_VILA_SANTA_HELENA_PRESIDENTE_PRUDENTE", "CIDADE": "PRESIDENTE_PRUDENTE", "LATITUDE": -22.1194814, "LONGITUDE": -51.3964258 }, "geometry": { "type": "Point", "coordinates": [ -51.3964258, -22.1194814 ] } },
{ "type": "Feature", "properties": { "CNPJ": 446092000138, "AGENTE": "GABRIEL_ALBINO", "ACAO": "REALIZAR_PRIMEIRA_VISITA", "RAZAO_SOCIAL": "LIMP-LAR_INDUSTRIA_E_COMERCIO_DE_MATERIAIS_DE_LIMPEZA_LTDA", "ENDERECO": "RUA_BARAO_DO_RIO_BRANCO_1680_VILA_SANTA_HELENA_PRESIDENTE_PRUDENTE", "CIDADE": "PRESIDENTE_PRUDENTE", "LATITUDE": -22.1188529, "LONGITUDE": -51.3980466 }, "geometry": { "type": "Point", "coordinates": [ -51.3980466, -22.1188529 ] } },
{ "type": "Feature", "properties": { "CNPJ": 21211457000115, "AGENTE": "GABRIEL_ALBINO", "ACAO": "REALIZAR_PRIMEIRA_VISITA", "RAZAO_SOCIAL": "MARTA_OLINDA_FERREIRA", "ENDERECO": "RUA_BARAO_DO_RIO_BRANCO_941_CENTRO_PRESIDENTE_PRUDENTE", "CIDADE": "PRESIDENTE_PRUDENTE", "LATITUDE": -22.1221506, "LONGITUDE": -51.3915669 }, "geometry": { "type": "Point", "coordinates": [ -51.3915669, -22.1221506 ] } },
{ "type": "Feature", "properties": { "CNPJ": 36089247000173, "AGENTE": "GABRIEL_ALBINO", "ACAO": "REALIZAR_PRIMEIRA_VISITA", "RAZAO_SOCIAL": "MITIGOU_TECH_CURSOS_E_TREINAMENTOS_LTDA", "ENDERECO": "RUA_BARAO_DO_RIO_BRANCO_999_CENTRO_PRESIDENTE_PRUDENTE", "CIDADE": "PRESIDENTE_PRUDENTE", "LATITUDE": -22.1219236, "LONGITUDE": -51.3920562 }, "geometry": { "type": "Point", "coordinates": [ -51.3920562, -22.1219236 ] } },
{ "type": "Feature", "properties": { "CNPJ": 72692569000176, "AGENTE": "GABRIEL_ALBINO", "ACAO": "REALIZAR_PRIMEIRA_VISITA", "RAZAO_SOCIAL": "LANCHONETE_O_REI_DO_MOCOTO_PRESIDENTE_PRUDENTE_LTDA", "ENDERECO": "RUA_BENEDITO_SOARES_MARCONDES_877_VILA_RAMOS_DE_FREITAS_PRESIDENTE_PRUDENTE", "CIDADE": "PRESIDENTE_PRUDENTE", "LATITUDE": -22.1400614, "LONGITUDE": -51.3795322 }, "geometry": { "type": "Point", "coordinates": [ -51.3795322, -22.1400614 ] } },
{ "type": "Feature", "properties": { "CNPJ": 3351862000157, "AGENTE": "GABRIEL_ALBINO", "ACAO": "REALIZAR_PRIMEIRA_VISITA", "RAZAO_SOCIAL": "LOVITHA_TRANSPORTES_LTDA", "ENDERECO": "RUA_CARLOS_IGNACIO_ALCENCIO_152_JARDIM_PLANALTO_PRESIDENTE_PRUDENTE", "CIDADE": "PRESIDENTE_PRUDENTE", "LATITUDE": -22.1497919, "LONGITUDE": -51.3863029 }, "geometry": { "type": "Point", "coordinates": [ -51.3863029, -22.1497919 ] } },
{ "type": "Feature", "properties": { "CNPJ": 74274648000192, "AGENTE": "GABRIEL_ALBINO", "ACAO": "REALIZAR_PRIMEIRA_VISITA", "RAZAO_SOCIAL": "DROGARIA_MARIOTO_PRESIDENTE_PRUDENTE_LTDA", "ENDERECO": "RUA_JOAQUIM_MARQUES_CALDEIRA_274_JARDIM_BRASILIA_PRESIDENTE_PRUDENTE", "CIDADE": "PRESIDENTE_PRUDENTE", "LATITUDE": -22.143695, "LONGITUDE": -51.3859219 }, "geometry": { "type": "Point", "coordinates": [ -51.3859219, -22.143695 ] } },
{ "type": "Feature", "properties": { "CNPJ": 3314418000161, "AGENTE": "GABRIEL_ALBINO", "ACAO": "REALIZAR_PRIMEIRA_VISITA", "RAZAO_SOCIAL": "M_C_GOMES_COMERCIAL_LTDA", "ENDERECO": "RUA_JOSE_MENUZZI_13_JARDIM_SANTANA_PRESIDENTE_PRUDENTE", "CIDADE": "PRESIDENTE_PRUDENTE", "LATITUDE": -22.1463695, "LONGITUDE": -51.3857917 }, "geometry": { "type": "Point", "coordinates": [ -51.3857917, -22.1463695 ] } },
{ "type": "Feature", "properties": { "CNPJ": 47063094000101, "AGENTE": "GABRIEL_ALBINO", "ACAO": "REALIZAR_PRIMEIRA_VISITA", "RAZAO_SOCIAL": "CIRULABOR_PRODUTOS_CIRURGICOS_LTDA", "ENDERECO": "RUA_JOSE_THEODORO_126_VILA_EUCLIDES_PRESIDENTE_PRUDENTE", "CIDADE": "PRESIDENTE_PRUDENTE", "LATITUDE": -22.1276372, "LONGITUDE": -51.3930304 }, "geometry": { "type": "Point", "coordinates": [ -51.3930304, -22.1276372 ] } },
{ "type": "Feature", "properties": { "CNPJ": 7083706000103, "AGENTE": "GABRIEL_ALBINO", "ACAO": "REALIZAR_PRIMEIRA_VISITA", "RAZAO_SOCIAL": "JONAS_KOJI_SATO", "ENDERECO": "RUA_MONTE_CASTELO_1066_CENTRO_DRACENA", "CIDADE": "DRACENA", "LATITUDE": -21.4891655, "LONGITUDE": -51.5334702 }, "geometry": { "type": "Point", "coordinates": [ -51.5334702, -21.4891655 ] } },
{ "type": "Feature", "properties": { "CNPJ": 27828885000178, "AGENTE": "GABRIEL_ALBINO", "ACAO": "REALIZAR_PRIMEIRA_VISITA", "RAZAO_SOCIAL": "MEDICAL_PET_CLINICA_VETERINARIA_LTDA", "ENDERECO": "RUA_MONTE_CASTELO_1073_CENTRO_DRACENA", "CIDADE": "DRACENA", "LATITUDE": -21.4891758, "LONGITUDE": -51.5338741 }, "geometry": { "type": "Point", "coordinates": [ -51.5338741, -21.4891758 ] } },
{ "type": "Feature", "properties": { "CNPJ": 8088087000102, "AGENTE": "GABRIEL_ALBINO", "ACAO": "REALIZAR_PRIMEIRA_VISITA", "RAZAO_SOCIAL": "RODRIGO_AKAHOSHI_GASPARELLI", "ENDERECO": "RUA_SAO_PAULO_981_DRACENA_DRACENA", "CIDADE": "DRACENA", "LATITUDE": -21.4876168, "LONGITUDE": -51.539583 }, "geometry": { "type": "Point", "coordinates": [ -51.539583, -21.4876168 ] } },
{ "type": "Feature", "properties": { "CNPJ": 20097673000119, "AGENTE": "GABRIEL_ALBINO", "ACAO": "REALIZAR_PRIMEIRA_VISITA", "RAZAO_SOCIAL": "ALVES_DIAS_AUTOELETRICA_LTDA", "ENDERECO": "RUA_SARGENTO_FIRMINO_LEAO_153_VILA_MARCONDES_PRESIDENTE_PRUDENTE", "CIDADE": "PRESIDENTE_PRUDENTE", "LATITUDE": -22.1254287, "LONGITUDE": -51.3812828 }, "geometry": { "type": "Point", "coordinates": [ -51.3812828, -22.1254287 ] } },
{ "type": "Feature", "properties": { "CNPJ": 48423036000104, "AGENTE": "GABRIEL_ALBINO", "ACAO": "REALIZAR_PRIMEIRA_VISITA", "RAZAO_SOCIAL": "CARBONE_&_LIMA_LTDA", "ENDERECO": "RUA_VISCONDE_DO_RIO_BRANCO_995_CENTRO_DRACENA", "CIDADE": "DRACENA", "LATITUDE": -21.4876498, "LONGITUDE": -51.5385982 }, "geometry": { "type": "Point", "coordinates": [ -51.5385982, -21.4876498 ] } },
{ "type": "Feature", "properties": { "CNPJ": 4074904000112, "AGENTE": "GABRIEL_ALBINO", "ACAO": "REALIZAR_SEGUNDA_VISITA", "RAZAO_SOCIAL": "SAPO_COMERCIO_E_LOCACAO_DE_EQUIPAMENTOS_PARA_CONSTRUCAO_LTDA_-_SAPO_LOCACOES", "ENDERECO": "AVENIDA_BRASIL_3092_VILA_FORMOSA_PRESIDENTE_PRUDENTE", "CIDADE": "PRESIDENTE_PRUDENTE", "LATITUDE": -22.1451344, "LONGITUDE": -51.395447 }, "geometry": { "type": "Point", "coordinates": [ -51.395447, -22.1451344 ] } },
{ "type": "Feature", "properties": { "CNPJ": 38093974000130, "AGENTE": "GABRIEL_ALBINO", "ACAO": "REALIZAR_SEGUNDA_VISITA", "RAZAO_SOCIAL": "W_&_W_MARQUES_AUTO_PECAS_LTDA_-_MARQUES_AUTO_PECAS", "ENDERECO": "AVENIDA_BRASIL_3137_VILA_FORMOSA_PRESIDENTE_PRUDENTE", "CIDADE": "PRESIDENTE_PRUDENTE", "LATITUDE": -22.1455563, "LONGITUDE": -51.3953801 }, "geometry": { "type": "Point", "coordinates": [ -51.3953801, -22.1455563 ] } },
{ "type": "Feature", "properties": { "CNPJ": 30723264000134, "AGENTE": "GABRIEL_ALBINO", "ACAO": "REALIZAR_SEGUNDA_VISITA", "RAZAO_SOCIAL": "30.723.264_TAYLA_NILESSA_DE_LIMA_-_RETIFICA_PRUDENTE", "ENDERECO": "AVENIDA_BRASIL_3147_VILA_FORMOSA_PRESIDENTE_PRUDENTE", "CIDADE": "PRESIDENTE_PRUDENTE", "LATITUDE": -22.1456093, "LONGITUDE": -51.3954657 }, "geometry": { "type": "Point", "coordinates": [ -51.3954657, -22.1456093 ] } },
{ "type": "Feature", "properties": { "CNPJ": 21602765000171, "AGENTE": "GABRIEL_ALBINO", "ACAO": "REALIZAR_SEGUNDA_VISITA", "RAZAO_SOCIAL": "MISSE_AGRO_FERRAMENTAS_LTDA_-_MISSE", "ENDERECO": "AVENIDA_BRASIL_3167_VILA_FORMOSA_PRESIDENTE_PRUDENTE", "CIDADE": "PRESIDENTE_PRUDENTE", "LATITUDE": -22.1458157, "LONGITUDE": -51.3953501 }, "geometry": { "type": "Point", "coordinates": [ -51.3953501, -22.1458157 ] } },
{ "type": "Feature", "properties": { "CNPJ": 46742829000160, "AGENTE": "GABRIEL_ALBINO", "ACAO": "REALIZAR_SEGUNDA_VISITA", "RAZAO_SOCIAL": "PRUDENFLEX_-_FERRAMENTAS__SERVICOS_E_LOCACOES_LTDA_-_PRUDENFLEX", "ENDERECO": "AVENIDA_BRASIL_3177_VILA_FORMOSA_PRESIDENTE_PRUDENTE", "CIDADE": "PRESIDENTE_PRUDENTE", "LATITUDE": -22.1458984, "LONGITUDE": -51.3956095 }, "geometry": { "type": "Point", "coordinates": [ -51.3956095, -22.1458984 ] } },
{ "type": "Feature", "properties": { "CNPJ": 48799670000146, "AGENTE": "GABRIEL_ALBINO", "ACAO": "REALIZAR_SEGUNDA_VISITA", "RAZAO_SOCIAL": "PRUDENTAO_AUTO_PECAS_LTDA_-_PRUDENTAO_AUTO_PECAS", "ENDERECO": "AVENIDA_BRASIL_3187_VILA_FORMOSA_PRESIDENTE_PRUDENTE", "CIDADE": "PRESIDENTE_PRUDENTE", "LATITUDE": -22.1459283, "LONGITUDE": -51.3957438 }, "geometry": { "type": "Point", "coordinates": [ -51.3957438, -22.1459283 ] } },
{ "type": "Feature", "properties": { "CNPJ": 60697030000120, "AGENTE": "GABRIEL_ALBINO", "ACAO": "REALIZAR_SEGUNDA_VISITA", "RAZAO_SOCIAL": "MECANICA_PRUDENTE_LTDA_-_MECANICA_PRUDENTE", "ENDERECO": "AVENIDA_BRASIL_3199_VILA_FORMOSA_PRESIDENTE_PRUDENTE", "CIDADE": "PRESIDENTE_PRUDENTE", "LATITUDE": -22.1460627, "LONGITUDE": -51.3956328 }, "geometry": { "type": "Point", "coordinates": [ -51.3956328, -22.1460627 ] } },
{ "type": "Feature", "properties": { "CNPJ": 11378413000120, "AGENTE": "GABRIEL_ALBINO", "ACAO": "REALIZAR_SEGUNDA_VISITA", "RAZAO_SOCIAL": "RRCB_RECUPERADORA_LTDA_-_EMBRESUL", "ENDERECO": "AVENIDA_BRASIL_3209_VILA_FORMOSA_PRESIDENTE_PRUDENTE", "CIDADE": "PRESIDENTE_PRUDENTE", "LATITUDE": -22.146165, "LONGITUDE": -51.3957492 }, "geometry": { "type": "Point", "coordinates": [ -51.3957492, -22.146165 ] } },
{ "type": "Feature", "properties": { "CNPJ": 19355831000104, "AGENTE": "GABRIEL_ALBINO", "ACAO": "REALIZAR_SEGUNDA_VISITA", "RAZAO_SOCIAL": "LT_TRATORES_E_MAQUINAS_LTDA_-_LT_TRATORES", "ENDERECO": "AVENIDA_BRASIL_3219_VILA_FORMOSA_PRESIDENTE_PRUDENTE", "CIDADE": "PRESIDENTE_PRUDENTE", "LATITUDE": -22.1462003, "LONGITUDE": -51.3957849 }, "geometry": { "type": "Point", "coordinates": [ -51.3957849, -22.1462003 ] } },
{ "type": "Feature", "properties": { "CNPJ": 55325831000125, "AGENTE": "GABRIEL_ALBINO", "ACAO": "REALIZAR_SEGUNDA_VISITA", "RAZAO_SOCIAL": "BAZAR_BRASILIA_PRESIDENTE_PRUDENTE_LTDA_-_BAZAR_BRASILIA", "ENDERECO": "AVENIDA_CORONEL_JOSE_SOARES_MARCONDES_1477_CENTRO_PRESIDENTE_PRUDENTE", "CIDADE": "PRESIDENTE_PRUDENTE", "LATITUDE": -22.1242658, "LONGITUDE": -51.3891403 }, "geometry": { "type": "Point", "coordinates": [ -51.3891403, -22.1242658 ] } },
{ "type": "Feature", "properties": { "CNPJ": 56924611000180, "AGENTE": "GABRIEL_ALBINO", "ACAO": "REALIZAR_SEGUNDA_VISITA", "RAZAO_SOCIAL": "ANICIA_COMERCIO_DE_PRODUTOS_NATURAIS_LTDA_-_CASA_DE_ERVAS_MEDICINAIS", "ENDERECO": "AVENIDA_CORONEL_JOSE_SOARES_MARCONDES_1485_CENTRO_PRESIDENTE_PRUDENTE", "CIDADE": "PRESIDENTE_PRUDENTE", "LATITUDE": -22.1243127, "LONGITUDE": -51.3891505 }, "geometry": { "type": "Point", "coordinates": [ -51.3891505, -22.1243127 ] } },
{ "type": "Feature", "properties": { "CNPJ": 59662106000101, "AGENTE": "GABRIEL_ALBINO", "ACAO": "REALIZAR_SEGUNDA_VISITA", "RAZAO_SOCIAL": "PRUDEN-MODAS_CONFECCOES_LTDA_-_TRIBOS", "ENDERECO": "AVENIDA_CORONEL_JOSE_SOARES_MARCONDES_1491_CENTRO_PRESIDENTE_PRUDENTE", "CIDADE": "PRESIDENTE_PRUDENTE", "LATITUDE": -22.1243626, "LONGITUDE": -51.3892121 }, "geometry": { "type": "Point", "coordinates": [ -51.3892121, -22.1243626 ] } },
{ "type": "Feature", "properties": { "CNPJ": 41589752000117, "AGENTE": "GABRIEL_ALBINO", "ACAO": "REALIZAR_SEGUNDA_VISITA", "RAZAO_SOCIAL": "CARLOS_ALBERTO_ZAVATIERI_24939495876_-_ZAVAS_CABELEIREIRO", "ENDERECO": "AVENIDA_CORONEL_JOSE_SOARES_MARCONDES_1495_CENTRO_PRESIDENTE_PRUDENTE", "CIDADE": "PRESIDENTE_PRUDENTE", "LATITUDE": -22.124396, "LONGITUDE": -51.3891993 }, "geometry": { "type": "Point", "coordinates": [ -51.3891993, -22.124396 ] } },
{ "type": "Feature", "properties": { "CNPJ": 48721895000180, "AGENTE": "GABRIEL_ALBINO", "ACAO": "REALIZAR_SEGUNDA_VISITA", "RAZAO_SOCIAL": "ANTONIO_DE_FARO_TEIXEIRA_04609785862_-_BAZAR_DA_COSTURA", "ENDERECO": "AVENIDA_CORONEL_JOSE_SOARES_MARCONDES_1502_CENTRO_PRESIDENTE_PRUDENTE", "CIDADE": "PRESIDENTE_PRUDENTE", "LATITUDE": -22.1241165, "LONGITUDE": -51.3894195 }, "geometry": { "type": "Point", "coordinates": [ -51.3894195, -22.1241165 ] } },
{ "type": "Feature", "properties": { "CNPJ": 27322416000182, "AGENTE": "GABRIEL_ALBINO", "ACAO": "REALIZAR_SEGUNDA_VISITA", "RAZAO_SOCIAL": "MARLI_PEREIRA_DA_SILVA_10922061831_-_SPACO_DELLAS", "ENDERECO": "AVENIDA_CORONEL_JOSE_SOARES_MARCONDES_1550_CENTRO_PRESIDENTE_PRUDENTE", "CIDADE": "PRESIDENTE_PRUDENTE", "LATITUDE": -22.1247198, "LONGITUDE": -51.3896145 }, "geometry": { "type": "Point", "coordinates": [ -51.3896145, -22.1247198 ] } },
{ "type": "Feature", "properties": { "CNPJ": 55285805000110, "AGENTE": "GABRIEL_ALBINO", "ACAO": "REALIZAR_SEGUNDA_VISITA", "RAZAO_SOCIAL": "LUCLER_DECORACOES_LTDA_-_ALUIZIO_DECORACOES", "ENDERECO": "AVENIDA_CORONEL_JOSE_SOARES_MARCONDES_2635_VILA_EUCLIDES_PRESIDENTE_PRUDENTE", "CIDADE": "PRESIDENTE_PRUDENTE", "LATITUDE": -22.1239187, "LONGITUDE": -51.3896438 }, "geometry": { "type": "Point", "coordinates": [ -51.3896438, -22.1239187 ] } },
{ "type": "Feature", "properties": { "CNPJ": 22067781000174, "AGENTE": "GABRIEL_ALBINO", "ACAO": "REALIZAR_SEGUNDA_VISITA", "RAZAO_SOCIAL": "RAFAEL_T_MESTRINELLI_-_MULT_COLCHOES", "ENDERECO": "AVENIDA_MANOEL_GOULART_428_VILA_NOVA_PRESIDENTE_PRUDENTE", "CIDADE": "PRESIDENTE_PRUDENTE", "LATITUDE": -22.1255945, "LONGITUDE": -51.3887789 }, "geometry": { "type": "Point", "coordinates": [ -51.3887789, -22.1255945 ] } },
{ "type": "Feature", "properties": { "CNPJ": 56444640000145, "AGENTE": "GABRIEL_ALBINO", "ACAO": "REALIZAR_SEGUNDA_VISITA", "RAZAO_SOCIAL": "56.444.640_JONATHAN_DOUGLAS_LIMA_COSTA_-_STUDIO_7", "ENDERECO": "RUA_ANTONIO_RODRIGUES_70_VILA_MIRIAN_PRESIDENTE_PRUDENTE", "CIDADE": "PRESIDENTE_PRUDENTE", "LATITUDE": -22.1256745, "LONGITUDE": -51.3877992 }, "geometry": { "type": "Point", "coordinates": [ -51.3877992, -22.1256745 ] } },
{ "type": "Feature", "properties": { "CNPJ": 60108800000152, "AGENTE": "GABRIEL_ALBINO", "ACAO": "REALIZAR_SEGUNDA_VISITA", "RAZAO_SOCIAL": "SIDNEI_BARILLE_-_BAILE_REI_DAS_MAQUINAS", "ENDERECO": "RUA_BARAO_DO_RIO_BRANCO_444_VILA_DO_ESTADIO_PRESIDENTE_PRUDENTE", "CIDADE": "PRESIDENTE_PRUDENTE", "LATITUDE": -22.1240241, "LONGITUDE": -51.3872415 }, "geometry": { "type": "Point", "coordinates": [ -51.3872415, -22.1240241 ] } },
{ "type": "Feature", "properties": { "CNPJ": 5358433000137, "AGENTE": "GABRIEL_ALBINO", "ACAO": "REALIZAR_SEGUNDA_VISITA", "RAZAO_SOCIAL": "REGISLENE_CASSEMIRO_-_SAO_MARCOS_CASA_DE_CARNES", "ENDERECO": "RUA_CAMPESTRE_148_VILA_FORMOSA_PRESIDENTE_PRUDENTE", "CIDADE": "PRESIDENTE_PRUDENTE", "LATITUDE": -22.1455145, "LONGITUDE": -51.394305 }, "geometry": { "type": "Point", "coordinates": [ -51.394305, -22.1455145 ] } },
{ "type": "Feature", "properties": { "CNPJ": 33748909000181, "AGENTE": "GABRIEL_ALBINO", "ACAO": "REALIZAR_SEGUNDA_VISITA", "RAZAO_SOCIAL": "LIDERANCA_RADIADORES_LTDA_-_LIDERANCA_RADIADORES", "ENDERECO": "RUA_CAMPESTRE_168_VILA_FORMOSA_PRESIDENTE_PRUDENTE", "CIDADE": "PRESIDENTE_PRUDENTE", "LATITUDE": -22.145571, "LONGITUDE": -51.3940786 }, "geometry": { "type": "Point", "coordinates": [ -51.3940786, -22.145571 ] } },
{ "type": "Feature", "properties": { "CNPJ": 38136761000148, "AGENTE": "GABRIEL_ALBINO", "ACAO": "REALIZAR_SEGUNDA_VISITA", "RAZAO_SOCIAL": "VERDEMAQ_COMERCIO_DE_PECAS_AGRICOLAS_E_SERVICOS_DE_MANUTENCOES_LTDA_-_VERDMAQ", "ENDERECO": "RUA_CAMPESTRE_178_VILA_FORMOSA_PRESIDENTE_PRUDENTE", "CIDADE": "PRESIDENTE_PRUDENTE", "LATITUDE": -22.1455962, "LONGITUDE": -51.3938775 }, "geometry": { "type": "Point", "coordinates": [ -51.3938775, -22.1455962 ] } },
{ "type": "Feature", "properties": { "CNPJ": 23981185000168, "AGENTE": "GABRIEL_ALBINO", "ACAO": "REALIZAR_SEGUNDA_VISITA", "RAZAO_SOCIAL": "NELSON_BELLAFRONTE_JUNIOR_-_OFICINA_BELAFRONTE", "ENDERECO": "RUA_CAMPESTRE_275_VILA_FORMOSA_PRESIDENTE_PRUDENTE", "CIDADE": "PRESIDENTE_PRUDENTE", "LATITUDE": -22.1457175, "LONGITUDE": -51.3928188 }, "geometry": { "type": "Point", "coordinates": [ -51.3928188, -22.1457175 ] } },
{ "type": "Feature", "properties": { "CNPJ": 8927124000129, "AGENTE": "GABRIEL_ALBINO", "ACAO": "REALIZAR_SEGUNDA_VISITA", "RAZAO_SOCIAL": "FUNAPEL_EMBALAGENS_LTDA_-_FUNAPEL", "ENDERECO": "RUA_JOAO_VICENTE_MENDONCA_FILHO_408_VILA_FORMOSA_PRESIDENTE_PRUDENTE", "CIDADE": "PRESIDENTE_PRUDENTE", "LATITUDE": -22.1455993, "LONGITUDE": -51.3922968 }, "geometry": { "type": "Point", "coordinates": [ -51.3922968, -22.1455993 ] } },
{ "type": "Feature", "properties": { "CNPJ": 46066471000101, "AGENTE": "GABRIEL_ALBINO", "ACAO": "REALIZAR_SEGUNDA_VISITA", "RAZAO_SOCIAL": "46.066.471_ELIANE_CARRARA_-_LI_ANGELS", "ENDERECO": "RUA_JOAQUIM_NABUCO_764_CENTRO_PRESIDENTE_PRUDENTE", "CIDADE": "PRESIDENTE_PRUDENTE", "LATITUDE": -22.1244434, "LONGITUDE": -51.3882434 }, "geometry": { "type": "Point", "coordinates": [ -51.3882434, -22.1244434 ] } },
{ "type": "Feature", "properties": { "CNPJ": 52014963000148, "AGENTE": "GABRIEL_ALBINO", "ACAO": "REALIZAR_SEGUNDA_VISITA", "RAZAO_SOCIAL": "52.014.963_ANGELICA_OLIVEIRA_DE_BRITO_-_ANGELS", "ENDERECO": "RUA_JOAQUIM_NABUCO_764_CENTRO_PRESIDENTE_PRUDENTE", "CIDADE": "PRESIDENTE_PRUDENTE", "LATITUDE": -22.1244831, "LONGITUDE": -51.3883014 }, "geometry": { "type": "Point", "coordinates": [ -51.3883014, -22.1244831 ] } },
{ "type": "Feature", "properties": { "CNPJ": 57804213000193, "AGENTE": "GABRIEL_ALBINO", "ACAO": "REALIZAR_SEGUNDA_VISITA", "RAZAO_SOCIAL": "MAQ-CENTER_PAPELARIA_LTDA_-_MAQ_CENTER", "ENDERECO": "RUA_JOAQUIM_NABUCO_808_CENTRO_PRESIDENTE_PRUDENTE", "CIDADE": "PRESIDENTE_PRUDENTE", "LATITUDE": -22.1247116, "LONGITUDE": -51.3884539 }, "geometry": { "type": "Point", "coordinates": [ -51.3884539, -22.1247116 ] } },
{ "type": "Feature", "properties": { "CNPJ": 29974861000152, "AGENTE": "GABRIEL_ALBINO", "ACAO": "REALIZAR_SEGUNDA_VISITA", "RAZAO_SOCIAL": "HOMBRE_CONFECCOES_PRUDENTE_LTDA_-_HOMBRE", "ENDERECO": "RUA_JOAQUIM_NABUCO_809_CENTRO_PRESIDENTE_PRUDENTE", "CIDADE": "PRESIDENTE_PRUDENTE", "LATITUDE": -22.1247828, "LONGITUDE": -51.3883851 }, "geometry": { "type": "Point", "coordinates": [ -51.3883851, -22.1247828 ] } },
{ "type": "Feature", "properties": { "CNPJ": 53298383000192, "AGENTE": "GABRIEL_ALBINO", "ACAO": "REALIZAR_SEGUNDA_VISITA", "RAZAO_SOCIAL": "53.298.383_MAISA_CIANFA_DA_GALLO_-_MAIS_GALO", "ENDERECO": "RUA_JOAQUIM_NABUCO_819_CENTRO_PRESIDENTE_PRUDENTE", "CIDADE": "PRESIDENTE_PRUDENTE", "LATITUDE": -22.1248848, "LONGITUDE": -51.3884232 }, "geometry": { "type": "Point", "coordinates": [ -51.3884232, -22.1248848 ] } },
{ "type": "Feature", "properties": { "CNPJ": 47456797000108, "AGENTE": "GABRIEL_ALBINO", "ACAO": "REALIZAR_SEGUNDA_VISITA", "RAZAO_SOCIAL": "LAYRA_CRISTINA_MARTINS_COUTINHO_42566422850_-_COLT_SHOES", "ENDERECO": "RUA_JOAQUIM_NABUCO_819_CENTRO_PRESIDENTE_PRUDENTE", "CIDADE": "PRESIDENTE_PRUDENTE", "LATITUDE": -22.1249474, "LONGITUDE": -51.3884036 }, "geometry": { "type": "Point", "coordinates": [ -51.3884036, -22.1249474 ] } },
{ "type": "Feature", "properties": { "CNPJ": 5455706000161, "AGENTE": "GABRIEL_ALBINO", "ACAO": "REALIZAR_SEGUNDA_VISITA", "RAZAO_SOCIAL": "SEBO_PRUDENTE_LTDA_-_SEBO_PRUDENTE", "ENDERECO": "RUA_MAJOR_FELICIO_TARABAY_750_CENTRO_PRESIDENTE_PRUDENTE", "CIDADE": "PRESIDENTE_PRUDENTE", "LATITUDE": -22.1253004, "LONGITUDE": -51.3865238 }, "geometry": { "type": "Point", "coordinates": [ -51.3865238, -22.1253004 ] } },
{ "type": "Feature", "properties": { "CNPJ": 33088482000132, "AGENTE": "GABRIEL_ALBINO", "ACAO": "REALIZAR_SEGUNDA_VISITA", "RAZAO_SOCIAL": "PAULO_PIRES_DA_SILVA_36701515835_-_PJ_JOIA", "ENDERECO": "RUA_MAJOR_FELICIO_TARABAY_774_CENTRO_PRESIDENTE_PRUDENTE", "CIDADE": "PRESIDENTE_PRUDENTE", "LATITUDE": -22.1256123, "LONGITUDE": -51.3865919 }, "geometry": { "type": "Point", "coordinates": [ -51.3865919, -22.1256123 ] } },
{ "type": "Feature", "properties": { "CNPJ": 58434560000134, "AGENTE": "GABRIEL_ALBINO", "ACAO": "REALIZAR_SEGUNDA_VISITA", "RAZAO_SOCIAL": "HBG_CLINICA_ODONTOLOGICA_LTDA_-_ODONTO_EXCELLENCE", "ENDERECO": "RUA_MAJOR_FELICIO_TARABAY_784_CENTRO_PRESIDENTE_PRUDENTE", "CIDADE": "PRESIDENTE_PRUDENTE", "LATITUDE": -22.1255726, "LONGITUDE": -51.3865874 }, "geometry": { "type": "Point", "coordinates": [ -51.3865874, -22.1255726 ] } },
{ "type": "Feature", "properties": { "CNPJ": 45118377000188, "AGENTE": "GABRIEL_ALBINO", "ACAO": "REALIZAR_SEGUNDA_VISITA", "RAZAO_SOCIAL": "EDULAR_MOVEIS_LTDA_-_EDULAR", "ENDERECO": "RUA_MAJOR_FELICIO_TARABAY_803_CENTRO_PRESIDENTE_PRUDENTE", "CIDADE": "PRESIDENTE_PRUDENTE", "LATITUDE": -22.1258423, "LONGITUDE": -51.3871231 }, "geometry": { "type": "Point", "coordinates": [ -51.3871231, -22.1258423 ] } },
{ "type": "Feature", "properties": { "CNPJ": 68359074000152, "AGENTE": "GABRIEL_ALBINO", "ACAO": "REALIZAR_SEGUNDA_VISITA", "RAZAO_SOCIAL": "ANTONINHO_COMERCIO_DE_DECORACAO_LTDA_-_PAULAS_DECOR", "ENDERECO": "RUA_MAJOR_FELICIO_TARABAY_827_CENTRO_PRESIDENTE_PRUDENTE", "CIDADE": "PRESIDENTE_PRUDENTE", "LATITUDE": -22.1260575, "LONGITUDE": -51.3866322 }, "geometry": { "type": "Point", "coordinates": [ -51.3866322, -22.1260575 ] } },
{ "type": "Feature", "properties": { "CNPJ": 52841250000158, "AGENTE": "GABRIEL_ALBINO", "ACAO": "REALIZAR_SEGUNDA_VISITA", "RAZAO_SOCIAL": "S._R._DE_SOUZA_ATACADISTA_LTDA_-_ATACADAO_DAS_PELICULA", "ENDERECO": "RUA_MAJOR_FELICIO_TARABAY_834_CENTRO_PRESIDENTE_PRUDENTE", "CIDADE": "PRESIDENTE_PRUDENTE", "LATITUDE": -22.1259355, "LONGITUDE": -51.3870111 }, "geometry": { "type": "Point", "coordinates": [ -51.3870111, -22.1259355 ] } },
{ "type": "Feature", "properties": { "CNPJ": 1048525000160, "AGENTE": "GABRIEL_ALBINO", "ACAO": "REALIZAR_SEGUNDA_VISITA", "RAZAO_SOCIAL": "CAIO_COMERCIO_DE_EMBALAGENS_LTDA_-_CAIO_EMBALAGENS", "ENDERECO": "RUA_MAJOR_FELICIO_TARABAY_848_CENTRO_PRESIDENTE_PRUDENTE", "CIDADE": "PRESIDENTE_PRUDENTE", "LATITUDE": -22.1261872, "LONGITUDE": -51.3870078 }, "geometry": { "type": "Point", "coordinates": [ -51.3870078, -22.1261872 ] } },
{ "type": "Feature", "properties": { "CNPJ": 50466052000126, "AGENTE": "GABRIEL_ALBINO", "ACAO": "REALIZAR_SEGUNDA_VISITA", "RAZAO_SOCIAL": "50.466.052_WELLINGTON_FERREIRA_DE_SOUZA_-_WEPALU", "ENDERECO": "RUA_PRINCESA_ISABEL_978_DRACENA_DRACENA", "CIDADE": "DRACENA", "LATITUDE": -21.4887234, "LONGITUDE": -51.536837 }, "geometry": { "type": "Point", "coordinates": [ -51.536837, -21.4887234 ] } },
{ "type": "Feature", "properties": { "CNPJ": 51995737000122, "AGENTE": "GABRIEL_ALBINO", "ACAO": "REALIZAR_SEGUNDA_VISITA", "RAZAO_SOCIAL": "TIA_SANDRA_CENTRO_DE_ESTETICA_-_ESCOLA_GROOMER_LTDA_-_TIA_SANDRA", "ENDERECO": "RUA_RIBEIRO_DE_BARROS_1944_VILA_DUBUS_PRESIDENTE_PRUDENTE", "CIDADE": "PRESIDENTE_PRUDENTE", "LATITUDE": -22.1239196, "LONGITUDE": -51.3902517 }, "geometry": { "type": "Point", "coordinates": [ -51.3902517, -22.1239196 ] } },
{ "type": "Feature", "properties": { "CNPJ": 48344996000189, "AGENTE": "GABRIEL_ALBINO", "ACAO": "REALIZAR_SEGUNDA_VISITA", "RAZAO_SOCIAL": "48.344.996_EVELYN_SANTIAGO_QUIRINO_-_CENTRO_DE_ESTETICA_ANIMAL", "ENDERECO": "RUA_RIBEIRO_DE_BARROS_1944_VILA_DUBUS_PRESIDENTE_PRUDENTE", "CIDADE": "PRESIDENTE_PRUDENTE", "LATITUDE": -22.1239556, "LONGITUDE": -51.3902773 }, "geometry": { "type": "Point", "coordinates": [ -51.3902773, -22.1239556 ] } },
{ "type": "Feature", "properties": { "CNPJ": 30063000190, "AGENTE": "GABRIEL_ALBINO", "ACAO": "REALIZAR_SEGUNDA_VISITA", "RAZAO_SOCIAL": "C.J._DE_OLIVEIRA_FRIOS_E_LATICINIOS_-_EMPORIO_COLONIAL", "ENDERECO": "RUA_RUI_BARBOSA_1145_CENTRO_PRESIDENTE_PRUDENTE", "CIDADE": "PRESIDENTE_PRUDENTE", "LATITUDE": -22.1218245, "LONGITUDE": -51.3943421 }, "geometry": { "type": "Point", "coordinates": [ -51.3943421, -22.1218245 ] } },
{ "type": "Feature", "properties": { "CNPJ": 7454730000101, "AGENTE": "GABRIEL_ALBINO", "ACAO": "REALIZAR_SEGUNDA_VISITA", "RAZAO_SOCIAL": "LUIS_RENATO_COLLA_MARANHO_-_CANTINHO_DAS_BOLSAS", "ENDERECO": "RUA_RUI_BARBOSA_145_CENTRO_PRESIDENTE_PRUDENTE", "CIDADE": "PRESIDENTE_PRUDENTE", "LATITUDE": -22.1257623, "LONGITUDE": -51.3857818 }, "geometry": { "type": "Point", "coordinates": [ -51.3857818, -22.1257623 ] } },
{ "type": "Feature", "properties": { "CNPJ": 28862098000105, "AGENTE": "GABRIEL_ALBINO", "ACAO": "REALIZAR_SEGUNDA_VISITA", "RAZAO_SOCIAL": "MINHA_LIVRARIA_CRISTA_LTDA_-_EMERICK", "ENDERECO": "RUA_RUI_BARBOSA_153_CENTRO_PRESIDENTE_PRUDENTE", "CIDADE": "PRESIDENTE_PRUDENTE", "LATITUDE": -22.1257351, "LONGITUDE": -51.3859099 }, "geometry": { "type": "Point", "coordinates": [ -51.3859099, -22.1257351 ] } },
{ "type": "Feature", "properties": { "CNPJ": 8512614000164, "AGENTE": "GABRIEL_ALBINO", "ACAO": "REALIZAR_SEGUNDA_VISITA", "RAZAO_SOCIAL": "CLAUDIANO_BARBOSA_DE_SOUZA_MOVEIS_-_SOLLAR_COLCHOES", "ENDERECO": "RUA_RUI_BARBOSA_165_CENTRO_PRESIDENTE_PRUDENTE", "CIDADE": "PRESIDENTE_PRUDENTE", "LATITUDE": -22.1256798, "LONGITUDE": -51.3859573 }, "geometry": { "type": "Point", "coordinates": [ -51.3859573, -22.1256798 ] } },
{ "type": "Feature", "properties": { "CNPJ": 55244629000179, "AGENTE": "GABRIEL_ALBINO", "ACAO": "REALIZAR_SEGUNDA_VISITA", "RAZAO_SOCIAL": "55.244.629_ANDERSON_JOSE_DOS_SANTOS_CESARIO_-_BUSCAPE", "ENDERECO": "RUA_RUI_BARBOSA_1713_VILA_SANTA_HELENA_PRESIDENTE_PRUDENTE", "CIDADE": "PRESIDENTE_PRUDENTE", "LATITUDE": -22.1195426, "LONGITUDE": -51.3992419 }, "geometry": { "type": "Point", "coordinates": [ -51.3992419, -22.1195426 ] } },
{ "type": "Feature", "properties": { "CNPJ": 74398579000129, "AGENTE": "GABRIEL_ALBINO", "ACAO": "REALIZAR_SEGUNDA_VISITA", "RAZAO_SOCIAL": "JULIO_KITAMURA_LTDA_-_EDULAR_2", "ENDERECO": "RUA_RUI_BARBOSA_185_CENTRO_PRESIDENTE_PRUDENTE", "CIDADE": "PRESIDENTE_PRUDENTE", "LATITUDE": -22.1256392, "LONGITUDE": -51.3861271 }, "geometry": { "type": "Point", "coordinates": [ -51.3861271, -22.1256392 ] } },
{ "type": "Feature", "properties": { "CNPJ": 20316250000142, "AGENTE": "GABRIEL_ALBINO", "ACAO": "REALIZAR_SEGUNDA_VISITA", "RAZAO_SOCIAL": "CLAUDEMIR_ROBERTO_NUVOLI_VOLTARELI_06974894856_-_CLAUDEMIR_CABELEIREIRO", "ENDERECO": "RUA_RUI_BARBOSA_195_CENTRO_PRESIDENTE_PRUDENTE", "CIDADE": "PRESIDENTE_PRUDENTE", "LATITUDE": -22.1255137, "LONGITUDE": -51.3862697 }, "geometry": { "type": "Point", "coordinates": [ -51.3862697, -22.1255137 ] } },
{ "type": "Feature", "properties": { "CNPJ": 51428049000180, "AGENTE": "GABRIEL_ALBINO", "ACAO": "REALIZAR_SEGUNDA_VISITA", "RAZAO_SOCIAL": "51.428.049_FERNANDA_FERREIRA_DE_ANDRADE_-_ENVOLVENTE_MODA_INTIMA", "ENDERECO": "RUA_RUI_BARBOSA_211_CENTRO_PRESIDENTE_PRUDENTE", "CIDADE": "PRESIDENTE_PRUDENTE", "LATITUDE": -22.1254853, "LONGITUDE": -51.3862857 }, "geometry": { "type": "Point", "coordinates": [ -51.3862857, -22.1254853 ] } },
{ "type": "Feature", "properties": { "CNPJ": 3739963000108, "AGENTE": "GABRIEL_ALBINO", "ACAO": "REALIZAR_SEGUNDA_VISITA", "RAZAO_SOCIAL": "ROCHA_PELLOSI_LIVRARIA_LTDA_-_A_CATOLICA", "ENDERECO": "RUA_RUI_BARBOSA_212_CENTRO_PRESIDENTE_PRUDENTE", "CIDADE": "PRESIDENTE_PRUDENTE", "LATITUDE": -22.1253728, "LONGITUDE": -51.3863919 }, "geometry": { "type": "Point", "coordinates": [ -51.3863919, -22.1253728 ] } },
{ "type": "Feature", "properties": { "CNPJ": 28594503000151, "AGENTE": "GABRIEL_ALBINO", "ACAO": "REALIZAR_SEGUNDA_VISITA", "RAZAO_SOCIAL": "FRANKLIN_VIEIRA_DOS_SANTOS_-_ELOAH_CRED", "ENDERECO": "RUA_RUI_BARBOSA_267_CENTRO_PRESIDENTE_PRUDENTE", "CIDADE": "PRESIDENTE_PRUDENTE", "LATITUDE": -22.1252702, "LONGITUDE": -51.3871305 }, "geometry": { "type": "Point", "coordinates": [ -51.3871305, -22.1252702 ] } },
{ "type": "Feature", "properties": { "CNPJ": 56706199000122, "AGENTE": "GABRIEL_ALBINO", "ACAO": "REALIZAR_SEGUNDA_VISITA", "RAZAO_SOCIAL": "PELAGIO_COLCHOES_LTDA_-_LIDER_COLCHOES", "ENDERECO": "RUA_RUI_BARBOSA_276_CENTRO_PRESIDENTE_PRUDENTE", "CIDADE": "PRESIDENTE_PRUDENTE", "LATITUDE": -22.1252223, "LONGITUDE": -51.386684 }, "geometry": { "type": "Point", "coordinates": [ -51.386684, -22.1252223 ] } },
{ "type": "Feature", "properties": { "CNPJ": 44229515000133, "AGENTE": "GABRIEL_ALBINO", "ACAO": "REALIZAR_SEGUNDA_VISITA", "RAZAO_SOCIAL": "KAREN_TIEROLLYN_SANCHES_JACINTO_43776273844_-_PARADA_DO_CROPPED", "ENDERECO": "RUA_RUI_BARBOSA_279_CENTRO_PRESIDENTE_PRUDENTE", "CIDADE": "PRESIDENTE_PRUDENTE", "LATITUDE": -22.1252568, "LONGITUDE": -51.3869963 }, "geometry": { "type": "Point", "coordinates": [ -51.3869963, -22.1252568 ] } },
{ "type": "Feature", "properties": { "CNPJ": 53878915000160, "AGENTE": "GABRIEL_ALBINO", "ACAO": "REALIZAR_SEGUNDA_VISITA", "RAZAO_SOCIAL": "NANES_MODA_FEMININA_FITNESS_LTDA_-_NANES", "ENDERECO": "RUA_RUI_BARBOSA_280_CENTRO_PRESIDENTE_PRUDENTE", "CIDADE": "PRESIDENTE_PRUDENTE", "LATITUDE": -22.125243, "LONGITUDE": -51.3868241 }, "geometry": { "type": "Point", "coordinates": [ -51.3868241, -22.125243 ] } },
{ "type": "Feature", "properties": { "CNPJ": 15805838000120, "AGENTE": "GABRIEL_ALBINO", "ACAO": "REALIZAR_SEGUNDA_VISITA", "RAZAO_SOCIAL": "CENTRAL_COPIAS_LTDA_-_CENTRAL_COPIAS", "ENDERECO": "RUA_RUI_BARBOSA_293_CENTRO_PRESIDENTE_PRUDENTE", "CIDADE": "PRESIDENTE_PRUDENTE", "LATITUDE": -22.125177, "LONGITUDE": -51.3870707 }, "geometry": { "type": "Point", "coordinates": [ -51.3870707, -22.125177 ] } },
{ "type": "Feature", "properties": { "CNPJ": 11063334000120, "AGENTE": "GABRIEL_ALBINO", "ACAO": "REALIZAR_SEGUNDA_VISITA", "RAZAO_SOCIAL": "ROSILENE_A._DE_AZEVEDO_MENDES_ALVES_-_LEVE_MODAS", "ENDERECO": "RUA_RUI_BARBOSA_306_CENTRO_PRESIDENTE_PRUDENTE", "CIDADE": "PRESIDENTE_PRUDENTE", "LATITUDE": -22.1251174, "LONGITUDE": -51.3871067 }, "geometry": { "type": "Point", "coordinates": [ -51.3871067, -22.1251174 ] } },
{ "type": "Feature", "properties": { "CNPJ": 34274940000190, "AGENTE": "GABRIEL_ALBINO", "ACAO": "REALIZAR_SEGUNDA_VISITA", "RAZAO_SOCIAL": "LETICIA_ZENGO_TETILA_DOS_SANTOS_35877945882_-_LOVE_MAKE", "ENDERECO": "RUA_RUI_BARBOSA_312_CENTRO_PRESIDENTE_PRUDENTE", "CIDADE": "PRESIDENTE_PRUDENTE", "LATITUDE": -22.1250327, "LONGITUDE": -51.3872898 }, "geometry": { "type": "Point", "coordinates": [ -51.3872898, -22.1250327 ] } },
{ "type": "Feature", "properties": { "CNPJ": 52557293000106, "AGENTE": "GABRIEL_ALBINO", "ACAO": "REALIZAR_SEGUNDA_VISITA", "RAZAO_SOCIAL": "PRUDENTE_COMERCIO_DE_ROUPAS_LTDA_-_OUTLET_PRUDENTE", "ENDERECO": "RUA_RUI_BARBOSA_340_CENTRO_PRESIDENTE_PRUDENTE", "CIDADE": "PRESIDENTE_PRUDENTE", "LATITUDE": -22.1248565, "LONGITUDE": -51.387496 }, "geometry": { "type": "Point", "coordinates": [ -51.387496, -22.1248565 ] } },
{ "type": "Feature", "properties": { "CNPJ": 25118024000251, "AGENTE": "GABRIEL_ALBINO", "ACAO": "REALIZAR_SEGUNDA_VISITA", "RAZAO_SOCIAL": "MENDES_E_MERINO_LTDA_-_PRIME", "ENDERECO": "RUA_RUI_BARBOSA_354_CENTRO_PRESIDENTE_PRUDENTE", "CIDADE": "PRESIDENTE_PRUDENTE", "LATITUDE": -22.1247785, "LONGITUDE": -51.3875699 }, "geometry": { "type": "Point", "coordinates": [ -51.3875699, -22.1247785 ] } },
{ "type": "Feature", "properties": { "CNPJ": 18952526000137, "AGENTE": "GABRIEL_ALBINO", "ACAO": "REALIZAR_SEGUNDA_VISITA", "RAZAO_SOCIAL": "AGENCIA_DE_VIAGENS_PROMOTUR_LTDA_-_PROMOTUR", "ENDERECO": "RUA_RUI_BARBOSA_354_CENTRO_PRESIDENTE_PRUDENTE", "CIDADE": "PRESIDENTE_PRUDENTE", "LATITUDE": -22.1248147, "LONGITUDE": -51.3877066 }, "geometry": { "type": "Point", "coordinates": [ -51.3877066, -22.1248147 ] } },
{ "type": "Feature", "properties": { "CNPJ": 55312874000176, "AGENTE": "GABRIEL_ALBINO", "ACAO": "REALIZAR_SEGUNDA_VISITA", "RAZAO_SOCIAL": "55.312.874_MURILO_PACHECO_-_LA_BARBA", "ENDERECO": "RUA_RUI_BARBOSA_358_CENTRO_PRESIDENTE_PRUDENTE", "CIDADE": "PRESIDENTE_PRUDENTE", "LATITUDE": -22.124682, "LONGITUDE": -51.3876443 }, "geometry": { "type": "Point", "coordinates": [ -51.3876443, -22.124682 ] } },
{ "type": "Feature", "properties": { "CNPJ": 32817789000164, "AGENTE": "GABRIEL_ALBINO", "ACAO": "REALIZAR_SEGUNDA_VISITA", "RAZAO_SOCIAL": "32.817.789_VICTOR_HUGO_ALMEIDA_SANTOS_-_LA_BARBA", "ENDERECO": "RUA_RUI_BARBOSA_358_CENTRO_PRESIDENTE_PRUDENTE", "CIDADE": "PRESIDENTE_PRUDENTE", "LATITUDE": -22.124789, "LONGITUDE": -51.3877619 }, "geometry": { "type": "Point", "coordinates": [ -51.3877619, -22.124789 ] } },
{ "type": "Feature", "properties": { "CNPJ": 47196891000167, "AGENTE": "GABRIEL_ALBINO", "ACAO": "REALIZAR_SEGUNDA_VISITA", "RAZAO_SOCIAL": "VICTOR_HUGO_FERRAZ_PONTES_ROUPAS_-_DIVINO_LOOK", "ENDERECO": "RUA_RUI_BARBOSA_362_CENTRO_PRESIDENTE_PRUDENTE", "CIDADE": "PRESIDENTE_PRUDENTE", "LATITUDE": -22.1246616, "LONGITUDE": -51.3876907 }, "geometry": { "type": "Point", "coordinates": [ -51.3876907, -22.1246616 ] } },
{ "type": "Feature", "properties": { "CNPJ": 60161330000190, "AGENTE": "GABRIEL_ALBINO", "ACAO": "REALIZAR_SEGUNDA_VISITA", "RAZAO_SOCIAL": "60.161.330_ANA_CAROLINA_MOLERO_FLORES_-_STUDIO_HAIR_CAROL", "ENDERECO": "RUA_RUI_BARBOSA_368_CENTRO_PRESIDENTE_PRUDENTE", "CIDADE": "PRESIDENTE_PRUDENTE", "LATITUDE": -22.1247278, "LONGITUDE": -51.3877737 }, "geometry": { "type": "Point", "coordinates": [ -51.3877737, -22.1247278 ] } },
{ "type": "Feature", "properties": { "CNPJ": 49468140000188, "AGENTE": "GABRIEL_ALBINO", "ACAO": "REALIZAR_SEGUNDA_VISITA", "RAZAO_SOCIAL": "49.468.140_MARIA_HELENA_PIRES_TRUCILLO_-_LENINHA_CALCADOS", "ENDERECO": "RUA_RUI_BARBOSA_368_CENTRO_PRESIDENTE_PRUDENTE", "CIDADE": "PRESIDENTE_PRUDENTE", "LATITUDE": -22.1247425, "LONGITUDE": -51.387826 }, "geometry": { "type": "Point", "coordinates": [ -51.387826, -22.1247425 ] } },
{ "type": "Feature", "properties": { "CNPJ": 73055741000143, "AGENTE": "GABRIEL_ALBINO", "ACAO": "REALIZAR_SEGUNDA_VISITA", "RAZAO_SOCIAL": "SONOCENTER_COMERCIO_DE_MOVEIS_E_COLCHOES_LTDA._-_SONOCENTER", "ENDERECO": "RUA_RUI_BARBOSA_39_CENTRO_PRESIDENTE_PRUDENTE", "CIDADE": "PRESIDENTE_PRUDENTE", "LATITUDE": -22.1262335, "LONGITUDE": -51.3849101 }, "geometry": { "type": "Point", "coordinates": [ -51.3849101, -22.1262335 ] } },
{ "type": "Feature", "properties": { "CNPJ": 17413643000160, "AGENTE": "GABRIEL_ALBINO", "ACAO": "REALIZAR_SEGUNDA_VISITA", "RAZAO_SOCIAL": "CASA_TRICOT_LTDA_-_CASA_DO_TRICOT", "ENDERECO": "RUA_RUI_BARBOSA_390_CENTRO_PRESIDENTE_PRUDENTE", "CIDADE": "PRESIDENTE_PRUDENTE", "LATITUDE": -22.1246206, "LONGITUDE": -51.3878576 }, "geometry": { "type": "Point", "coordinates": [ -51.3878576, -22.1246206 ] } },
{ "type": "Feature", "properties": { "CNPJ": 65871808000190, "AGENTE": "GABRIEL_ALBINO", "ACAO": "REALIZAR_SEGUNDA_VISITA", "RAZAO_SOCIAL": "COMERCIO_DE_MALHAS_L.D_LTDA_-_MALHAS_SO_KILO", "ENDERECO": "RUA_RUI_BARBOSA_400_CENTRO_PRESIDENTE_PRUDENTE", "CIDADE": "PRESIDENTE_PRUDENTE", "LATITUDE": -22.1246077, "LONGITUDE": -51.3879213 }, "geometry": { "type": "Point", "coordinates": [ -51.3879213, -22.1246077 ] } },
{ "type": "Feature", "properties": { "CNPJ": 57619604000138, "AGENTE": "GABRIEL_ALBINO", "ACAO": "REALIZAR_SEGUNDA_VISITA", "RAZAO_SOCIAL": "57.619.604_ISABELLE_NEVES_DE_OLIVEIRA_-_CLOSET_NEVES", "ENDERECO": "RUA_RUI_BARBOSA_406_CENTRO_PRESIDENTE_PRUDENTE", "CIDADE": "PRESIDENTE_PRUDENTE", "LATITUDE": -22.1246297, "LONGITUDE": -51.3879567 }, "geometry": { "type": "Point", "coordinates": [ -51.3879567, -22.1246297 ] } },
{ "type": "Feature", "properties": { "CNPJ": 29088020000148, "AGENTE": "GABRIEL_ALBINO", "ACAO": "REALIZAR_SEGUNDA_VISITA", "RAZAO_SOCIAL": "AURELIO_RANEL_DAS_NEVES_-_LA_BIJU", "ENDERECO": "RUA_RUI_BARBOSA_407_CENTRO_PRESIDENTE_PRUDENTE", "CIDADE": "PRESIDENTE_PRUDENTE", "LATITUDE": -22.1247158, "LONGITUDE": -51.387819 }, "geometry": { "type": "Point", "coordinates": [ -51.387819, -22.1247158 ] } },
{ "type": "Feature", "properties": { "CNPJ": 4251660000104, "AGENTE": "GABRIEL_ALBINO", "ACAO": "REALIZAR_SEGUNDA_VISITA", "RAZAO_SOCIAL": "CLAUDIA_HITOMI_TOKASHIKI_SIMAKAWA_-_BABY_MANIA", "ENDERECO": "RUA_RUI_BARBOSA_423_CENTRO_PRESIDENTE_PRUDENTE", "CIDADE": "PRESIDENTE_PRUDENTE", "LATITUDE": -22.124632, "LONGITUDE": -51.3884081 }, "geometry": { "type": "Point", "coordinates": [ -51.3884081, -22.124632 ] } },
{ "type": "Feature", "properties": { "CNPJ": 10852646000150, "AGENTE": "GABRIEL_ALBINO", "ACAO": "REALIZAR_SEGUNDA_VISITA", "RAZAO_SOCIAL": "CARIMBOS_CARLOS_LTDA_-_CARLOS_CARIMBOS", "ENDERECO": "RUA_RUI_BARBOSA_445_CENTRO_PRESIDENTE_PRUDENTE", "CIDADE": "PRESIDENTE_PRUDENTE", "LATITUDE": -22.1245521, "LONGITUDE": -51.3884005 }, "geometry": { "type": "Point", "coordinates": [ -51.3884005, -22.1245521 ] } },
{ "type": "Feature", "properties": { "CNPJ": 53389037000110, "AGENTE": "GABRIEL_ALBINO", "ACAO": "REALIZAR_SEGUNDA_VISITA", "RAZAO_SOCIAL": "FARMACIA_FLORA_MEDICA_LTDA_-_FLORA_MEDICA", "ENDERECO": "RUA_RUI_BARBOSA_449_CENTRO_PRESIDENTE_PRUDENTE", "CIDADE": "PRESIDENTE_PRUDENTE", "LATITUDE": -22.1245471, "LONGITUDE": -51.3884173 }, "geometry": { "type": "Point", "coordinates": [ -51.3884173, -22.1245471 ] } },
{ "type": "Feature", "properties": { "CNPJ": 53731474000170, "AGENTE": "GABRIEL_ALBINO", "ACAO": "REALIZAR_SEGUNDA_VISITA", "RAZAO_SOCIAL": "CS_UNIFORMES_E_ARMARINHO_LTDA_-_PAULINHA_UNIFORMES", "ENDERECO": "RUA_RUI_BARBOSA_455_CENTRO_PRESIDENTE_PRUDENTE", "CIDADE": "PRESIDENTE_PRUDENTE", "LATITUDE": -22.1245113, "LONGITUDE": -51.388434 }, "geometry": { "type": "Point", "coordinates": [ -51.388434, -22.1245113 ] } },
{ "type": "Feature", "properties": { "CNPJ": 48640300000161, "AGENTE": "GABRIEL_ALBINO", "ACAO": "REALIZAR_SEGUNDA_VISITA", "RAZAO_SOCIAL": "JOAO_PAULO_SANTIAGO_NERES_34347960883_-_ODOYA_IEMANJA", "ENDERECO": "RUA_RUI_BARBOSA_464_CENTRO_PRESIDENTE_PRUDENTE", "CIDADE": "PRESIDENTE_PRUDENTE", "LATITUDE": -22.1243353, "LONGITUDE": -51.3884864 }, "geometry": { "type": "Point", "coordinates": [ -51.3884864, -22.1243353 ] } },
{ "type": "Feature", "properties": { "CNPJ": 3401291000118, "AGENTE": "GABRIEL_ALBINO", "ACAO": "REALIZAR_SEGUNDA_VISITA", "RAZAO_SOCIAL": "MILTON_SERAFIM_09759628848_-_OTICA_BELA_VISTA", "ENDERECO": "RUA_RUI_BARBOSA_475_CENTRO_PRESIDENTE_PRUDENTE", "CIDADE": "PRESIDENTE_PRUDENTE", "LATITUDE": -22.124407, "LONGITUDE": -51.3886671 }, "geometry": { "type": "Point", "coordinates": [ -51.3886671, -22.124407 ] } },
{ "type": "Feature", "properties": { "CNPJ": 37712242000118, "AGENTE": "GABRIEL_ALBINO", "ACAO": "REALIZAR_SEGUNDA_VISITA", "RAZAO_SOCIAL": "37.712.242_ANDRESSA_SANCHES_DE_SOUZA_-_ASNAILS", "ENDERECO": "RUA_RUI_BARBOSA_475_CENTRO_PRESIDENTE_PRUDENTE", "CIDADE": "PRESIDENTE_PRUDENTE", "LATITUDE": -22.1244323, "LONGITUDE": -51.3886987 }, "geometry": { "type": "Point", "coordinates": [ -51.3886987, -22.1244323 ] } },
{ "type": "Feature", "properties": { "CNPJ": 50741050000106, "AGENTE": "GABRIEL_ALBINO", "ACAO": "REALIZAR_SEGUNDA_VISITA", "RAZAO_SOCIAL": "BARUKA_PRODUTOS_NATURAIS_LTDA_-_BARUKA", "ENDERECO": "RUA_RUI_BARBOSA_480_CENTRO_PRESIDENTE_PRUDENTE", "CIDADE": "PRESIDENTE_PRUDENTE", "LATITUDE": -22.1243002, "LONGITUDE": -51.3885937 }, "geometry": { "type": "Point", "coordinates": [ -51.3885937, -22.1243002 ] } },
{ "type": "Feature", "properties": { "CNPJ": 59065543000130, "AGENTE": "GABRIEL_ALBINO", "ACAO": "REALIZAR_SEGUNDA_VISITA", "RAZAO_SOCIAL": "59.065.543_FERNANDA_DE_OLIVEIRA_QUINTILIANO_-_FERNANDA_CILIOS", "ENDERECO": "RUA_RUI_BARBOSA_501_CENTRO_PRESIDENTE_PRUDENTE", "CIDADE": "PRESIDENTE_PRUDENTE", "LATITUDE": -22.1243526, "LONGITUDE": -51.3890171 }, "geometry": { "type": "Point", "coordinates": [ -51.3890171, -22.1243526 ] } },
{ "type": "Feature", "properties": { "CNPJ": 31636388000145, "AGENTE": "GABRIEL_ALBINO", "ACAO": "REALIZAR_SEGUNDA_VISITA", "RAZAO_SOCIAL": "31.636.388_ALEXSANDRA_APARECIDA_NUNES_MARUITI_-_FRANQUIA_DOS_CABELOS", "ENDERECO": "RUA_RUI_BARBOSA_501_CENTRO_PRESIDENTE_PRUDENTE", "CIDADE": "PRESIDENTE_PRUDENTE", "LATITUDE": -22.124379, "LONGITUDE": -51.3889101 }, "geometry": { "type": "Point", "coordinates": [ -51.3889101, -22.124379 ] } },
{ "type": "Feature", "properties": { "CNPJ": 15180155000124, "AGENTE": "GABRIEL_ALBINO", "ACAO": "REALIZAR_SEGUNDA_VISITA", "RAZAO_SOCIAL": "LOVANE_TEREZINHA_TARELLI_DA_SILVA_47392533134_-_NANE_STUDIO", "ENDERECO": "RUA_RUI_BARBOSA_562_CENTRO_PRESIDENTE_PRUDENTE", "CIDADE": "PRESIDENTE_PRUDENTE", "LATITUDE": -22.1240188, "LONGITUDE": -51.3894152 }, "geometry": { "type": "Point", "coordinates": [ -51.3894152, -22.1240188 ] } },
{ "type": "Feature", "properties": { "CNPJ": 11699075000129, "AGENTE": "GABRIEL_ALBINO", "ACAO": "REALIZAR_SEGUNDA_VISITA", "RAZAO_SOCIAL": "S_C_QUEIROZ_TAYLOR_-_JHENIFER_CASA_DAS_PERUCAS", "ENDERECO": "RUA_RUI_BARBOSA_578_CENTRO_PRESIDENTE_PRUDENTE", "CIDADE": "PRESIDENTE_PRUDENTE", "LATITUDE": -22.1238965, "LONGITUDE": -51.3895054 }, "geometry": { "type": "Point", "coordinates": [ -51.3895054, -22.1238965 ] } },
{ "type": "Feature", "properties": { "CNPJ": 23059970000168, "AGENTE": "GABRIEL_ALBINO", "ACAO": "REALIZAR_SEGUNDA_VISITA", "RAZAO_SOCIAL": "NOCA_IMOVEIS_LTDA_-_NOCAO_IMOVEIS", "ENDERECO": "RUA_RUI_BARBOSA_579_CENTRO_PRESIDENTE_PRUDENTE", "CIDADE": "PRESIDENTE_PRUDENTE", "LATITUDE": -22.1240687, "LONGITUDE": -51.3895584 }, "geometry": { "type": "Point", "coordinates": [ -51.3895584, -22.1240687 ] } },
{ "type": "Feature", "properties": { "CNPJ": 21280480000161, "AGENTE": "GABRIEL_ALBINO", "ACAO": "REALIZAR_SEGUNDA_VISITA", "RAZAO_SOCIAL": "21.280.480_TEREZA_APARECIDA_DA_SILVA_-_TENDA_DECORACAO", "ENDERECO": "RUA_RUI_BARBOSA_588_CENTRO_PRESIDENTE_PRUDENTE", "CIDADE": "PRESIDENTE_PRUDENTE", "LATITUDE": -22.1239016, "LONGITUDE": -51.3896598 }, "geometry": { "type": "Point", "coordinates": [ -51.3896598, -22.1239016 ] } },
{ "type": "Feature", "properties": { "CNPJ": 10144085000135, "AGENTE": "GABRIEL_ALBINO", "ACAO": "REALIZAR_SEGUNDA_VISITA", "RAZAO_SOCIAL": "M._A._BARBOSA_ESPORTIVO_-_TOTAL_SPORTS", "ENDERECO": "RUA_RUI_BARBOSA_61_CENTRO_PRESIDENTE_PRUDENTE", "CIDADE": "PRESIDENTE_PRUDENTE", "LATITUDE": -22.1260651, "LONGITUDE": -51.3850786 }, "geometry": { "type": "Point", "coordinates": [ -51.3850786, -22.1260651 ] } },
{ "type": "Feature", "properties": { "CNPJ": 53559611000130, "AGENTE": "GABRIEL_ALBINO", "ACAO": "REALIZAR_SEGUNDA_VISITA", "RAZAO_SOCIAL": "53.559.611_PEDRO_HENRIQUE_NEVES_CORRAL_FERNANDES_-_GATA_DE_LUXO", "ENDERECO": "RUA_RUI_BARBOSA_61_CENTRO_PRESIDENTE_PRUDENTE", "CIDADE": "PRESIDENTE_PRUDENTE", "LATITUDE": -22.1260728, "LONGITUDE": -51.3850804 }, "geometry": { "type": "Point", "coordinates": [ -51.3850804, -22.1260728 ] } },
{ "type": "Feature", "properties": { "CNPJ": 4682657000137, "AGENTE": "GABRIEL_ALBINO", "ACAO": "REALIZAR_SEGUNDA_VISITA", "RAZAO_SOCIAL": "OLIVEIRA_&_NASCIMENTO_S/C_LTDA_-_ELEGANCIA_A_RIGOR", "ENDERECO": "RUA_RUI_BARBOSA_66_CENTRO_PRESIDENTE_PRUDENTE", "CIDADE": "PRESIDENTE_PRUDENTE", "LATITUDE": -22.1260387, "LONGITUDE": -51.3850828 }, "geometry": { "type": "Point", "coordinates": [ -51.3850828, -22.1260387 ] } },
{ "type": "Feature", "properties": { "CNPJ": 25158595000139, "AGENTE": "GABRIEL_ALBINO", "ACAO": "REALIZAR_SEGUNDA_VISITA", "RAZAO_SOCIAL": "MILENE_ROSE_MARTELI_SILVA_27069032870_-_ORTICA___MARTELI", "ENDERECO": "RUA_RUI_BARBOSA_92_CENTRO_PRESIDENTE_PRUDENTE", "CIDADE": "PRESIDENTE_PRUDENTE", "LATITUDE": -22.1259361, "LONGITUDE": -51.3853259 }, "geometry": { "type": "Point", "coordinates": [ -51.3853259, -22.1259361 ] } },
{ "type": "Feature", "properties": { "CNPJ": 20140650000140, "AGENTE": "GABRIEL_ALBINO", "ACAO": "REALIZAR_SEGUNDA_VISITA", "RAZAO_SOCIAL": "R_F_CONTABILIDADE_LTDA_-_RF_CONTABILIDADE", "ENDERECO": "RUA_SETE_DE_SETEMBRO_1400_VILA_DO_ESTADIO_PRESIDENTE_PRUDENTE", "CIDADE": "PRESIDENTE_PRUDENTE", "LATITUDE": -22.1177622, "LONGITUDE": -51.3925576 }, "geometry": { "type": "Point", "coordinates": [ -51.3925576, -22.1177622 ] } },
{ "type": "Feature", "properties": { "CNPJ": 46879733000149, "AGENTE": "GABRIEL_ALBINO", "ACAO": "REALIZAR_SEGUNDA_VISITA", "RAZAO_SOCIAL": "INOVAVET_CLINICA_VETERINARIA_LTDA_-_INOVAVET", "ENDERECO": "RUA_SETE_DE_SETEMBRO_1731_VILA_DO_ESTADIO_PRESIDENTE_PRUDENTE", "CIDADE": "PRESIDENTE_PRUDENTE", "LATITUDE": -22.1205607, "LONGITUDE": -51.3938644 }, "geometry": { "type": "Point", "coordinates": [ -51.3938644, -22.1205607 ] } },
{ "type": "Feature", "properties": { "CNPJ": 8830137000185, "AGENTE": "GABRIEL_ALBINO", "ACAO": "REALIZAR_SEGUNDA_VISITA", "RAZAO_SOCIAL": "08.830.137_CLAUDIO_MITSUYOSHI_KAWAGUCHI_-_DROGAN_LAN_HOUSE", "ENDERECO": "RUA_SIQUEIRA_CAMPOS_780_CENTRO_PRESIDENTE_PRUDENTE", "CIDADE": "PRESIDENTE_PRUDENTE", "LATITUDE": -22.1252724, "LONGITUDE": -51.3873881 }, "geometry": { "type": "Point", "coordinates": [ -51.3873881, -22.1252724 ] } },
{ "type": "Feature", "properties": { "CNPJ": 7572020000186, "AGENTE": "GABRIEL_ALBINO", "ACAO": "REALIZAR_SEGUNDA_VISITA", "RAZAO_SOCIAL": "ALESSANDRA_DE_A._TATEISI_-_JERUSALEM", "ENDERECO": "RUA_SIQUEIRA_CAMPOS_843_CENTRO_PRESIDENTE_PRUDENTE", "CIDADE": "PRESIDENTE_PRUDENTE", "LATITUDE": -22.1257084, "LONGITUDE": -51.3877191 }, "geometry": { "type": "Point", "coordinates": [ -51.3877191, -22.1257084 ] } },
{ "type": "Feature", "properties": { "CNPJ": 21734963000199, "AGENTE": "GABRIEL_ALBINO", "ACAO": "REALIZAR_SEGUNDA_VISITA", "RAZAO_SOCIAL": "21.734.963_JACQUELINE_FRANCO_MODAELLI_MANEA_-_SABOR_DA_CASA", "ENDERECO": "RUA_TULIO_CECHETTI_961_VILA_FORMOSA_PRESIDENTE_PRUDENTE", "CIDADE": "PRESIDENTE_PRUDENTE", "LATITUDE": -22.1437587, "LONGITUDE": -51.3971303 }, "geometry": { "type": "Point", "coordinates": [ -51.3971303, -22.1437587 ] } },
{ "type": "Feature", "properties": { "CNPJ": 59640517000198, "AGENTE": "GABRIEL_ALBINO", "ACAO": "REALIZAR_SEGUNDA_VISITA", "RAZAO_SOCIAL": "59.640.517_LEANDRO_RIBEIRO_MANEA_-_WESTBLEND", "ENDERECO": "RUA_TULIO_CECHETTI_961_VILA_FORMOSA_PRESIDENTE_PRUDENTE", "CIDADE": "PRESIDENTE_PRUDENTE", "LATITUDE": -22.1437613, "LONGITUDE": -51.3971362 }, "geometry": { "type": "Point", "coordinates": [ -51.3971362, -22.1437613 ] } },
{ "type": "Feature", "properties": { "CNPJ": 8827505000136, "AGENTE": "GABRIEL_ALBINO", "ACAO": "REALIZAR_PRIMEIRA_VISITA_POTENCIAL", "RAZAO_SOCIAL": "08.827.505_SANDRA_REGINA_SECCO", "ENDERECO": "AVENIDA_WASHINGTON_LUIZ_1387_JARDIM_TONICO_ANDRE_DRACENA_BRASIL", "CIDADE": "DRACENA", "LATITUDE": -21.47103, "LONGITUDE": -51.52406 }, "geometry": { "type": "Point", "coordinates": [ -51.52406, -21.47103 ] } },
{ "type": "Feature", "properties": { "CNPJ": 7744237000126, "AGENTE": "GABRIEL_ALBINO", "ACAO": "REALIZAR_PRIMEIRA_VISITA_POTENCIAL", "RAZAO_SOCIAL": "07.744.237_MARA_LUCIA_TARGINO", "ENDERECO": "AVENIDA_RUI_BARBOSA_428_CENTRO_DRACENA_BRASIL", "CIDADE": "DRACENA", "LATITUDE": -21.4931541, "LONGITUDE": -51.5389042 }, "geometry": { "type": "Point", "coordinates": [ -51.5389042, -21.4931541 ] } },
{ "type": "Feature", "properties": { "CNPJ": 54933708000124, "AGENTE": "GABRIEL_ALBINO", "ACAO": "REALIZAR_PRIMEIRA_VISITA_POTENCIAL", "RAZAO_SOCIAL": "54.933.708_RONILTON_DE_OLIVEIRA_LOPES", "ENDERECO": "RUA_ALBERTO_MAROCHIO_340_JARDIM_GUANABARA_PRESIDENTE_PRUDENTE_BRASIL", "CIDADE": "PRESIDENTE_PRUDENTE", "LATITUDE": -22.1017568, "LONGITUDE": -51.3875806 }, "geometry": { "type": "Point", "coordinates": [ -51.3875806, -22.1017568 ] } },
{ "type": "Feature", "properties": { "CNPJ": 49444586000172, "AGENTE": "GABRIEL_ALBINO", "ACAO": "REALIZAR_PRIMEIRA_VISITA_POTENCIAL", "RAZAO_SOCIAL": "ALEKSANDER_CARDOSO_MIRANDA", "ENDERECO": "RUA_CLAUDEMIR_RODRIGUES_348_JARDIM_MARACANA_PRESIDENTE_PRUDENTE_BRASIL", "CIDADE": "PRESIDENTE_PRUDENTE", "LATITUDE": -22.1019844, "LONGITUDE": -51.4165127 }, "geometry": { "type": "Point", "coordinates": [ -51.4165127, -22.1019844 ] } },
{ "type": "Feature", "properties": { "CNPJ": 44460594000199, "AGENTE": "GABRIEL_ALBINO", "ACAO": "REALIZAR_PRIMEIRA_VISITA_POTENCIAL", "RAZAO_SOCIAL": "FLAVIO_JOSE_DE_AZEVEDO_LTDA.", "ENDERECO": "AVENIDA_PAULO_MARCONDES_835_JARDIM_ELDORADO_PRESIDENTE_PRUDENTE_BRASIL", "CIDADE": "PRESIDENTE_PRUDENTE", "LATITUDE": -22.1023072, "LONGITUDE": -51.410393 }, "geometry": { "type": "Point", "coordinates": [ -51.410393, -22.1023072 ] } },
{ "type": "Feature", "properties": { "CNPJ": 5501757100012, "AGENTE": "GABRIEL_ALBINO", "ACAO": "REALIZAR_PRIMEIRA_VISITA_POTENCIAL", "RAZAO_SOCIAL": "DANIELA_APARECIDA_DOS_SANTOS", "ENDERECO": "RUA_ISMAEL_DALEFE_FILHO_117_PARQUE_SAO_JUDAS_TADEU_PRESIDENTE_PRUDENTE_BRASIL", "CIDADE": "PRESIDENTE_PRUDENTE", "LATITUDE": -22.1025734, "LONGITUDE": -51.39467 }, "geometry": { "type": "Point", "coordinates": [ -51.39467, -22.1025734 ] } },
{ "type": "Feature", "properties": { "CNPJ": 42874343000125, "AGENTE": "GABRIEL_ALBINO", "ACAO": "REALIZAR_PRIMEIRA_VISITA_POTENCIAL", "RAZAO_SOCIAL": "MAYARA_MACHADO_LINGERIE_LTDA", "ENDERECO": "RUA_ANGELO_CUISSI_285_PARQUE_SAO_MATHEUS_PRESIDENTE_PRUDENTE_BRASIL", "CIDADE": "PRESIDENTE_PRUDENTE", "LATITUDE": -22.1027677, "LONGITUDE": -51.3991592 }, "geometry": { "type": "Point", "coordinates": [ -51.3991592, -22.1027677 ] } },
{ "type": "Feature", "properties": { "CNPJ": 4959567300012, "AGENTE": "GABRIEL_ALBINO", "ACAO": "REALIZAR_PRIMEIRA_VISITA_POTENCIAL", "RAZAO_SOCIAL": "ALEXANDRO_MATIAS_DOS_SANTOS", "ENDERECO": "RUA_BAPTISTA_REGOLIN_16_JARDIM_SANTA_OLGA_PRESIDENTE_PRUDENTE_BRASIL", "CIDADE": "PRESIDENTE_PRUDENTE", "LATITUDE": -22.1028358, "LONGITUDE": -51.4057294 }, "geometry": { "type": "Point", "coordinates": [ -51.4057294, -22.1028358 ] } },
{ "type": "Feature", "properties": { "CNPJ": 36839969000106, "AGENTE": "GABRIEL_ALBINO", "ACAO": "REALIZAR_PRIMEIRA_VISITA_POTENCIAL", "RAZAO_SOCIAL": "DARIO_RAFAEL_FERNANDES", "ENDERECO": "RUA_GUARUJA_189_JARDIM_ESTORIL_PRESIDENTE_PRUDENTE_BRASIL", "CIDADE": "PRESIDENTE_PRUDENTE", "LATITUDE": -22.1029521, "LONGITUDE": -51.3927325 }, "geometry": { "type": "Point", "coordinates": [ -51.3927325, -22.1029521 ] } },
{ "type": "Feature", "properties": { "CNPJ": 57984985000154, "AGENTE": "GABRIEL_ALBINO", "ACAO": "REALIZAR_PRIMEIRA_VISITA_POTENCIAL", "RAZAO_SOCIAL": "57.984.985_GUILHERME_LACERDA_DOS_SANTOS", "ENDERECO": "RUA_AMELIO_DOMINGOS_MUNGO_772_JARDIM_MARACANA_PRESIDENTE_PRUDENTE_BRASIL", "CIDADE": "PRESIDENTE_PRUDENTE", "LATITUDE": -22.1029979, "LONGITUDE": -51.4111738 }, "geometry": { "type": "Point", "coordinates": [ -51.4111738, -22.1029979 ] } },
{ "type": "Feature", "properties": { "CNPJ": 48648731000174, "AGENTE": "GABRIEL_ALBINO", "ACAO": "REALIZAR_PRIMEIRA_VISITA_POTENCIAL", "RAZAO_SOCIAL": "LUCIANA_AGOSTINHO_POSSEBON", "ENDERECO": "RUA_AMELIO_DOMINGOS_MUNGO_772_JARDIM_MARACANA_PRESIDENTE_PRUDENTE_BRASIL", "CIDADE": "PRESIDENTE_PRUDENTE", "LATITUDE": -22.1029979, "LONGITUDE": -51.4111738 }, "geometry": { "type": "Point", "coordinates": [ -51.4111738, -22.1029979 ] } },
{ "type": "Feature", "properties": { "CNPJ": 41819603000105, "AGENTE": "GABRIEL_ALBINO", "ACAO": "REALIZAR_PRIMEIRA_VISITA_POTENCIAL", "RAZAO_SOCIAL": "JAILINE_GASPARI_DA_SILVA", "ENDERECO": "RUA_JAIR_CORREIA_DE_SOUZA_157_CONJUNTO_SITIO_SAO_PEDRO_PRESIDENTE_PRUDENTE_BRASIL", "CIDADE": "PRESIDENTE_PRUDENTE", "LATITUDE": -22.1030339, "LONGITUDE": -51.4076907 }, "geometry": { "type": "Point", "coordinates": [ -51.4076907, -22.1030339 ] } },
{ "type": "Feature", "properties": { "CNPJ": 38482694000113, "AGENTE": "GABRIEL_ALBINO", "ACAO": "REALIZAR_PRIMEIRA_VISITA_POTENCIAL", "RAZAO_SOCIAL": "MARIA_DE_LOURDES_APARECIDA_SILVA", "ENDERECO": "RUA_FRANCISCO_TREVIA_-_DE_452/453_AO_FIM_477_JARDIM_ESTORIL_PRESIDENTE_PRUDENTE_BRASIL", "CIDADE": "PRESIDENTE_PRUDENTE", "LATITUDE": -22.1032953, "LONGITUDE": -51.39214 }, "geometry": { "type": "Point", "coordinates": [ -51.39214, -22.1032953 ] } },
{ "type": "Feature", "properties": { "CNPJ": 26323388000155, "AGENTE": "GABRIEL_ALBINO", "ACAO": "REALIZAR_PRIMEIRA_VISITA_POTENCIAL", "RAZAO_SOCIAL": "MARIO_GAIOTT_TAMAOKI", "ENDERECO": "RUA_JOSE_TARIFA_CONDE_1195_VILA_SANTA_IZABEL_PRESIDENTE_PRUDENTE_BRASIL", "CIDADE": "PRESIDENTE_PRUDENTE", "LATITUDE": -22.103437, "LONGITUDE": -51.389853 }, "geometry": { "type": "Point", "coordinates": [ -51.389853, -22.103437 ] } },
{ "type": "Feature", "properties": { "CNPJ": 39955227000126, "AGENTE": "GABRIEL_ALBINO", "ACAO": "REALIZAR_PRIMEIRA_VISITA_POTENCIAL", "RAZAO_SOCIAL": "ARGOS_SOLUCOES_EM_ARQUEOLOGIA_LTDA", "ENDERECO": "RUA_CICERO_ELPIDIO_DE_BARROS_1500_VILA_TAZITSU_PRESIDENTE_PRUDENTE_BRASIL", "CIDADE": "PRESIDENTE_PRUDENTE", "LATITUDE": -22.1034995, "LONGITUDE": -51.393895 }, "geometry": { "type": "Point", "coordinates": [ -51.393895, -22.1034995 ] } },
{ "type": "Feature", "properties": { "CNPJ": 1790576200013, "AGENTE": "GABRIEL_ALBINO", "ACAO": "REALIZAR_PRIMEIRA_VISITA_POTENCIAL", "RAZAO_SOCIAL": "JOSE_MANOEL_DOS_SANTOS", "ENDERECO": "RUA_JAIR_CORREIA_DE_SOUZA_58_CONJUNTO_SITIO_SAO_PEDRO_PRESIDENTE_PRUDENTE_BRASIL", "CIDADE": "PRESIDENTE_PRUDENTE", "LATITUDE": -22.1037151, "LONGITUDE": -51.408179 }, "geometry": { "type": "Point", "coordinates": [ -51.408179, -22.1037151 ] } },
{ "type": "Feature", "properties": { "CNPJ": 3676609600014, "AGENTE": "GABRIEL_ALBINO", "ACAO": "REALIZAR_PRIMEIRA_VISITA_POTENCIAL", "RAZAO_SOCIAL": "KELLY_ROBERTA_MENEGUESSO_DOS_SANTOS", "ENDERECO": "RUA_FORTUNATO_RIZZO_151_JARDIM_MARACANA_PRESIDENTE_PRUDENTE_BRASIL", "CIDADE": "PRESIDENTE_PRUDENTE", "LATITUDE": -22.1037768, "LONGITUDE": -51.4178924 }, "geometry": { "type": "Point", "coordinates": [ -51.4178924, -22.1037768 ] } },
{ "type": "Feature", "properties": { "CNPJ": 372993000122, "AGENTE": "GABRIEL_ALBINO", "ACAO": "REALIZAR_PRIMEIRA_VISITA_POTENCIAL", "RAZAO_SOCIAL": "LA_FARINE_LTDA", "ENDERECO": "AVENIDA_PAULO_MARCONDES_764_JARDIM_SANTA_CLARA_PRESIDENTE_PRUDENTE_BRASIL", "CIDADE": "PRESIDENTE_PRUDENTE", "LATITUDE": -22.1038725, "LONGITUDE": -51.409884 }, "geometry": { "type": "Point", "coordinates": [ -51.409884, -22.1038725 ] } },
{ "type": "Feature", "properties": { "CNPJ": 7371524000138, "AGENTE": "GABRIEL_ALBINO", "ACAO": "REALIZAR_PRIMEIRA_VISITA_POTENCIAL", "RAZAO_SOCIAL": "ESR_SERVICOS_EM_TREINAMENTO_LTDA", "ENDERECO": "RUA_SETUBAL_76_VILA_LEOPOLDINA_SAO_PAULO_BRASIL", "CIDADE": "SAO_PAULO", "LATITUDE": -22.1038725, "LONGITUDE": -51.409884 }, "geometry": { "type": "Point", "coordinates": [ -51.409884, -22.1038725 ] } },
{ "type": "Feature", "properties": { "CNPJ": 55097858000108, "AGENTE": "GABRIEL_ALBINO", "ACAO": "REALIZAR_PRIMEIRA_VISITA_POTENCIAL", "RAZAO_SOCIAL": "GABRIELE_NOVACOWSKI_ARAUJO", "ENDERECO": "RUA_JOSE_AMERICO_ZANGIROLAMI_21_JARDIM_SANTA_OLGA_PRESIDENTE_PRUDENTE_BRASIL", "CIDADE": "PRESIDENTE_PRUDENTE", "LATITUDE": -22.103918, "LONGITUDE": -51.405679 }, "geometry": { "type": "Point", "coordinates": [ -51.405679, -22.103918 ] } },
{ "type": "Feature", "properties": { "CNPJ": 18985233000156, "AGENTE": "GABRIEL_ALBINO", "ACAO": "REALIZAR_PRIMEIRA_VISITA_POTENCIAL", "RAZAO_SOCIAL": "WILSON_GONCALVES", "ENDERECO": "RUA_VISCONDE_DE_BARBACENA_40_PARQUE_SAO_JUDAS_TADEU_PRESIDENTE_PRUDENTE_BRASIL", "CIDADE": "PRESIDENTE_PRUDENTE", "LATITUDE": -22.1042057, "LONGITUDE": -51.396969 }, "geometry": { "type": "Point", "coordinates": [ -51.396969, -22.1042057 ] } },
{ "type": "Feature", "properties": { "CNPJ": 22429733000189, "AGENTE": "GABRIEL_ALBINO", "ACAO": "REALIZAR_PRIMEIRA_VISITA_POTENCIAL", "RAZAO_SOCIAL": "PH_CAMA_MESA_E_BANHO_LTDA", "ENDERECO": "RUA_BARAO_DE_SERRA_NEGRA_365_PARQUE_SAO_JUDAS_TADEU_PRESIDENTE_PRUDENTE_BRASIL", "CIDADE": "PRESIDENTE_PRUDENTE", "LATITUDE": -22.104313, "LONGITUDE": -51.395573 }, "geometry": { "type": "Point", "coordinates": [ -51.395573, -22.104313 ] } },
{ "type": "Feature", "properties": { "CNPJ": 51675500000164, "AGENTE": "GABRIEL_ALBINO", "ACAO": "REALIZAR_PRIMEIRA_VISITA_POTENCIAL", "RAZAO_SOCIAL": "51.675.500_JESSICA_MAYARA_RODRIGUES_DE_OLIVEIRA", "ENDERECO": "RUA_SEBASTIAO_FRANCISCO_DA_SILVA_40_JARDIM_SAO_FRANCISCO_PRESIDENTE_PRUDENTE_BRASIL", "CIDADE": "PRESIDENTE_PRUDENTE", "LATITUDE": -22.104447, "LONGITUDE": -51.386804 }, "geometry": { "type": "Point", "coordinates": [ -51.386804, -22.104447 ] } },
{ "type": "Feature", "properties": { "CNPJ": 469877680001, "AGENTE": "GABRIEL_ALBINO", "ACAO": "REALIZAR_PRIMEIRA_VISITA_POTENCIAL", "RAZAO_SOCIAL": "MAGALI_LIMEIRA_FIORENTINO", "ENDERECO": "RUA_JOAQUIM_DA_SILVA_NETO_725_CONJUNTO_SITIO_SAO_PEDRO_PRESIDENTE_PRUDENTE_BRASIL", "CIDADE": "PRESIDENTE_PRUDENTE", "LATITUDE": -22.1044518, "LONGITUDE": -51.405438 }, "geometry": { "type": "Point", "coordinates": [ -51.405438, -22.1044518 ] } },
{ "type": "Feature", "properties": { "CNPJ": 24415599000192, "AGENTE": "GABRIEL_ALBINO", "ACAO": "REALIZAR_PRIMEIRA_VISITA_POTENCIAL", "RAZAO_SOCIAL": "GENI_PEREIRA_SILVA_BRITO", "ENDERECO": "RUA_MIQUELINA_DIAS_302_JARDIM_ESTORIL_PRESIDENTE_PRUDENTE_BRASIL", "CIDADE": "PRESIDENTE_PRUDENTE", "LATITUDE": -22.1045045, "LONGITUDE": -51.3934242 }, "geometry": { "type": "Point", "coordinates": [ -51.3934242, -22.1045045 ] } },
{ "type": "Feature", "properties": { "CNPJ": 4323670400017, "AGENTE": "GABRIEL_ALBINO", "ACAO": "REALIZAR_PRIMEIRA_VISITA_POTENCIAL", "RAZAO_SOCIAL": "CARLOS_ALBERTO_REZENDE", "ENDERECO": "RUA_JACINTO_PARDO_314_CONJUNTO_SITIO_SAO_PEDRO_PRESIDENTE_PRUDENTE_BRASIL", "CIDADE": "PRESIDENTE_PRUDENTE", "LATITUDE": -22.104816, "LONGITUDE": -51.4072258 }, "geometry": { "type": "Point", "coordinates": [ -51.4072258, -22.104816 ] } },
{ "type": "Feature", "properties": { "CNPJ": 54860367000104, "AGENTE": "GABRIEL_ALBINO", "ACAO": "REALIZAR_PRIMEIRA_VISITA_POTENCIAL", "RAZAO_SOCIAL": "LEANDRO_DE_SA_DUARTE", "ENDERECO": "RUA_ARISTIDES_PINTO_SOARES_180_PARQUE_BANDEIRANTES_PRESIDENTE_PRUDENTE_BRASIL", "CIDADE": "PRESIDENTE_PRUDENTE", "LATITUDE": -22.1051518, "LONGITUDE": -51.4121555 }, "geometry": { "type": "Point", "coordinates": [ -51.4121555, -22.1051518 ] } },
{ "type": "Feature", "properties": { "CNPJ": 49951877000157, "AGENTE": "GABRIEL_ALBINO", "ACAO": "REALIZAR_PRIMEIRA_VISITA_POTENCIAL", "RAZAO_SOCIAL": "ANAISA_FELIX_MARQUES_CAETANO", "ENDERECO": "RUA_BARAO_DE_SERRA_NEGRA_168_PARQUE_SAO_JUDAS_TADEU_PRESIDENTE_PRUDENTE_BRASIL", "CIDADE": "PRESIDENTE_PRUDENTE", "LATITUDE": -22.1052296, "LONGITUDE": -51.3940618 }, "geometry": { "type": "Point", "coordinates": [ -51.3940618, -22.1052296 ] } },
{ "type": "Feature", "properties": { "CNPJ": 32139004000141, "AGENTE": "GABRIEL_ALBINO", "ACAO": "REALIZAR_PRIMEIRA_VISITA_POTENCIAL", "RAZAO_SOCIAL": "NATURALLE_COMERCIO_DE_PRODUTOS_NATURAIS_LTDA", "ENDERECO": "AVENIDA_PAULO_MARCONDES_594_JARDIM_ELDORADO_PRESIDENTE_PRUDENTE_BRASIL", "CIDADE": "PRESIDENTE_PRUDENTE", "LATITUDE": -22.105353, "LONGITUDE": -51.4101933 }, "geometry": { "type": "Point", "coordinates": [ -51.4101933, -22.105353 ] } },
{ "type": "Feature", "properties": { "CNPJ": 27023244000146, "AGENTE": "GABRIEL_ALBINO", "ACAO": "REALIZAR_PRIMEIRA_VISITA_POTENCIAL", "RAZAO_SOCIAL": "GUILHERME_MARTINS_DE_SOUZA", "ENDERECO": "RUA_ARISTIDES_PINTO_SOARES_113_PARQUE_BANDEIRANTES_PRESIDENTE_PRUDENTE_BRASIL", "CIDADE": "PRESIDENTE_PRUDENTE", "LATITUDE": -22.1054448, "LONGITUDE": -51.4114703 }, "geometry": { "type": "Point", "coordinates": [ -51.4114703, -22.1054448 ] } },
{ "type": "Feature", "properties": { "CNPJ": 25061610000126, "AGENTE": "GABRIEL_ALBINO", "ACAO": "REALIZAR_PRIMEIRA_VISITA_POTENCIAL", "RAZAO_SOCIAL": "PESCADOS_HADDOCK_LTDA", "ENDERECO": "RUA_ARISTIDES_PINTO_SOARES_75_PARQUE_BANDEIRANTES_PRESIDENTE_PRUDENTE_BRASIL", "CIDADE": "PRESIDENTE_PRUDENTE", "LATITUDE": -22.1055146, "LONGITUDE": -51.4110258 }, "geometry": { "type": "Point", "coordinates": [ -51.4110258, -22.1055146 ] } },
{ "type": "Feature", "properties": { "CNPJ": 5165694800013, "AGENTE": "GABRIEL_ALBINO", "ACAO": "REALIZAR_PRIMEIRA_VISITA_POTENCIAL", "RAZAO_SOCIAL": "AMANDA_GOMES_DA_SILVA", "ENDERECO": "RUA_SAO_JOSE_42_VILA_OPERARIA_PRESIDENTE_PRUDENTE_BRASIL", "CIDADE": "PRESIDENTE_PRUDENTE", "LATITUDE": -22.1058093, "LONGITUDE": -51.3862173 }, "geometry": { "type": "Point", "coordinates": [ -51.3862173, -22.1058093 ] } },
{ "type": "Feature", "properties": { "CNPJ": 37071912000164, "AGENTE": "GABRIEL_ALBINO", "ACAO": "REALIZAR_PRIMEIRA_VISITA_POTENCIAL", "RAZAO_SOCIAL": "MARGARETH_APARECIDA_DOS_SANTOS_LEMOS_PINHEIRO", "ENDERECO": "RUA_JOSE_LAPERUTA_FILHO_203_PARQUE_SAO_JUDAS_TADEU_PRESIDENTE_PRUDENTE_BRASIL", "CIDADE": "PRESIDENTE_PRUDENTE", "LATITUDE": -22.1058584, "LONGITUDE": -51.4025214 }, "geometry": { "type": "Point", "coordinates": [ -51.4025214, -22.1058584 ] } },
{ "type": "Feature", "properties": { "CNPJ": 40663002000185, "AGENTE": "GABRIEL_ALBINO", "ACAO": "REALIZAR_PRIMEIRA_VISITA_POTENCIAL", "RAZAO_SOCIAL": "40.663.002_CAMILA_FERNANDA_SOARES_DE_MORAIS", "ENDERECO": "RUA_ALVINO_GOMES_TEIXEIRA_1576_PARQUE_FURQUIM_PRESIDENTE_PRUDENTE_BRASIL", "CIDADE": "PRESIDENTE_PRUDENTE", "LATITUDE": -22.1061091, "LONGITUDE": -51.38619 }, "geometry": { "type": "Point", "coordinates": [ -51.38619, -22.1061091 ] } },
{ "type": "Feature", "properties": { "CNPJ": 37037910000159, "AGENTE": "GABRIEL_ALBINO", "ACAO": "REALIZAR_PRIMEIRA_VISITA_POTENCIAL", "RAZAO_SOCIAL": "INGRID_NAYARA_LOURENCO_GOMES", "ENDERECO": "RUA_GERCINDO_AGARRANCHAR_DE_BARROS_97_PARQUE_BANDEIRANTES_PRESIDENTE_PRUDENTE_BRASIL", "CIDADE": "PRESIDENTE_PRUDENTE", "LATITUDE": -22.1061188, "LONGITUDE": -51.4108948 }, "geometry": { "type": "Point", "coordinates": [ -51.4108948, -22.1061188 ] } },
{ "type": "Feature", "properties": { "CNPJ": 47183525000173, "AGENTE": "GABRIEL_ALBINO", "ACAO": "REALIZAR_PRIMEIRA_VISITA_POTENCIAL", "RAZAO_SOCIAL": "ARIANE_NOCHETTI_DE_SOUZA_VIEIRA", "ENDERECO": "RUA_NOCHETE_32_VILA_OPERARIA_PRESIDENTE_PRUDENTE_BRASIL", "CIDADE": "PRESIDENTE_PRUDENTE", "LATITUDE": -22.1063729, "LONGITUDE": -51.3851478 }, "geometry": { "type": "Point", "coordinates": [ -51.3851478, -22.1063729 ] } },
{ "type": "Feature", "properties": { "CNPJ": 46488149000162, "AGENTE": "GABRIEL_ALBINO", "ACAO": "REALIZAR_PRIMEIRA_VISITA_POTENCIAL", "RAZAO_SOCIAL": "SILVIA_REGINA_SILVA_CERBELERA", "ENDERECO": "RUA_CORONEL_ALBINO_986_VILA_MARISTELA_PRESIDENTE_PRUDENTE_BRASIL", "CIDADE": "PRESIDENTE_PRUDENTE", "LATITUDE": -22.1065235, "LONGITUDE": -51.3905721 }, "geometry": { "type": "Point", "coordinates": [ -51.3905721, -22.1065235 ] } },
{ "type": "Feature", "properties": { "CNPJ": 45269845000115, "AGENTE": "GABRIEL_ALBINO", "ACAO": "REALIZAR_PRIMEIRA_VISITA_POTENCIAL", "RAZAO_SOCIAL": "45.269.845_GEAN_CARLOS_JESUS_DA_SILVA", "ENDERECO": "RUA_CORONEL_ALBINO_1796_PARQUE_SAO_JUDAS_TADEU_PRESIDENTE_PRUDENTE_BRASIL", "CIDADE": "PRESIDENTE_PRUDENTE", "LATITUDE": -22.106834, "LONGITUDE": -51.398216 }, "geometry": { "type": "Point", "coordinates": [ -51.398216, -22.106834 ] } },
{ "type": "Feature", "properties": { "CNPJ": 28153677000189, "AGENTE": "GABRIEL_ALBINO", "ACAO": "REALIZAR_PRIMEIRA_VISITA_POTENCIAL", "RAZAO_SOCIAL": "CRISTIAN_ANDRES_QUINTERO_BOTERO_23798555877", "ENDERECO": "RUA_CORONEL_ALBINO_2016_PARQUE_SAO_JUDAS_TADEU_PRESIDENTE_PRUDENTE_BRASIL", "CIDADE": "PRESIDENTE_PRUDENTE", "LATITUDE": -22.1071044, "LONGITUDE": -51.4003655 }, "geometry": { "type": "Point", "coordinates": [ -51.4003655, -22.1071044 ] } },
{ "type": "Feature", "properties": { "CNPJ": 22203340000152, "AGENTE": "GABRIEL_ALBINO", "ACAO": "REALIZAR_PRIMEIRA_VISITA_POTENCIAL", "RAZAO_SOCIAL": "MARIA_DE_SOUZA_CARDOSO", "ENDERECO": "RUA_PRUDENTE_DE_MORAIS_1010_VILA_MARISTELA_PRESIDENTE_PRUDENTE_BRASIL", "CIDADE": "PRESIDENTE_PRUDENTE", "LATITUDE": -22.1073609, "LONGITUDE": -51.3909102 }, "geometry": { "type": "Point", "coordinates": [ -51.3909102, -22.1073609 ] } },
{ "type": "Feature", "properties": { "CNPJ": 4999184600012, "AGENTE": "GABRIEL_ALBINO", "ACAO": "REALIZAR_PRIMEIRA_VISITA_POTENCIAL", "RAZAO_SOCIAL": "JOAO_BATISTA_BEZERRA", "ENDERECO": "RUA_PRUDENTE_DE_MORAIS_-_ATE_1299/1300_1010_VILA_MARISTELA_PRESIDENTE_PRUDENTE_BRASIL", "CIDADE": "PRESIDENTE_PRUDENTE", "LATITUDE": -22.1073609, "LONGITUDE": -51.3909102 }, "geometry": { "type": "Point", "coordinates": [ -51.3909102, -22.1073609 ] } },
{ "type": "Feature", "properties": { "CNPJ": 2925171100011, "AGENTE": "GABRIEL_ALBINO", "ACAO": "REALIZAR_PRIMEIRA_VISITA_POTENCIAL", "RAZAO_SOCIAL": "JOSE_VALDIR_DA_SILVA", "ENDERECO": "AVENIDA_PAULO_MARCONDES_191_JARDIM_ELDORADO_PRESIDENTE_PRUDENTE_BRASIL", "CIDADE": "PRESIDENTE_PRUDENTE", "LATITUDE": -22.107405, "LONGITUDE": -51.410799 }, "geometry": { "type": "Point", "coordinates": [ -51.410799, -22.107405 ] } },
{ "type": "Feature", "properties": { "CNPJ": 14209690000106, "AGENTE": "GABRIEL_ALBINO", "ACAO": "REALIZAR_PRIMEIRA_VISITA_POTENCIAL", "RAZAO_SOCIAL": "RENAN_LUIZ_BRAMBILLA_GRACINO_DE_OLIVEIRA", "ENDERECO": "RUA_PEDRO_FERREIRA_LEITE_46_JARDIM_AVIACAO_PRESIDENTE_PRUDENTE_BRASIL", "CIDADE": "PRESIDENTE_PRUDENTE", "LATITUDE": -22.1076565, "LONGITUDE": -51.3850454 }, "geometry": { "type": "Point", "coordinates": [ -51.3850454, -22.1076565 ] } },
{ "type": "Feature", "properties": { "CNPJ": 39317609000124, "AGENTE": "GABRIEL_ALBINO", "ACAO": "REALIZAR_PRIMEIRA_VISITA_POTENCIAL", "RAZAO_SOCIAL": "STENIO_SITOLINO_COMERCIO_DE_ALIMENTOS_ANIMAIS_LTDA", "ENDERECO": "RUA_CORONEL_ALBINO_-_DE_2691/2692_AO_FIM_2787_JARDIM_BELO_HORIZONTE_PRESIDENTE_PRUDENTE_BRASIL", "CIDADE": "PRESIDENTE_PRUDENTE", "LATITUDE": -22.1076684, "LONGITUDE": -51.406424 }, "geometry": { "type": "Point", "coordinates": [ -51.406424, -22.1076684 ] } },
{ "type": "Feature", "properties": { "CNPJ": 1312508800011, "AGENTE": "GABRIEL_ALBINO", "ACAO": "REALIZAR_PRIMEIRA_VISITA_POTENCIAL", "RAZAO_SOCIAL": "MICHELLE_CRISTINA_VIEIRA_FREITAS", "ENDERECO": "RUA_MANOEL_RUIZ_GARCIA_1112_JARDIM_AVIACAO_PRESIDENTE_PRUDENTE_BRASIL", "CIDADE": "PRESIDENTE_PRUDENTE", "LATITUDE": -22.1077237, "LONGITUDE": -51.3889691 }, "geometry": { "type": "Point", "coordinates": [ -51.3889691, -22.1077237 ] } },
{ "type": "Feature", "properties": { "CNPJ": 57748224000101, "AGENTE": "GABRIEL_ALBINO", "ACAO": "REALIZAR_PRIMEIRA_VISITA_POTENCIAL", "RAZAO_SOCIAL": "57.748.224_JENNIFER_KAROLAYNE_RIBEIRO_TEIXEIRA_DE_FREITAS", "ENDERECO": "AVENIDA_ADEMAR_DE_BARROS_680_JARDIM_AVIACAO_PRESIDENTE_PRUDENTE_BRASIL", "CIDADE": "PRESIDENTE_PRUDENTE", "LATITUDE": -22.1078168, "LONGITUDE": -51.3854287 }, "geometry": { "type": "Point", "coordinates": [ -51.3854287, -22.1078168 ] } },
{ "type": "Feature", "properties": { "CNPJ": 29573991000183, "AGENTE": "GABRIEL_ALBINO", "ACAO": "REALIZAR_PRIMEIRA_VISITA_POTENCIAL", "RAZAO_SOCIAL": "ROSANGELA_DE_FRANCA_CASTRO_VIEIRA", "ENDERECO": "RUA_PRUDENTE_DE_MORAIS_-_DE_1301/1302_AO_FIM_1474_PARQUE_SAO_JUDAS_TADEU_PRESIDENTE_PRUDENTE_BRASIL", "CIDADE": "PRESIDENTE_PRUDENTE", "LATITUDE": -22.1079888, "LONGITUDE": -51.3977412 }, "geometry": { "type": "Point", "coordinates": [ -51.3977412, -22.1079888 ] } },
{ "type": "Feature", "properties": { "CNPJ": 48181632000125, "AGENTE": "GABRIEL_ALBINO", "ACAO": "REALIZAR_PRIMEIRA_VISITA_POTENCIAL", "RAZAO_SOCIAL": "ALINE_SOUZA_DE_MORAIS", "ENDERECO": "AVENIDA_ADEMAR_DE_BARROS_590_JARDIM_AVIACAO_PRESIDENTE_PRUDENTE_BRASIL", "CIDADE": "PRESIDENTE_PRUDENTE", "LATITUDE": -22.108161, "LONGITUDE": -51.3847315 }, "geometry": { "type": "Point", "coordinates": [ -51.3847315, -22.108161 ] } },
{ "type": "Feature", "properties": { "CNPJ": 3812056000139, "AGENTE": "GABRIEL_ALBINO", "ACAO": "REALIZAR_PRIMEIRA_VISITA_POTENCIAL", "RAZAO_SOCIAL": "PAULO_CESAR_DA_SILVA_LIMA_CONFECCOES", "ENDERECO": "RUA_PRUDENTE_DE_MORAIS_849_VILA_MARISTELA_PRESIDENTE_PRUDENTE_BRASIL", "CIDADE": "PRESIDENTE_PRUDENTE", "LATITUDE": -22.1082382, "LONGITUDE": -51.3896967 }, "geometry": { "type": "Point", "coordinates": [ -51.3896967, -22.1082382 ] } },
{ "type": "Feature", "properties": { "CNPJ": 43621040000163, "AGENTE": "GABRIEL_ALBINO", "ACAO": "REALIZAR_PRIMEIRA_VISITA_POTENCIAL", "RAZAO_SOCIAL": "MARCELO_DIAS_PAIAO", "ENDERECO": "RUA_GUADALAJARA_900_VILA_SANTA_TEREZA_PRESIDENTE_PRUDENTE_BRASIL", "CIDADE": "PRESIDENTE_PRUDENTE", "LATITUDE": -22.1084188, "LONGITUDE": -51.399662 }, "geometry": { "type": "Point", "coordinates": [ -51.399662, -22.1084188 ] } },
{ "type": "Feature", "properties": { "CNPJ": 22176979000196, "AGENTE": "GABRIEL_ALBINO", "ACAO": "REALIZAR_PRIMEIRA_VISITA_POTENCIAL", "RAZAO_SOCIAL": "RODRIGO_APARECIDO_CORDEIRO_CAMPOS", "ENDERECO": "RUA_PAULO_EIRO_480_CIDADE_JARDIM_PRESIDENTE_PRUDENTE_BRASIL", "CIDADE": "PRESIDENTE_PRUDENTE", "LATITUDE": -22.1086643, "LONGITUDE": -51.4020336 }, "geometry": { "type": "Point", "coordinates": [ -51.4020336, -22.1086643 ] } },
{ "type": "Feature", "properties": { "CNPJ": 50892415000195, "AGENTE": "GABRIEL_ALBINO", "ACAO": "REALIZAR_PRIMEIRA_VISITA_POTENCIAL", "RAZAO_SOCIAL": "CRP_SERRALHERIA_LTDA", "ENDERECO": "RUA_JULIO_PRESTES_-_ATE_1025/1026_49_JARDIM_AVIACAO_PRESIDENTE_PRUDENTE_BRASIL", "CIDADE": "PRESIDENTE_PRUDENTE", "LATITUDE": -22.1086733, "LONGITUDE": -51.3829776 }, "geometry": { "type": "Point", "coordinates": [ -51.3829776, -22.1086733 ] } },
{ "type": "Feature", "properties": { "CNPJ": 34606687000125, "AGENTE": "GABRIEL_ALBINO", "ACAO": "REALIZAR_PRIMEIRA_VISITA_POTENCIAL", "RAZAO_SOCIAL": "HSP_LTDA", "ENDERECO": "RUA_HERCULANO_SILVEIRA_LEITE_232_JARDIM_ELDORADO_PRESIDENTE_PRUDENTE_BRASIL", "CIDADE": "PRESIDENTE_PRUDENTE", "LATITUDE": -22.1089745, "LONGITUDE": -51.4079549 }, "geometry": { "type": "Point", "coordinates": [ -51.4079549, -22.1089745 ] } },
{ "type": "Feature", "properties": { "CNPJ": 44875437000144, "AGENTE": "GABRIEL_ALBINO", "ACAO": "REALIZAR_PRIMEIRA_VISITA_POTENCIAL", "RAZAO_SOCIAL": "CLEIDE_MARCIA_DE_OLIVEIRA_CIRIACO", "ENDERECO": "RUA_AMADEU_AMARAL_414_CIDADE_JARDIM_PRESIDENTE_PRUDENTE_BRASIL", "CIDADE": "PRESIDENTE_PRUDENTE", "LATITUDE": -22.1092031, "LONGITUDE": -51.40288 }, "geometry": { "type": "Point", "coordinates": [ -51.40288, -22.1092031 ] } },
{ "type": "Feature", "properties": { "CNPJ": 10959649000198, "AGENTE": "GABRIEL_ALBINO", "ACAO": "REALIZAR_PRIMEIRA_VISITA_POTENCIAL", "RAZAO_SOCIAL": "PASSARELLI_E_SANTOS_AUTO_ELETRICA_LTDA", "ENDERECO": "RUA_BARROS_SILVA_25_JARDIM_SANTA_ELIZA_PRESIDENTE_PRUDENTE_BRASIL", "CIDADE": "PRESIDENTE_PRUDENTE", "LATITUDE": -22.1095253, "LONGITUDE": -51.4175644 }, "geometry": { "type": "Point", "coordinates": [ -51.4175644, -22.1095253 ] } },
{ "type": "Feature", "properties": { "CNPJ": 53976006000165, "AGENTE": "GABRIEL_ALBINO", "ACAO": "REALIZAR_PRIMEIRA_VISITA_POTENCIAL", "RAZAO_SOCIAL": "53.976.006_FABRICIO_DA_CUNHA_DA_COSTA", "ENDERECO": "ALAMEDA_ELDORADO_330_JARDIM_ELDORADO_PRESIDENTE_PRUDENTE_BRASIL", "CIDADE": "PRESIDENTE_PRUDENTE", "LATITUDE": -22.109567, "LONGITUDE": -51.4094946 }, "geometry": { "type": "Point", "coordinates": [ -51.4094946, -22.109567 ] } },
{ "type": "Feature", "properties": { "CNPJ": 7813580000185, "AGENTE": "GABRIEL_ALBINO", "ACAO": "REALIZAR_PRIMEIRA_VISITA_POTENCIAL", "RAZAO_SOCIAL": "M._C._DE_L._AGUILLAR_BOLZANI_PODOLOGIA", "ENDERECO": "RUA_CARAMURU_431_VILA_MARISTELA_PRESIDENTE_PRUDENTE_BRASIL", "CIDADE": "PRESIDENTE_PRUDENTE", "LATITUDE": -22.1100896, "LONGITUDE": -51.3822432 }, "geometry": { "type": "Point", "coordinates": [ -51.3822432, -22.1100896 ] } },
{ "type": "Feature", "properties": { "CNPJ": 33838405000152, "AGENTE": "GABRIEL_ALBINO", "ACAO": "REALIZAR_PRIMEIRA_VISITA_POTENCIAL", "RAZAO_SOCIAL": "ODAIR_FIRMINO_DA_SILVA", "ENDERECO": "RUA_BORBA_GATO_-_DE_81/82_AO_FIM_1255_VILA_SANTA_TEREZA_PRESIDENTE_PRUDENTE_BRASIL", "CIDADE": "PRESIDENTE_PRUDENTE", "LATITUDE": -22.1101016, "LONGITUDE": -51.3995357 }, "geometry": { "type": "Point", "coordinates": [ -51.3995357, -22.1101016 ] } },
{ "type": "Feature", "properties": { "CNPJ": 45059053000116, "AGENTE": "GABRIEL_ALBINO", "ACAO": "REALIZAR_PRIMEIRA_VISITA_POTENCIAL", "RAZAO_SOCIAL": "DANILO_DE_SOUZA_GUEDES", "ENDERECO": "RUA_BORBA_GATO_-_DE_81/82_AO_FIM_984_VILA_SANTA_TEREZA_PRESIDENTE_PRUDENTE_BRASIL", "CIDADE": "PRESIDENTE_PRUDENTE", "LATITUDE": -22.1101016, "LONGITUDE": -51.3995357 }, "geometry": { "type": "Point", "coordinates": [ -51.3995357, -22.1101016 ] } },
{ "type": "Feature", "properties": { "CNPJ": 28794093000192, "AGENTE": "GABRIEL_ALBINO", "ACAO": "REALIZAR_PRIMEIRA_VISITA_POTENCIAL", "RAZAO_SOCIAL": "28.794.093_RODRIGO_GUADANUCCI_BORGES_DOS_SANTOS", "ENDERECO": "RUA_PAULO_MARQUES_644_VILA_BOA_VISTA_PRESIDENTE_PRUDENTE_BRASIL", "CIDADE": "PRESIDENTE_PRUDENTE", "LATITUDE": -22.1103224, "LONGITUDE": -51.3888944 }, "geometry": { "type": "Point", "coordinates": [ -51.3888944, -22.1103224 ] } },
{ "type": "Feature", "properties": { "CNPJ": 307236860001, "AGENTE": "GABRIEL_ALBINO", "ACAO": "REALIZAR_PRIMEIRA_VISITA_POTENCIAL", "RAZAO_SOCIAL": "LUCIMARA_MACEDO_JARDIM_SANTOS", "ENDERECO": "RUA_HERCULANO_SILVEIRA_LEITE_71_JARDIM_ELDORADO_PRESIDENTE_PRUDENTE_BRASIL", "CIDADE": "PRESIDENTE_PRUDENTE", "LATITUDE": -22.1103947, "LONGITUDE": -51.4085173 }, "geometry": { "type": "Point", "coordinates": [ -51.4085173, -22.1103947 ] } },
{ "type": "Feature", "properties": { "CNPJ": 25014090000109, "AGENTE": "GABRIEL_ALBINO", "ACAO": "REALIZAR_PRIMEIRA_VISITA_POTENCIAL", "RAZAO_SOCIAL": "JOSE_DE_OLIVEIRA_LIMA", "ENDERECO": "RUA_LUIZ_COTINI_80_VILA_SANTA_IZABEL_PRESIDENTE_PRUDENTE_BRASIL", "CIDADE": "PRESIDENTE_PRUDENTE", "LATITUDE": -22.1104798, "LONGITUDE": -51.3927599 }, "geometry": { "type": "Point", "coordinates": [ -51.3927599, -22.1104798 ] } },
{ "type": "Feature", "properties": { "CNPJ": 41259986000104, "AGENTE": "GABRIEL_ALBINO", "ACAO": "REALIZAR_PRIMEIRA_VISITA_POTENCIAL", "RAZAO_SOCIAL": "TATIANE_DA_SILVA_ALVES", "ENDERECO": "RUA_PEDRO_RODRIGUES_MENOTTI_105_JARDIM_ELDORADO_PRESIDENTE_PRUDENTE_BRASIL", "CIDADE": "PRESIDENTE_PRUDENTE", "LATITUDE": -22.1107012, "LONGITUDE": -51.411118 }, "geometry": { "type": "Point", "coordinates": [ -51.411118, -22.1107012 ] } },
{ "type": "Feature", "properties": { "CNPJ": 34784143000153, "AGENTE": "GABRIEL_ALBINO", "ACAO": "REALIZAR_PRIMEIRA_VISITA_POTENCIAL", "RAZAO_SOCIAL": "JANE_MARGARETE_BARBOSA_FREIRE_DE_ALMEIDA", "ENDERECO": "RUA_JULIO_PRESTES_354_JARDIM_AVIACAO_PRESIDENTE_PRUDENTE_BRASIL", "CIDADE": "PRESIDENTE_PRUDENTE", "LATITUDE": -22.1108584, "LONGITUDE": -51.384474 }, "geometry": { "type": "Point", "coordinates": [ -51.384474, -22.1108584 ] } },
{ "type": "Feature", "properties": { "CNPJ": 4686891200018, "AGENTE": "GABRIEL_ALBINO", "ACAO": "REALIZAR_PRIMEIRA_VISITA_POTENCIAL", "RAZAO_SOCIAL": "LUCIANO_CRUZ_SANCHEZ", "ENDERECO": "RUA_SANTOS_DUMONT_369_JARDIM_AVIACAO_PRESIDENTE_PRUDENTE_BRASIL", "CIDADE": "PRESIDENTE_PRUDENTE", "LATITUDE": -22.1109172, "LONGITUDE": -51.386207 }, "geometry": { "type": "Point", "coordinates": [ -51.386207, -22.1109172 ] } },
{ "type": "Feature", "properties": { "CNPJ": 54955880000189, "AGENTE": "GABRIEL_ALBINO", "ACAO": "REALIZAR_PRIMEIRA_VISITA_POTENCIAL", "RAZAO_SOCIAL": "WILLIAM_RICHARD_JOAO_GERMANO_ALCANTARA", "ENDERECO": "RUA_DOS_PAULISTAS_884_VILA_SANTA_TEREZA_PRESIDENTE_PRUDENTE_BRASIL", "CIDADE": "PRESIDENTE_PRUDENTE", "LATITUDE": -22.1109984, "LONGITUDE": -51.4022907 }, "geometry": { "type": "Point", "coordinates": [ -51.4022907, -22.1109984 ] } },
{ "type": "Feature", "properties": { "CNPJ": 58957994000119, "AGENTE": "GABRIEL_ALBINO", "ACAO": "REALIZAR_PRIMEIRA_VISITA_POTENCIAL", "RAZAO_SOCIAL": "NILTON_RUAS_DE_ABREU", "ENDERECO": "RUA_RAIMUNDO_FONSECA_220_VILA_GENI_PRESIDENTE_PRUDENTE_BRASIL", "CIDADE": "PRESIDENTE_PRUDENTE", "LATITUDE": -22.1109988, "LONGITUDE": -51.4046122 }, "geometry": { "type": "Point", "coordinates": [ -51.4046122, -22.1109988 ] } },
{ "type": "Feature", "properties": { "CNPJ": 57275787000111, "AGENTE": "GABRIEL_ALBINO", "ACAO": "REALIZAR_PRIMEIRA_VISITA_POTENCIAL", "RAZAO_SOCIAL": "57.275.787_LUAN_FELIPE_RIBEIRO_BATISTA", "ENDERECO": "RUA_AMADEU_AMARAL_221_CIDADE_JARDIM_PRESIDENTE_PRUDENTE_BRASIL", "CIDADE": "PRESIDENTE_PRUDENTE", "LATITUDE": -22.1110268, "LONGITUDE": -51.4028988 }, "geometry": { "type": "Point", "coordinates": [ -51.4028988, -22.1110268 ] } },
{ "type": "Feature", "properties": { "CNPJ": 27316571000196, "AGENTE": "GABRIEL_ALBINO", "ACAO": "REALIZAR_PRIMEIRA_VISITA_POTENCIAL", "RAZAO_SOCIAL": "DANILO_HENRIQUE_FERREIRA_ELIAS", "ENDERECO": "RUA_DOS_PAULISTAS_980_VILA_SANTA_TEREZA_PRESIDENTE_PRUDENTE_BRASIL", "CIDADE": "PRESIDENTE_PRUDENTE", "LATITUDE": -22.1110473, "LONGITUDE": -51.4032493 }, "geometry": { "type": "Point", "coordinates": [ -51.4032493, -22.1110473 ] } },
{ "type": "Feature", "properties": { "CNPJ": 32770252000196, "AGENTE": "GABRIEL_ALBINO", "ACAO": "REALIZAR_PRIMEIRA_VISITA_POTENCIAL", "RAZAO_SOCIAL": "RODRIGO_MONTEIRO_DA_SILVA", "ENDERECO": "RUA_DOS_PAULISTAS_645_VILA_SANTA_TEREZA_PRESIDENTE_PRUDENTE_BRASIL", "CIDADE": "PRESIDENTE_PRUDENTE", "LATITUDE": -22.1111094, "LONGITUDE": -51.400045 }, "geometry": { "type": "Point", "coordinates": [ -51.400045, -22.1111094 ] } },
{ "type": "Feature", "properties": { "CNPJ": 5815038000012, "AGENTE": "GABRIEL_ALBINO", "ACAO": "REALIZAR_PRIMEIRA_VISITA_POTENCIAL", "RAZAO_SOCIAL": "PEREIRA_SERVICOS_MEDICOS_LTDA", "ENDERECO": "RUA_DOS_PAULISTAS_925_VILA_SANTA_TEREZA_PRESIDENTE_PRUDENTE_BRASIL", "CIDADE": "PRESIDENTE_PRUDENTE", "LATITUDE": -22.1112656, "LONGITUDE": -51.402662 }, "geometry": { "type": "Point", "coordinates": [ -51.402662, -22.1112656 ] } },
{ "type": "Feature", "properties": { "CNPJ": 42133010000145, "AGENTE": "GABRIEL_ALBINO", "ACAO": "REALIZAR_PRIMEIRA_VISITA_POTENCIAL", "RAZAO_SOCIAL": "MARIA_EDUARDA_BARBOSA_ARAUJO", "ENDERECO": "RUA_DOS_PAULISTAS_393_VILA_SANTA_TEREZA_PRESIDENTE_PRUDENTE_BRASIL", "CIDADE": "PRESIDENTE_PRUDENTE", "LATITUDE": -22.1114647, "LONGITUDE": -51.3974381 }, "geometry": { "type": "Point", "coordinates": [ -51.3974381, -22.1114647 ] } },
{ "type": "Feature", "properties": { "CNPJ": 11705162000141, "AGENTE": "GABRIEL_ALBINO", "ACAO": "REALIZAR_PRIMEIRA_VISITA_POTENCIAL", "RAZAO_SOCIAL": "VANESSA_NICOLINO_ZAUPA", "ENDERECO": "RUA_EUCLIDES_DA_CUNHA_956_VILA_MACHADINHO_PRESIDENTE_PRUDENTE_BRASIL", "CIDADE": "PRESIDENTE_PRUDENTE", "LATITUDE": -22.1115121, "LONGITUDE": -51.391115 }, "geometry": { "type": "Point", "coordinates": [ -51.391115, -22.1115121 ] } },
{ "type": "Feature", "properties": { "CNPJ": 58315914000121, "AGENTE": "GABRIEL_ALBINO", "ACAO": "REALIZAR_PRIMEIRA_VISITA_POTENCIAL", "RAZAO_SOCIAL": "ROBERTO_ALVES_CORREIA", "ENDERECO": "RUA_AMADEU_AMARAL_157_CIDADE_JARDIM_PRESIDENTE_PRUDENTE_BRASIL", "CIDADE": "PRESIDENTE_PRUDENTE", "LATITUDE": -22.1115282, "LONGITUDE": -51.4028794 }, "geometry": { "type": "Point", "coordinates": [ -51.4028794, -22.1115282 ] } },
{ "type": "Feature", "properties": { "CNPJ": 7971214000154, "AGENTE": "GABRIEL_ALBINO", "ACAO": "REALIZAR_PRIMEIRA_VISITA_POTENCIAL", "RAZAO_SOCIAL": "APARECIDA_DANTAS_DE_CARVALHO", "ENDERECO": "RUA_GARCIA_PAES_420_JARDIM_PAULISTA_PRESIDENTE_PRUDENTE_BRASIL", "CIDADE": "PRESIDENTE_PRUDENTE", "LATITUDE": -22.1117415, "LONGITUDE": -51.3948259 }, "geometry": { "type": "Point", "coordinates": [ -51.3948259, -22.1117415 ] } },
{ "type": "Feature", "properties": { "CNPJ": 50758456000193, "AGENTE": "GABRIEL_ALBINO", "ACAO": "REALIZAR_PRIMEIRA_VISITA_POTENCIAL", "RAZAO_SOCIAL": "MURILO_FERNANDES_NEGRE", "ENDERECO": "RUA_JOSE_TARIFA_CONDE_230_VILA_SANTA_IZABEL_PRESIDENTE_PRUDENTE_BRASIL", "CIDADE": "PRESIDENTE_PRUDENTE", "LATITUDE": -22.1118867, "LONGITUDE": -51.3923552 }, "geometry": { "type": "Point", "coordinates": [ -51.3923552, -22.1118867 ] } },
{ "type": "Feature", "properties": { "CNPJ": 185271450001, "AGENTE": "GABRIEL_ALBINO", "ACAO": "REALIZAR_PRIMEIRA_VISITA_POTENCIAL", "RAZAO_SOCIAL": "18.527.145_JEFFERSON_VALERIO_MARTINS", "ENDERECO": "RUA_BELA_VISTA_711_CIDADE_JARDIM_PRESIDENTE_PRUDENTE_BRASIL", "CIDADE": "PRESIDENTE_PRUDENTE", "LATITUDE": -22.1121713, "LONGITUDE": -51.4024397 }, "geometry": { "type": "Point", "coordinates": [ -51.4024397, -22.1121713 ] } },
{ "type": "Feature", "properties": { "CNPJ": 48396562000122, "AGENTE": "GABRIEL_ALBINO", "ACAO": "REALIZAR_PRIMEIRA_VISITA_POTENCIAL", "RAZAO_SOCIAL": "ELENICE_DE_OLIVEIRA_CARRARA", "ENDERECO": "RUA_BOLIVIA_127_VILA_GENI_PRESIDENTE_PRUDENTE_BRASIL", "CIDADE": "PRESIDENTE_PRUDENTE", "LATITUDE": -22.1123152, "LONGITUDE": -51.4066935 }, "geometry": { "type": "Point", "coordinates": [ -51.4066935, -22.1123152 ] } },
{ "type": "Feature", "properties": { "CNPJ": 58553735000122, "AGENTE": "GABRIEL_ALBINO", "ACAO": "REALIZAR_PRIMEIRA_VISITA_POTENCIAL", "RAZAO_SOCIAL": "58.553.735_LORRAYNE_MICHELLE_OLIVEIRA_DA_SILVA", "ENDERECO": "RUA_BELA_VISTA_1168_CIDADE_JARDIM_PRESIDENTE_PRUDENTE_BRASIL", "CIDADE": "PRESIDENTE_PRUDENTE", "LATITUDE": -22.1123559, "LONGITUDE": -51.4068638 }, "geometry": { "type": "Point", "coordinates": [ -51.4068638, -22.1123559 ] } },
{ "type": "Feature", "properties": { "CNPJ": 46883300000167, "AGENTE": "GABRIEL_ALBINO", "ACAO": "REALIZAR_PRIMEIRA_VISITA_POTENCIAL", "RAZAO_SOCIAL": "JULIANO_DE_MORAIS_TOMASETE", "ENDERECO": "RUA_BELA_VISTA_1079_CIDADE_JARDIM_PRESIDENTE_PRUDENTE_BRASIL", "CIDADE": "PRESIDENTE_PRUDENTE", "LATITUDE": -22.1125645, "LONGITUDE": -51.4059526 }, "geometry": { "type": "Point", "coordinates": [ -51.4059526, -22.1125645 ] } },
{ "type": "Feature", "properties": { "CNPJ": 5543900800014, "AGENTE": "GABRIEL_ALBINO", "ACAO": "REALIZAR_PRIMEIRA_VISITA_POTENCIAL", "RAZAO_SOCIAL": "CHORIPPAO_LTDA", "ENDERECO": "RUA_FERNAO_DIAS_660_VILA_SANTA_TEREZA_PRESIDENTE_PRUDENTE_BRASIL", "CIDADE": "PRESIDENTE_PRUDENTE", "LATITUDE": -22.1126464, "LONGITUDE": -51.3993775 }, "geometry": { "type": "Point", "coordinates": [ -51.3993775, -22.1126464 ] } },
{ "type": "Feature", "properties": { "CNPJ": 52524909000142, "AGENTE": "GABRIEL_ALBINO", "ACAO": "REALIZAR_PRIMEIRA_VISITA_POTENCIAL", "RAZAO_SOCIAL": "BRUNA_ALVES_DE_OLIVEIRA", "ENDERECO": "RUA_BELA_VISTA_1179_CIDADE_JARDIM_PRESIDENTE_PRUDENTE_BRASIL", "CIDADE": "PRESIDENTE_PRUDENTE", "LATITUDE": -22.1126675, "LONGITUDE": -51.4069125 }, "geometry": { "type": "Point", "coordinates": [ -51.4069125, -22.1126675 ] } },
{ "type": "Feature", "properties": { "CNPJ": 49980952000108, "AGENTE": "GABRIEL_ALBINO", "ACAO": "REALIZAR_PRIMEIRA_VISITA_POTENCIAL", "RAZAO_SOCIAL": "PANE_DI_GRANO_ALIMENTOS_LTDA", "ENDERECO": "RUA_CAMOES_43_VILA_MARISTELA_PRESIDENTE_PRUDENTE_BRASIL", "CIDADE": "PRESIDENTE_PRUDENTE", "LATITUDE": -22.1126798, "LONGITUDE": -51.3827903 }, "geometry": { "type": "Point", "coordinates": [ -51.3827903, -22.1126798 ] } },
{ "type": "Feature", "properties": { "CNPJ": 32619670000187, "AGENTE": "GABRIEL_ALBINO", "ACAO": "REALIZAR_PRIMEIRA_VISITA_POTENCIAL", "RAZAO_SOCIAL": "RICARDO_CESAR_DE_ARAUJO", "ENDERECO": "RUA_QUINCAS_VIEIRA_-_ATE_999/1000_630_JARDIM_AVIACAO_PRESIDENTE_PRUDENTE_BRASIL", "CIDADE": "PRESIDENTE_PRUDENTE", "LATITUDE": -22.1130836, "LONGITUDE": -51.3867869 }, "geometry": { "type": "Point", "coordinates": [ -51.3867869, -22.1130836 ] } },
{ "type": "Feature", "properties": { "CNPJ": 32372035000148, "AGENTE": "GABRIEL_ALBINO", "ACAO": "REALIZAR_PRIMEIRA_VISITA_POTENCIAL", "RAZAO_SOCIAL": "A_P_CAMPOS_REPRESENTACAO_COMERCIAL_LTDA", "ENDERECO": "RUA_RIBEIRO_DE_BARROS_712_VILA_DUBUS_PRESIDENTE_PRUDENTE_BRASIL", "CIDADE": "PRESIDENTE_PRUDENTE", "LATITUDE": -22.1138121, "LONGITUDE": -51.3848879 }, "geometry": { "type": "Point", "coordinates": [ -51.3848879, -22.1138121 ] } },
{ "type": "Feature", "properties": { "CNPJ": 1803308300018, "AGENTE": "GABRIEL_ALBINO", "ACAO": "REALIZAR_PRIMEIRA_VISITA_POTENCIAL", "RAZAO_SOCIAL": "LUIZ_FERNANDO_ALMEIDA_FORTES", "ENDERECO": "RUA_GABRIEL_OTAVIO_DE_SOUZA_42_VILA_TAZITSU_PRESIDENTE_PRUDENTE_BRASIL", "CIDADE": "PRESIDENTE_PRUDENTE", "LATITUDE": -22.1138562, "LONGITUDE": -51.3936113 }, "geometry": { "type": "Point", "coordinates": [ -51.3936113, -22.1138562 ] } },
{ "type": "Feature", "properties": { "CNPJ": 43792747000132, "AGENTE": "GABRIEL_ALBINO", "ACAO": "REALIZAR_PRIMEIRA_VISITA_POTENCIAL", "RAZAO_SOCIAL": "NINJA_SOLAR_ENERGIAS_RENOVAVEIS_LTDA", "ENDERECO": "AVENIDA_ANA_JACINTA_504_JARDIM_BELA_VISTA_PRESIDENTE_PRUDENTE_BRASIL", "CIDADE": "PRESIDENTE_PRUDENTE", "LATITUDE": -22.1140397, "LONGITUDE": -51.417557 }, "geometry": { "type": "Point", "coordinates": [ -51.417557, -22.1140397 ] } },
{ "type": "Feature", "properties": { "CNPJ": 21852368000158, "AGENTE": "GABRIEL_ALBINO", "ACAO": "REALIZAR_PRIMEIRA_VISITA_POTENCIAL", "RAZAO_SOCIAL": "ATELIE_TATA_MIELE_PRODUCOES_MUSICAIS_LTDA", "ENDERECO": "RUA_JOSE_ALFREDO_DA_SILVA_921_VILA_TAZITSU_PRESIDENTE_PRUDENTE_BRASIL", "CIDADE": "PRESIDENTE_PRUDENTE", "LATITUDE": -22.1141549, "LONGITUDE": -51.4017749 }, "geometry": { "type": "Point", "coordinates": [ -51.4017749, -22.1141549 ] } },
{ "type": "Feature", "properties": { "CNPJ": 63973424000152, "AGENTE": "GABRIEL_ALBINO", "ACAO": "REALIZAR_PRIMEIRA_VISITA_POTENCIAL", "RAZAO_SOCIAL": "M_C_H_COMERCIO_DE_CONFECCOES_LTDA", "ENDERECO": "RUA_JULIO_PRESTES_750_JARDIM_AVIACAO_PRESIDENTE_PRUDENTE_BRASIL", "CIDADE": "PRESIDENTE_PRUDENTE", "LATITUDE": -22.1141617, "LONGITUDE": -51.3860367 }, "geometry": { "type": "Point", "coordinates": [ -51.3860367, -22.1141617 ] } },
{ "type": "Feature", "properties": { "CNPJ": 52775140000135, "AGENTE": "GABRIEL_ALBINO", "ACAO": "REALIZAR_PRIMEIRA_VISITA_POTENCIAL", "RAZAO_SOCIAL": "MARINALVA_CUSTODIO_DOS_SANTOS", "ENDERECO": "RUA_EUCLIDES_DA_CUNHA_345_VILA_MACHADINHO_PRESIDENTE_PRUDENTE_BRASIL", "CIDADE": "PRESIDENTE_PRUDENTE", "LATITUDE": -22.1143544, "LONGITUDE": -51.3857817 }, "geometry": { "type": "Point", "coordinates": [ -51.3857817, -22.1143544 ] } },
{ "type": "Feature", "properties": { "CNPJ": 41220976000157, "AGENTE": "GABRIEL_ALBINO", "ACAO": "REALIZAR_PRIMEIRA_VISITA_POTENCIAL", "RAZAO_SOCIAL": "MRA_DELTREJO", "ENDERECO": "RUA_CLAUDIONOR_SANDOVAL_976_VILA_ROSA_PRESIDENTE_PRUDENTE_BRASIL", "CIDADE": "PRESIDENTE_PRUDENTE", "LATITUDE": -22.114735, "LONGITUDE": -51.402263 }, "geometry": { "type": "Point", "coordinates": [ -51.402263, -22.114735 ] } },
{ "type": "Feature", "properties": { "CNPJ": 46829922000107, "AGENTE": "GABRIEL_ALBINO", "ACAO": "REALIZAR_PRIMEIRA_VISITA_POTENCIAL", "RAZAO_SOCIAL": "PEDRO_RICARDO_FELTRIM_FONTOLAN", "ENDERECO": "RUA_LUIZ_CARLOS_FERRARI_599_JARDIM_ITAPURA_PRESIDENTE_PRUDENTE_BRASIL", "CIDADE": "PRESIDENTE_PRUDENTE", "LATITUDE": -22.1151959, "LONGITUDE": -51.3844939 }, "geometry": { "type": "Point", "coordinates": [ -51.3844939, -22.1151959 ] } },
{ "type": "Feature", "properties": { "CNPJ": 3808127300018, "AGENTE": "GABRIEL_ALBINO", "ACAO": "REALIZAR_PRIMEIRA_VISITA_POTENCIAL", "RAZAO_SOCIAL": "TFL_CIRURGIA_BUCOMAXILOFACIAL_IMPLANTES_E_CURSOS_LTDA", "ENDERECO": "AVENIDA_WASHINGTON_LUIZ_2536_JARDIM_PAULISTA_PRESIDENTE_PRUDENTE_BRASIL", "CIDADE": "PRESIDENTE_PRUDENTE", "LATITUDE": -22.1153654, "LONGITUDE": -51.4050221 }, "geometry": { "type": "Point", "coordinates": [ -51.4050221, -22.1153654 ] } },
{ "type": "Feature", "properties": { "CNPJ": 36866328000132, "AGENTE": "GABRIEL_ALBINO", "ACAO": "REALIZAR_PRIMEIRA_VISITA_POTENCIAL", "RAZAO_SOCIAL": "L._C._PEREIRA_SUPRIMENTOS", "ENDERECO": "AVENIDA_WASHINGTON_LUIZ_2580_JARDIM_PAULISTA_PRESIDENTE_PRUDENTE_BRASIL", "CIDADE": "PRESIDENTE_PRUDENTE", "LATITUDE": -22.1154633, "LONGITUDE": -51.4055274 }, "geometry": { "type": "Point", "coordinates": [ -51.4055274, -22.1154633 ] } },
{ "type": "Feature", "properties": { "CNPJ": 42804791000152, "AGENTE": "GABRIEL_ALBINO", "ACAO": "REALIZAR_PRIMEIRA_VISITA_POTENCIAL", "RAZAO_SOCIAL": "INGRID_CAROLINE_COSTA_E_SILVA", "ENDERECO": "RUA_GABRIEL_LESSA_295_VILA_LESSA_PRESIDENTE_PRUDENTE_BRASIL", "CIDADE": "PRESIDENTE_PRUDENTE", "LATITUDE": -22.1155557, "LONGITUDE": -51.3822315 }, "geometry": { "type": "Point", "coordinates": [ -51.3822315, -22.1155557 ] } },
{ "type": "Feature", "properties": { "CNPJ": 53047294000173, "AGENTE": "GABRIEL_ALBINO", "ACAO": "REALIZAR_PRIMEIRA_VISITA_POTENCIAL", "RAZAO_SOCIAL": "53.047.294_LUIZ_ROGERIO_PARRO_DE_OLIVEIRA", "ENDERECO": "RUA_RIBEIRO_DE_BARROS_909_JARDIM_AVIACAO_PRESIDENTE_PRUDENTE_BRASIL", "CIDADE": "PRESIDENTE_PRUDENTE", "LATITUDE": -22.1156411, "LONGITUDE": -51.3855458 }, "geometry": { "type": "Point", "coordinates": [ -51.3855458, -22.1156411 ] } },
{ "type": "Feature", "properties": { "CNPJ": 12378067000143, "AGENTE": "GABRIEL_ALBINO", "ACAO": "REALIZAR_PRIMEIRA_VISITA_POTENCIAL", "RAZAO_SOCIAL": "VIVA_LA_VIDA_BOUTIQUE_LTDA", "ENDERECO": "AVENIDA_MANOEL_GOULART_2400_JARDIM_DAS_ROSAS_PRESIDENTE_PRUDENTE_BRASIL", "CIDADE": "PRESIDENTE_PRUDENTE", "LATITUDE": -22.115923, "LONGITUDE": -51.40702 }, "geometry": { "type": "Point", "coordinates": [ -51.40702, -22.115923 ] } },
{ "type": "Feature", "properties": { "CNPJ": 35765121000109, "AGENTE": "GABRIEL_ALBINO", "ACAO": "REALIZAR_PRIMEIRA_VISITA_POTENCIAL", "RAZAO_SOCIAL": "ALDIRES_FERREIRA", "ENDERECO": "RUA_QUINZE_DE_NOVEMBRO_986_VILA_DUBUS_PRESIDENTE_PRUDENTE_BRASIL", "CIDADE": "PRESIDENTE_PRUDENTE", "LATITUDE": -22.1162007, "LONGITUDE": -51.3895165 }, "geometry": { "type": "Point", "coordinates": [ -51.3895165, -22.1162007 ] } },
{ "type": "Feature", "properties": { "CNPJ": 45106313000167, "AGENTE": "GABRIEL_ALBINO", "ACAO": "REALIZAR_PRIMEIRA_VISITA_POTENCIAL", "RAZAO_SOCIAL": "ADRIANO_FERREIRA_DOS_SANTOS", "ENDERECO": "RUA_EMILIO_MORI_482_RESIDENCIAL_PRESIDENTE_PRUDENTE_BRASIL", "CIDADE": "PRESIDENTE_PRUDENTE", "LATITUDE": -22.1163227, "LONGITUDE": -51.3904321 }, "geometry": { "type": "Point", "coordinates": [ -51.3904321, -22.1163227 ] } },
{ "type": "Feature", "properties": { "CNPJ": 5012370400012, "AGENTE": "GABRIEL_ALBINO", "ACAO": "REALIZAR_PRIMEIRA_VISITA_POTENCIAL", "RAZAO_SOCIAL": "TANIA_MARA_CANUTO_WHITACKER", "ENDERECO": "RUA_QUINZE_DE_NOVEMBRO_1035_VILA_DUBUS_PRESIDENTE_PRUDENTE_BRASIL", "CIDADE": "PRESIDENTE_PRUDENTE", "LATITUDE": -22.116708, "LONGITUDE": -51.389512 }, "geometry": { "type": "Point", "coordinates": [ -51.389512, -22.116708 ] } },
{ "type": "Feature", "properties": { "CNPJ": 35538689000197, "AGENTE": "GABRIEL_ALBINO", "ACAO": "REALIZAR_PRIMEIRA_VISITA_POTENCIAL", "RAZAO_SOCIAL": "BRUNO_CESAR_QUIRINO_DA_SILVA", "ENDERECO": "RUA_NAPOLEAO_DOS_SANTOS_MACHADO_294_JARDIM_DAS_ROSAS_PRESIDENTE_PRUDENTE_BRASIL", "CIDADE": "PRESIDENTE_PRUDENTE", "LATITUDE": -22.1169899, "LONGITUDE": -51.4125052 }, "geometry": { "type": "Point", "coordinates": [ -51.4125052, -22.1169899 ] } },
{ "type": "Feature", "properties": { "CNPJ": 9638519000174, "AGENTE": "GABRIEL_ALBINO", "ACAO": "REALIZAR_PRIMEIRA_VISITA_POTENCIAL", "RAZAO_SOCIAL": "A_B_MENDES_DE_BARROS", "ENDERECO": "RUA_SETE_DE_SETEMBRO_-_DE_1290/1291_AO_FIM_1306_VILA_DO_ESTADIO_PRESIDENTE_PRUDENTE_BRASIL", "CIDADE": "PRESIDENTE_PRUDENTE", "LATITUDE": -22.1170598, "LONGITUDE": -51.3921268 }, "geometry": { "type": "Point", "coordinates": [ -51.3921268, -22.1170598 ] } },
{ "type": "Feature", "properties": { "CNPJ": 2447824800012, "AGENTE": "GABRIEL_ALBINO", "ACAO": "REALIZAR_PRIMEIRA_VISITA_POTENCIAL", "RAZAO_SOCIAL": "AD.LINE_-_MOVEIS_PLANEJADOS_LTDA", "ENDERECO": "RUA_NAPOLEAO_DOS_SANTOS_MACHADO_299_JARDIM_DAS_ROSAS_PRESIDENTE_PRUDENTE_BRASIL", "CIDADE": "PRESIDENTE_PRUDENTE", "LATITUDE": -22.1170925, "LONGITUDE": -51.4128452 }, "geometry": { "type": "Point", "coordinates": [ -51.4128452, -22.1170925 ] } },
{ "type": "Feature", "properties": { "CNPJ": 43022143000107, "AGENTE": "GABRIEL_ALBINO", "ACAO": "REALIZAR_PRIMEIRA_VISITA_POTENCIAL", "RAZAO_SOCIAL": "CARLOS_CEZAR_GUEDES_CUSTODIO", "ENDERECO": "RUA_RUI_BARBOSA_-_DE_1361/1362_AO_FIM_1739_VILA_SANTA_HELENA_PRESIDENTE_PRUDENTE_BRASIL", "CIDADE": "PRESIDENTE_PRUDENTE", "LATITUDE": -22.1171817, "LONGITUDE": -51.4034745 }, "geometry": { "type": "Point", "coordinates": [ -51.4034745, -22.1171817 ] } },
{ "type": "Feature", "properties": { "CNPJ": 41725213000168, "AGENTE": "GABRIEL_ALBINO", "ACAO": "REALIZAR_PRIMEIRA_VISITA_POTENCIAL", "RAZAO_SOCIAL": "GIOVANA_DE_OLIVEIRA_BACARIN_GULIN", "ENDERECO": "RUA_GABRIEL_LESSA_40_VILA_LESSA_PRESIDENTE_PRUDENTE_BRASIL", "CIDADE": "PRESIDENTE_PRUDENTE", "LATITUDE": -22.1178403, "LONGITUDE": -51.3830249 }, "geometry": { "type": "Point", "coordinates": [ -51.3830249, -22.1178403 ] } },
{ "type": "Feature", "properties": { "CNPJ": 9039070000128, "AGENTE": "GABRIEL_ALBINO", "ACAO": "REALIZAR_PRIMEIRA_VISITA_POTENCIAL", "RAZAO_SOCIAL": "ANDRESSA_RIBEIRO_MOLINA", "ENDERECO": "RUA_JOAO_GONCALVES_FOZ_1909_JARDIM_MARUPIARA_PRESIDENTE_PRUDENTE_BRASIL", "CIDADE": "PRESIDENTE_PRUDENTE", "LATITUDE": -22.1180561, "LONGITUDE": -51.4104319 }, "geometry": { "type": "Point", "coordinates": [ -51.4104319, -22.1180561 ] } },
{ "type": "Feature", "properties": { "CNPJ": 47189977000162, "AGENTE": "GABRIEL_ALBINO", "ACAO": "REALIZAR_PRIMEIRA_VISITA_POTENCIAL", "RAZAO_SOCIAL": "47.189.977_GUSTAVO_HENRIQUE_BORGES_POLEGATI", "ENDERECO": "RUA_ANTONIO_ONOFRE_GERBASI_190_JARDIM_DAS_ROSAS_PRESIDENTE_PRUDENTE_BRASIL", "CIDADE": "PRESIDENTE_PRUDENTE", "LATITUDE": -22.1180984, "LONGITUDE": -51.4108084 }, "geometry": { "type": "Point", "coordinates": [ -51.4108084, -22.1180984 ] } },
{ "type": "Feature", "properties": { "CNPJ": 53991870000136, "AGENTE": "GABRIEL_ALBINO", "ACAO": "REALIZAR_PRIMEIRA_VISITA_POTENCIAL", "RAZAO_SOCIAL": "YOUCODE_SISTEMAS_LTDA", "ENDERECO": "RUA_FELICIO_LUIZARI_169_JARDIM_DAS_ROSAS_PRESIDENTE_PRUDENTE_BRASIL", "CIDADE": "PRESIDENTE_PRUDENTE", "LATITUDE": -22.1181797, "LONGITUDE": -51.413846 }, "geometry": { "type": "Point", "coordinates": [ -51.413846, -22.1181797 ] } },
{ "type": "Feature", "properties": { "CNPJ": 44082749000109, "AGENTE": "GABRIEL_ALBINO", "ACAO": "REALIZAR_PRIMEIRA_VISITA_POTENCIAL", "RAZAO_SOCIAL": "CATARINA_JAQUELINE_ALVES_DOS_SANTOS", "ENDERECO": "RUA_JACOB_BLUMER_156_RESIDENCIAL_PRESIDENTE_PRUDENTE_BRASIL", "CIDADE": "PRESIDENTE_PRUDENTE", "LATITUDE": -22.118256, "LONGITUDE": -51.3901008 }, "geometry": { "type": "Point", "coordinates": [ -51.3901008, -22.118256 ] } },
{ "type": "Feature", "properties": { "CNPJ": 44509379000135, "AGENTE": "GABRIEL_ALBINO", "ACAO": "REALIZAR_PRIMEIRA_VISITA_POTENCIAL", "RAZAO_SOCIAL": "MV_FERNANDES_DESENVOLVIMENTO_LTDA", "ENDERECO": "RUA_JACOB_BLUMER_156_RESIDENCIAL_PRESIDENTE_PRUDENTE_BRASIL", "CIDADE": "PRESIDENTE_PRUDENTE", "LATITUDE": -22.118256, "LONGITUDE": -51.3901008 }, "geometry": { "type": "Point", "coordinates": [ -51.3901008, -22.118256 ] } },
{ "type": "Feature", "properties": { "CNPJ": 671295000128, "AGENTE": "GABRIEL_ALBINO", "ACAO": "REALIZAR_PRIMEIRA_VISITA_POTENCIAL", "RAZAO_SOCIAL": "MEC_COMERCIO_DE_MAQUINAS_COPIADORAS_IMPRESSORAS_SUPRIMENTOS_E_ASSISTENCIA_TECNICA_LTDA", "ENDERECO": "TRAVESSA_JACOB_BLUMER_I_131_RESIDENCIAL_PRESIDENTE_PRUDENTE_BRASIL", "CIDADE": "PRESIDENTE_PRUDENTE", "LATITUDE": -22.1186761, "LONGITUDE": -51.3896203 }, "geometry": { "type": "Point", "coordinates": [ -51.3896203, -22.1186761 ] } },
{ "type": "Feature", "properties": { "CNPJ": 10915238000109, "AGENTE": "GABRIEL_ALBINO", "ACAO": "REALIZAR_PRIMEIRA_VISITA_POTENCIAL", "RAZAO_SOCIAL": "GISELA_NEVES_HORTA", "ENDERECO": "AVENIDA_MANOEL_GOULART_798_CENTRO_PRESIDENTE_PRUDENTE_BRASIL", "CIDADE": "PRESIDENTE_PRUDENTE", "LATITUDE": -22.1188811, "LONGITUDE": -51.4100462 }, "geometry": { "type": "Point", "coordinates": [ -51.4100462, -22.1188811 ] } },