{
"type": "FeatureCollection",
"name": "GABRIEL_ALBINO",
"crs": { "type": "name", "properties": { "name": "urn:ogc:def:crs:OGC:1.3:CRS84" } },
"xy_coordinate_resolution": 1e-15,
"features": [
{ "type": "Feature", "properties": { "CNPJ": 3915098000103, "AGENTE": "GABRIEL_ALBINO", "ACAO": "REALIZAR_SEGUNDA_VISITA", "RAZAO_SOCIAL": "MUNDO_DAS_FANTASIAS_-_COMERCIO_E_LOCACAO_DE_TRAJES_E_ACESSORIOS_LTDA", "ENDERECO": "AVENIDACORONELJOSESOARESMARCONDES_369_VILAMARISTELA_PRESIDENTEPRUDENTE", "CIDADE": "PRESIDENTE_PRUDENTE", "LATITUDE": -22.1152833, "LONGITUDE": -51.38433 }, "geometry": { "type": "Point", "coordinates": [ -51.38433, -22.1152833 ] } },
{ "type": "Feature", "properties": { "CNPJ": 10708373000175, "AGENTE": "GABRIEL_ALBINO", "ACAO": "REALIZAR_SEGUNDA_VISITA", "RAZAO_SOCIAL": "ALPHA_CONTABILIDADE_&_CONSULTORIA_TRIBUTARIA_LTDA", "ENDERECO": "AVENIDACORONELJOSESOARESMARCONDES_415_VILAMARISTELA_PRESIDENTEPRUDENTE", "CIDADE": "PRESIDENTE_PRUDENTE", "LATITUDE": -22.1156934, "LONGITUDE": -51.3843787 }, "geometry": { "type": "Point", "coordinates": [ -51.3843787, -22.1156934 ] } },
{ "type": "Feature", "properties": { "CNPJ": 3203788000121, "AGENTE": "GABRIEL_ALBINO", "ACAO": "REALIZAR_SEGUNDA_VISITA", "RAZAO_SOCIAL": "CENTRO_DE_FORMACAO_DE_CONDUTORES_TEORICO-TECNICO_CATEGORIA_A_DE_PRESIDENTE_PRUDENTE_E_REGIAO_S/S_LTDA", "ENDERECO": "RUASAOSEBASTIAO_239_VILAMACHADINHO_PRESIDENTEPRUDENTE", "CIDADE": "PRESIDENTE_PRUDENTE", "LATITUDE": -22.1164748, "LONGITUDE": -51.3877674 }, "geometry": { "type": "Point", "coordinates": [ -51.3877674, -22.1164748 ] } },
{ "type": "Feature", "properties": { "CNPJ": 16864457000184, "AGENTE": "GABRIEL_ALBINO", "ACAO": "REALIZAR_SEGUNDA_VISITA", "RAZAO_SOCIAL": "QUEEN_COMERCIO_DE_CONFECCAO_LTDA", "ENDERECO": "RUASAOSEBASTIAO_25_VILAMACHADINHO_PRESIDENTEPRUDENTE", "CIDADE": "PRESIDENTE_PRUDENTE", "LATITUDE": -22.1172613, "LONGITUDE": -51.3858044 }, "geometry": { "type": "Point", "coordinates": [ -51.3858044, -22.1172613 ] } },
{ "type": "Feature", "properties": { "CNPJ": 2644176000101, "AGENTE": "GABRIEL_ALBINO", "ACAO": "REALIZAR_SEGUNDA_VISITA", "RAZAO_SOCIAL": "HELCIO_KOOITI_WAKATE", "ENDERECO": "RUABARAODORIOBRANCO_750_CENTRO_PRESIDENTEPRUDENTE", "CIDADE": "PRESIDENTE_PRUDENTE", "LATITUDE": -22.1225993, "LONGITUDE": -51.3900564 }, "geometry": { "type": "Point", "coordinates": [ -51.3900564, -22.1225993 ] } },
{ "type": "Feature", "properties": { "CNPJ": 50466052000126, "AGENTE": "GABRIEL_ALBINO", "ACAO": "REALIZAR_SEGUNDA_VISITA", "RAZAO_SOCIAL": "50.466.052_WELLINGTON_FERREIRA_DE_SOUZA_-_WEPALU", "ENDERECO": "RUAPRINCESAISABEL_978_DRACENA_DRACENA", "CIDADE": "DRACENA", "LATITUDE": -21.4887234, "LONGITUDE": -51.536837 }, "geometry": { "type": "Point", "coordinates": [ -51.536837, -21.4887234 ] } },
{ "type": "Feature", "properties": { "CNPJ": 20140650000140, "AGENTE": "GABRIEL_ALBINO", "ACAO": "REALIZAR_SEGUNDA_VISITA", "RAZAO_SOCIAL": "R_F_CONTABILIDADE_LTDA_-_RF_CONTABILIDADE", "ENDERECO": "RUASETEDESETEMBRO_1400_VILADOESTADIO_PRESIDENTEPRUDENTE", "CIDADE": "PRESIDENTE_PRUDENTE", "LATITUDE": -22.1177622, "LONGITUDE": -51.3925576 }, "geometry": { "type": "Point", "coordinates": [ -51.3925576, -22.1177622 ] } },
{ "type": "Feature", "properties": { "CNPJ": 55244629000179, "AGENTE": "GABRIEL_ALBINO", "ACAO": "REALIZAR_SEGUNDA_VISITA", "RAZAO_SOCIAL": "55.244.629_ANDERSON_JOSE_DOS_SANTOS_CESARIO_-_BUSCAPE", "ENDERECO": "RUARUIBARBOSA_1713_VILASANTAHELENA_PRESIDENTEPRUDENTE", "CIDADE": "PRESIDENTE_PRUDENTE", "LATITUDE": -22.1195426, "LONGITUDE": -51.3992419 }, "geometry": { "type": "Point", "coordinates": [ -51.3992419, -22.1195426 ] } },
{ "type": "Feature", "properties": { "CNPJ": 30063000190, "AGENTE": "GABRIEL_ALBINO", "ACAO": "REALIZAR_SEGUNDA_VISITA", "RAZAO_SOCIAL": "C.J._DE_OLIVEIRA_FRIOS_E_LATICINIOS_-_EMPORIO_COLONIAL", "ENDERECO": "RUARUIBARBOSA_1145_CENTRO_PRESIDENTEPRUDENTE", "CIDADE": "PRESIDENTE_PRUDENTE", "LATITUDE": -22.1218245, "LONGITUDE": -51.3943421 }, "geometry": { "type": "Point", "coordinates": [ -51.3943421, -22.1218245 ] } },
{ "type": "Feature", "properties": { "CNPJ": 11699075000129, "AGENTE": "GABRIEL_ALBINO", "ACAO": "REALIZAR_SEGUNDA_VISITA", "RAZAO_SOCIAL": "S_C_QUEIROZ_TAYLOR_-_JHENIFER_CASA_DAS_PERUCAS", "ENDERECO": "RUARUIBARBOSA_578_CENTRO_PRESIDENTEPRUDENTE", "CIDADE": "PRESIDENTE_PRUDENTE", "LATITUDE": -22.1238965, "LONGITUDE": -51.3895054 }, "geometry": { "type": "Point", "coordinates": [ -51.3895054, -22.1238965 ] } },
{ "type": "Feature", "properties": { "CNPJ": 21280480000161, "AGENTE": "GABRIEL_ALBINO", "ACAO": "REALIZAR_SEGUNDA_VISITA", "RAZAO_SOCIAL": "21.280.480_TEREZA_APARECIDA_DA_SILVA_-_TENDA_DECORACAO", "ENDERECO": "RUARUIBARBOSA_588_CENTRO_PRESIDENTEPRUDENTE", "CIDADE": "PRESIDENTE_PRUDENTE", "LATITUDE": -22.1239016, "LONGITUDE": -51.3896598 }, "geometry": { "type": "Point", "coordinates": [ -51.3896598, -22.1239016 ] } },
{ "type": "Feature", "properties": { "CNPJ": 55285805000110, "AGENTE": "GABRIEL_ALBINO", "ACAO": "REALIZAR_SEGUNDA_VISITA", "RAZAO_SOCIAL": "LUCLER_DECORACOES_LTDA_-_ALUIZIO_DECORACOES", "ENDERECO": "AVENIDACORONELJOSESOARESMARCONDES_2635_VILAEUCLIDES_PRESIDENTEPRUDENTE", "CIDADE": "PRESIDENTE_PRUDENTE", "LATITUDE": -22.1239187, "LONGITUDE": -51.3896438 }, "geometry": { "type": "Point", "coordinates": [ -51.3896438, -22.1239187 ] } },
{ "type": "Feature", "properties": { "CNPJ": 51995737000122, "AGENTE": "GABRIEL_ALBINO", "ACAO": "REALIZAR_SEGUNDA_VISITA", "RAZAO_SOCIAL": "TIA_SANDRA_CENTRO_DE_ESTETICA_-_ESCOLA_GROOMER_LTDA_-_TIA_SANDRA", "ENDERECO": "RUARIBEIRODEBARROS_1944_VILADUBUS_PRESIDENTEPRUDENTE", "CIDADE": "PRESIDENTE_PRUDENTE", "LATITUDE": -22.1239196, "LONGITUDE": -51.3902517 }, "geometry": { "type": "Point", "coordinates": [ -51.3902517, -22.1239196 ] } },
{ "type": "Feature", "properties": { "CNPJ": 48344996000189, "AGENTE": "GABRIEL_ALBINO", "ACAO": "REALIZAR_SEGUNDA_VISITA", "RAZAO_SOCIAL": "48.344.996_EVELYN_SANTIAGO_QUIRINO_-_CENTRO_DE_ESTETICA_ANIMAL", "ENDERECO": "RUARIBEIRODEBARROS_1944_VILADUBUS_PRESIDENTEPRUDENTE", "CIDADE": "PRESIDENTE_PRUDENTE", "LATITUDE": -22.1239556, "LONGITUDE": -51.3902773 }, "geometry": { "type": "Point", "coordinates": [ -51.3902773, -22.1239556 ] } },
{ "type": "Feature", "properties": { "CNPJ": 15180155000124, "AGENTE": "GABRIEL_ALBINO", "ACAO": "REALIZAR_SEGUNDA_VISITA", "RAZAO_SOCIAL": "LOVANE_TEREZINHA_TARELLI_DA_SILVA_47392533134_-_NANE_STUDIO", "ENDERECO": "RUARUIBARBOSA_562_CENTRO_PRESIDENTEPRUDENTE", "CIDADE": "PRESIDENTE_PRUDENTE", "LATITUDE": -22.1240188, "LONGITUDE": -51.3894152 }, "geometry": { "type": "Point", "coordinates": [ -51.3894152, -22.1240188 ] } },
{ "type": "Feature", "properties": { "CNPJ": 60108800000152, "AGENTE": "GABRIEL_ALBINO", "ACAO": "REALIZAR_SEGUNDA_VISITA", "RAZAO_SOCIAL": "SIDNEI_BARILLE_-_BAILE_REI_DAS_MAQUINAS", "ENDERECO": "RUABARAODORIOBRANCO_444_VILADOESTADIO_PRESIDENTEPRUDENTE", "CIDADE": "PRESIDENTE_PRUDENTE", "LATITUDE": -22.1240241, "LONGITUDE": -51.3872415 }, "geometry": { "type": "Point", "coordinates": [ -51.3872415, -22.1240241 ] } },
{ "type": "Feature", "properties": { "CNPJ": 23059970000168, "AGENTE": "GABRIEL_ALBINO", "ACAO": "REALIZAR_SEGUNDA_VISITA", "RAZAO_SOCIAL": "NOCA_IMOVEIS_LTDA_-_NOCAO_IMOVEIS", "ENDERECO": "RUARUIBARBOSA_579_CENTRO_PRESIDENTEPRUDENTE", "CIDADE": "PRESIDENTE_PRUDENTE", "LATITUDE": -22.1240687, "LONGITUDE": -51.3895584 }, "geometry": { "type": "Point", "coordinates": [ -51.3895584, -22.1240687 ] } },
{ "type": "Feature", "properties": { "CNPJ": 48721895000180, "AGENTE": "GABRIEL_ALBINO", "ACAO": "REALIZAR_SEGUNDA_VISITA", "RAZAO_SOCIAL": "ANTONIO_DE_FARO_TEIXEIRA_04609785862_-_BAZAR_DA_COSTURA", "ENDERECO": "AVENIDACORONELJOSESOARESMARCONDES_1502_CENTRO_PRESIDENTEPRUDENTE", "CIDADE": "PRESIDENTE_PRUDENTE", "LATITUDE": -22.1241165, "LONGITUDE": -51.3894195 }, "geometry": { "type": "Point", "coordinates": [ -51.3894195, -22.1241165 ] } },
{ "type": "Feature", "properties": { "CNPJ": 55325831000125, "AGENTE": "GABRIEL_ALBINO", "ACAO": "REALIZAR_SEGUNDA_VISITA", "RAZAO_SOCIAL": "BAZAR_BRASILIA_PRESIDENTE_PRUDENTE_LTDA_-_BAZAR_BRASILIA", "ENDERECO": "AVENIDACORONELJOSESOARESMARCONDES_1477_CENTRO_PRESIDENTEPRUDENTE", "CIDADE": "PRESIDENTE_PRUDENTE", "LATITUDE": -22.1242658, "LONGITUDE": -51.3891403 }, "geometry": { "type": "Point", "coordinates": [ -51.3891403, -22.1242658 ] } },
{ "type": "Feature", "properties": { "CNPJ": 50741050000106, "AGENTE": "GABRIEL_ALBINO", "ACAO": "REALIZAR_SEGUNDA_VISITA", "RAZAO_SOCIAL": "BARUKA_PRODUTOS_NATURAIS_LTDA_-_BARUKA", "ENDERECO": "RUARUIBARBOSA_480_CENTRO_PRESIDENTEPRUDENTE", "CIDADE": "PRESIDENTE_PRUDENTE", "LATITUDE": -22.1243002, "LONGITUDE": -51.3885937 }, "geometry": { "type": "Point", "coordinates": [ -51.3885937, -22.1243002 ] } },
{ "type": "Feature", "properties": { "CNPJ": 59065543000130, "AGENTE": "GABRIEL_ALBINO", "ACAO": "REALIZAR_SEGUNDA_VISITA", "RAZAO_SOCIAL": "59.065.543_FERNANDA_DE_OLIVEIRA_QUINTILIANO_-_FERNANDA_CILIOS", "ENDERECO": "RUARUIBARBOSA_501_CENTRO_PRESIDENTEPRUDENTE", "CIDADE": "PRESIDENTE_PRUDENTE", "LATITUDE": -22.1243526, "LONGITUDE": -51.3890171 }, "geometry": { "type": "Point", "coordinates": [ -51.3890171, -22.1243526 ] } },
{ "type": "Feature", "properties": { "CNPJ": 31636388000145, "AGENTE": "GABRIEL_ALBINO", "ACAO": "REALIZAR_SEGUNDA_VISITA", "RAZAO_SOCIAL": "31.636.388_ALEXSANDRA_APARECIDA_NUNES_MARUITI_-_FRANQUIA_DOS_CABELOS", "ENDERECO": "RUARUIBARBOSA_501_CENTRO_PRESIDENTEPRUDENTE", "CIDADE": "PRESIDENTE_PRUDENTE", "LATITUDE": -22.124379, "LONGITUDE": -51.3889101 }, "geometry": { "type": "Point", "coordinates": [ -51.3889101, -22.124379 ] } },
{ "type": "Feature", "properties": { "CNPJ": 41589752000117, "AGENTE": "GABRIEL_ALBINO", "ACAO": "REALIZAR_SEGUNDA_VISITA", "RAZAO_SOCIAL": "CARLOS_ALBERTO_ZAVATIERI_24939495876_-_ZAVAS_CABELEIREIRO", "ENDERECO": "AVENIDACORONELJOSESOARESMARCONDES_1495_CENTRO_PRESIDENTEPRUDENTE", "CIDADE": "PRESIDENTE_PRUDENTE", "LATITUDE": -22.124396, "LONGITUDE": -51.3891993 }, "geometry": { "type": "Point", "coordinates": [ -51.3891993, -22.124396 ] } },
{ "type": "Feature", "properties": { "CNPJ": 47196891000167, "AGENTE": "GABRIEL_ALBINO", "ACAO": "REALIZAR_SEGUNDA_VISITA", "RAZAO_SOCIAL": "VICTOR_HUGO_FERRAZ_PONTES_ROUPAS_-_DIVINO_LOOK", "ENDERECO": "RUARUIBARBOSA_362_CENTRO_PRESIDENTEPRUDENTE", "CIDADE": "PRESIDENTE_PRUDENTE", "LATITUDE": -22.1246616, "LONGITUDE": -51.3876907 }, "geometry": { "type": "Point", "coordinates": [ -51.3876907, -22.1246616 ] } },
{ "type": "Feature", "properties": { "CNPJ": 57804213000193, "AGENTE": "GABRIEL_ALBINO", "ACAO": "REALIZAR_SEGUNDA_VISITA", "RAZAO_SOCIAL": "MAQ-CENTER_PAPELARIA_LTDA_-_MAQ_CENTER", "ENDERECO": "RUAJOAQUIMNABUCO_808_CENTRO_PRESIDENTEPRUDENTE", "CIDADE": "PRESIDENTE_PRUDENTE", "LATITUDE": -22.1247116, "LONGITUDE": -51.3884539 }, "geometry": { "type": "Point", "coordinates": [ -51.3884539, -22.1247116 ] } },
{ "type": "Feature", "properties": { "CNPJ": 27322416000182, "AGENTE": "GABRIEL_ALBINO", "ACAO": "REALIZAR_SEGUNDA_VISITA", "RAZAO_SOCIAL": "MARLI_PEREIRA_DA_SILVA_10922061831_-_SPACO_DELLAS", "ENDERECO": "AVENIDACORONELJOSESOARESMARCONDES_1550_CENTRO_PRESIDENTEPRUDENTE", "CIDADE": "PRESIDENTE_PRUDENTE", "LATITUDE": -22.1247198, "LONGITUDE": -51.3896145 }, "geometry": { "type": "Point", "coordinates": [ -51.3896145, -22.1247198 ] } },
{ "type": "Feature", "properties": { "CNPJ": 60161330000190, "AGENTE": "GABRIEL_ALBINO", "ACAO": "REALIZAR_SEGUNDA_VISITA", "RAZAO_SOCIAL": "60.161.330_ANA_CAROLINA_MOLERO_FLORES_-_STUDIO_HAIR_CAROL", "ENDERECO": "RUARUIBARBOSA_368_CENTRO_PRESIDENTEPRUDENTE", "CIDADE": "PRESIDENTE_PRUDENTE", "LATITUDE": -22.1247278, "LONGITUDE": -51.3877737 }, "geometry": { "type": "Point", "coordinates": [ -51.3877737, -22.1247278 ] } },
{ "type": "Feature", "properties": { "CNPJ": 25118024000251, "AGENTE": "GABRIEL_ALBINO", "ACAO": "REALIZAR_SEGUNDA_VISITA", "RAZAO_SOCIAL": "MENDES_E_MERINO_LTDA_-_PRIME", "ENDERECO": "RUARUIBARBOSA_354_CENTRO_PRESIDENTEPRUDENTE", "CIDADE": "PRESIDENTE_PRUDENTE", "LATITUDE": -22.1247785, "LONGITUDE": -51.3875699 }, "geometry": { "type": "Point", "coordinates": [ -51.3875699, -22.1247785 ] } },
{ "type": "Feature", "properties": { "CNPJ": 29974861000152, "AGENTE": "GABRIEL_ALBINO", "ACAO": "REALIZAR_SEGUNDA_VISITA", "RAZAO_SOCIAL": "HOMBRE_CONFECCOES_PRUDENTE_LTDA_-_HOMBRE", "ENDERECO": "RUAJOAQUIMNABUCO_809_CENTRO_PRESIDENTEPRUDENTE", "CIDADE": "PRESIDENTE_PRUDENTE", "LATITUDE": -22.1247828, "LONGITUDE": -51.3883851 }, "geometry": { "type": "Point", "coordinates": [ -51.3883851, -22.1247828 ] } },
{ "type": "Feature", "properties": { "CNPJ": 53298383000192, "AGENTE": "GABRIEL_ALBINO", "ACAO": "REALIZAR_SEGUNDA_VISITA", "RAZAO_SOCIAL": "53.298.383_MAISA_CIANFA_DA_GALLO_-_MAIS_GALO", "ENDERECO": "RUAJOAQUIMNABUCO_819_CENTRO_PRESIDENTEPRUDENTE", "CIDADE": "PRESIDENTE_PRUDENTE", "LATITUDE": -22.1248848, "LONGITUDE": -51.3884232 }, "geometry": { "type": "Point", "coordinates": [ -51.3884232, -22.1248848 ] } },
{ "type": "Feature", "properties": { "CNPJ": 47456797000108, "AGENTE": "GABRIEL_ALBINO", "ACAO": "REALIZAR_SEGUNDA_VISITA", "RAZAO_SOCIAL": "LAYRA_CRISTINA_MARTINS_COUTINHO_42566422850_-_COLT_SHOES", "ENDERECO": "RUAJOAQUIMNABUCO_819_CENTRO_PRESIDENTEPRUDENTE", "CIDADE": "PRESIDENTE_PRUDENTE", "LATITUDE": -22.1249474, "LONGITUDE": -51.3884036 }, "geometry": { "type": "Point", "coordinates": [ -51.3884036, -22.1249474 ] } },
{ "type": "Feature", "properties": { "CNPJ": 44229515000133, "AGENTE": "GABRIEL_ALBINO", "ACAO": "REALIZAR_SEGUNDA_VISITA", "RAZAO_SOCIAL": "KAREN_TIEROLLYN_SANCHES_JACINTO_43776273844_-_PARADA_DO_CROPPED", "ENDERECO": "RUARUIBARBOSA_279_CENTRO_PRESIDENTEPRUDENTE", "CIDADE": "PRESIDENTE_PRUDENTE", "LATITUDE": -22.1252568, "LONGITUDE": -51.3869963 }, "geometry": { "type": "Point", "coordinates": [ -51.3869963, -22.1252568 ] } },
{ "type": "Feature", "properties": { "CNPJ": 22067781000174, "AGENTE": "GABRIEL_ALBINO", "ACAO": "REALIZAR_SEGUNDA_VISITA", "RAZAO_SOCIAL": "RAFAEL_T_MESTRINELLI_-_MULT_COLCHOES", "ENDERECO": "AVENIDAMANOELGOULART_428_VILANOVA_PRESIDENTEPRUDENTE", "CIDADE": "PRESIDENTE_PRUDENTE", "LATITUDE": -22.1255945, "LONGITUDE": -51.3887789 }, "geometry": { "type": "Point", "coordinates": [ -51.3887789, -22.1255945 ] } },
{ "type": "Feature", "properties": { "CNPJ": 56444640000145, "AGENTE": "GABRIEL_ALBINO", "ACAO": "REALIZAR_SEGUNDA_VISITA", "RAZAO_SOCIAL": "56.444.640_JONATHAN_DOUGLAS_LIMA_COSTA_-_STUDIO_7", "ENDERECO": "RUAANTONIORODRIGUES_70_VILAMIRIAN_PRESIDENTEPRUDENTE", "CIDADE": "PRESIDENTE_PRUDENTE", "LATITUDE": -22.1256745, "LONGITUDE": -51.3877992 }, "geometry": { "type": "Point", "coordinates": [ -51.3877992, -22.1256745 ] } },
{ "type": "Feature", "properties": { "CNPJ": 68359074000152, "AGENTE": "GABRIEL_ALBINO", "ACAO": "REALIZAR_SEGUNDA_VISITA", "RAZAO_SOCIAL": "ANTONINHO_COMERCIO_DE_DECORACAO_LTDA_-_PAULAS_DECOR", "ENDERECO": "RUAMAJORFELICIOTARABAY_827_CENTRO_PRESIDENTEPRUDENTE", "CIDADE": "PRESIDENTE_PRUDENTE", "LATITUDE": -22.1260575, "LONGITUDE": -51.3866322 }, "geometry": { "type": "Point", "coordinates": [ -51.3866322, -22.1260575 ] } },
{ "type": "Feature", "properties": { "CNPJ": 21734963000199, "AGENTE": "GABRIEL_ALBINO", "ACAO": "REALIZAR_SEGUNDA_VISITA", "RAZAO_SOCIAL": "21.734.963_JACQUELINE_FRANCO_MODAELLI_MANEA_-_SABOR_DA_CASA", "ENDERECO": "RUATULIOCECHETTI_961_VILAFORMOSA_PRESIDENTEPRUDENTE", "CIDADE": "PRESIDENTE_PRUDENTE", "LATITUDE": -22.1437587, "LONGITUDE": -51.3971303 }, "geometry": { "type": "Point", "coordinates": [ -51.3971303, -22.1437587 ] } },
{ "type": "Feature", "properties": { "CNPJ": 59640517000198, "AGENTE": "GABRIEL_ALBINO", "ACAO": "REALIZAR_SEGUNDA_VISITA", "RAZAO_SOCIAL": "59.640.517_LEANDRO_RIBEIRO_MANEA_-_WESTBLEND", "ENDERECO": "RUATULIOCECHETTI_961_VILAFORMOSA_PRESIDENTEPRUDENTE", "CIDADE": "PRESIDENTE_PRUDENTE", "LATITUDE": -22.1437613, "LONGITUDE": -51.3971362 }, "geometry": { "type": "Point", "coordinates": [ -51.3971362, -22.1437613 ] } },
{ "type": "Feature", "properties": { "CNPJ": 4074904000112, "AGENTE": "GABRIEL_ALBINO", "ACAO": "REALIZAR_SEGUNDA_VISITA", "RAZAO_SOCIAL": "SAPO_COMERCIO_E_LOCACAO_DE_EQUIPAMENTOS_PARA_CONSTRUCAO_LTDA_-_SAPO_LOCACOES", "ENDERECO": "AVENIDABRASIL_3092_VILAFORMOSA_PRESIDENTEPRUDENTE", "CIDADE": "PRESIDENTE_PRUDENTE", "LATITUDE": -22.1451344, "LONGITUDE": -51.395447 }, "geometry": { "type": "Point", "coordinates": [ -51.395447, -22.1451344 ] } },
{ "type": "Feature", "properties": { "CNPJ": 5358433000137, "AGENTE": "GABRIEL_ALBINO", "ACAO": "REALIZAR_SEGUNDA_VISITA", "RAZAO_SOCIAL": "REGISLENE_CASSEMIRO_-_SAO_MARCOS_CASA_DE_CARNES", "ENDERECO": "RUACAMPESTRE_148_VILAFORMOSA_PRESIDENTEPRUDENTE", "CIDADE": "PRESIDENTE_PRUDENTE", "LATITUDE": -22.1455145, "LONGITUDE": -51.394305 }, "geometry": { "type": "Point", "coordinates": [ -51.394305, -22.1455145 ] } },
{ "type": "Feature", "properties": { "CNPJ": 38093974000130, "AGENTE": "GABRIEL_ALBINO", "ACAO": "REALIZAR_SEGUNDA_VISITA", "RAZAO_SOCIAL": "W_&_W_MARQUES_AUTO_PECAS_LTDA_-_MARQUES_AUTO_PECAS", "ENDERECO": "AVENIDABRASIL_3137_VILAFORMOSA_PRESIDENTEPRUDENTE", "CIDADE": "PRESIDENTE_PRUDENTE", "LATITUDE": -22.1455563, "LONGITUDE": -51.3953801 }, "geometry": { "type": "Point", "coordinates": [ -51.3953801, -22.1455563 ] } },
{ "type": "Feature", "properties": { "CNPJ": 33748909000181, "AGENTE": "GABRIEL_ALBINO", "ACAO": "REALIZAR_SEGUNDA_VISITA", "RAZAO_SOCIAL": "LIDERANCA_RADIADORES_LTDA_-_LIDERANCA_RADIADORES", "ENDERECO": "RUACAMPESTRE_168_VILAFORMOSA_PRESIDENTEPRUDENTE", "CIDADE": "PRESIDENTE_PRUDENTE", "LATITUDE": -22.145571, "LONGITUDE": -51.3940786 }, "geometry": { "type": "Point", "coordinates": [ -51.3940786, -22.145571 ] } },
{ "type": "Feature", "properties": { "CNPJ": 38136761000148, "AGENTE": "GABRIEL_ALBINO", "ACAO": "REALIZAR_SEGUNDA_VISITA", "RAZAO_SOCIAL": "VERDEMAQ_COMERCIO_DE_PECAS_AGRICOLAS_E_SERVICOS_DE_MANUTENCOES_LTDA_-_VERDMAQ", "ENDERECO": "RUACAMPESTRE_178_VILAFORMOSA_PRESIDENTEPRUDENTE", "CIDADE": "PRESIDENTE_PRUDENTE", "LATITUDE": -22.1455962, "LONGITUDE": -51.3938775 }, "geometry": { "type": "Point", "coordinates": [ -51.3938775, -22.1455962 ] } },
{ "type": "Feature", "properties": { "CNPJ": 8927124000129, "AGENTE": "GABRIEL_ALBINO", "ACAO": "REALIZAR_SEGUNDA_VISITA", "RAZAO_SOCIAL": "FUNAPEL_EMBALAGENS_LTDA_-_FUNAPEL", "ENDERECO": "RUAJOAOVICENTEMENDONCAFILHO_408_VILAFORMOSA_PRESIDENTEPRUDENTE", "CIDADE": "PRESIDENTE_PRUDENTE", "LATITUDE": -22.1455993, "LONGITUDE": -51.3922968 }, "geometry": { "type": "Point", "coordinates": [ -51.3922968, -22.1455993 ] } },
{ "type": "Feature", "properties": { "CNPJ": 30723264000134, "AGENTE": "GABRIEL_ALBINO", "ACAO": "REALIZAR_SEGUNDA_VISITA", "RAZAO_SOCIAL": "30.723.264_TAYLA_NILESSA_DE_LIMA_-_RETIFICA_PRUDENTE", "ENDERECO": "AVENIDABRASIL_3147_VILAFORMOSA_PRESIDENTEPRUDENTE", "CIDADE": "PRESIDENTE_PRUDENTE", "LATITUDE": -22.1456093, "LONGITUDE": -51.3954657 }, "geometry": { "type": "Point", "coordinates": [ -51.3954657, -22.1456093 ] } },
{ "type": "Feature", "properties": { "CNPJ": 23981185000168, "AGENTE": "GABRIEL_ALBINO", "ACAO": "REALIZAR_SEGUNDA_VISITA", "RAZAO_SOCIAL": "NELSON_BELLAFRONTE_JUNIOR_-_OFICINA_BELAFRONTE", "ENDERECO": "RUACAMPESTRE_275_VILAFORMOSA_PRESIDENTEPRUDENTE", "CIDADE": "PRESIDENTE_PRUDENTE", "LATITUDE": -22.1457175, "LONGITUDE": -51.3928188 }, "geometry": { "type": "Point", "coordinates": [ -51.3928188, -22.1457175 ] } },
{ "type": "Feature", "properties": { "CNPJ": 21602765000171, "AGENTE": "GABRIEL_ALBINO", "ACAO": "REALIZAR_SEGUNDA_VISITA", "RAZAO_SOCIAL": "MISSE_AGRO_FERRAMENTAS_LTDA_-_MISSE", "ENDERECO": "AVENIDABRASIL_3167_VILAFORMOSA_PRESIDENTEPRUDENTE", "CIDADE": "PRESIDENTE_PRUDENTE", "LATITUDE": -22.1458157, "LONGITUDE": -51.3953501 }, "geometry": { "type": "Point", "coordinates": [ -51.3953501, -22.1458157 ] } },
{ "type": "Feature", "properties": { "CNPJ": 46742829000160, "AGENTE": "GABRIEL_ALBINO", "ACAO": "REALIZAR_SEGUNDA_VISITA", "RAZAO_SOCIAL": "PRUDENFLEX_-_FERRAMENTAS__SERVICOS_E_LOCACOES_LTDA_-_PRUDENFLEX", "ENDERECO": "AVENIDABRASIL_3177_VILAFORMOSA_PRESIDENTEPRUDENTE", "CIDADE": "PRESIDENTE_PRUDENTE", "LATITUDE": -22.1458984, "LONGITUDE": -51.3956095 }, "geometry": { "type": "Point", "coordinates": [ -51.3956095, -22.1458984 ] } },
{ "type": "Feature", "properties": { "CNPJ": 48799670000146, "AGENTE": "GABRIEL_ALBINO", "ACAO": "REALIZAR_SEGUNDA_VISITA", "RAZAO_SOCIAL": "PRUDENTAO_AUTO_PECAS_LTDA_-_PRUDENTAO_AUTO_PECAS", "ENDERECO": "AVENIDABRASIL_3187_VILAFORMOSA_PRESIDENTEPRUDENTE", "CIDADE": "PRESIDENTE_PRUDENTE", "LATITUDE": -22.1459283, "LONGITUDE": -51.3957438 }, "geometry": { "type": "Point", "coordinates": [ -51.3957438, -22.1459283 ] } },
{ "type": "Feature", "properties": { "CNPJ": 60697030000120, "AGENTE": "GABRIEL_ALBINO", "ACAO": "REALIZAR_SEGUNDA_VISITA", "RAZAO_SOCIAL": "MECANICA_PRUDENTE_LTDA_-_MECANICA_PRUDENTE", "ENDERECO": "AVENIDABRASIL_3199_VILAFORMOSA_PRESIDENTEPRUDENTE", "CIDADE": "PRESIDENTE_PRUDENTE", "LATITUDE": -22.1460627, "LONGITUDE": -51.3956328 }, "geometry": { "type": "Point", "coordinates": [ -51.3956328, -22.1460627 ] } },
{ "type": "Feature", "properties": { "CNPJ": 11378413000120, "AGENTE": "GABRIEL_ALBINO", "ACAO": "REALIZAR_SEGUNDA_VISITA", "RAZAO_SOCIAL": "RRCB_RECUPERADORA_LTDA_-_EMBRESUL", "ENDERECO": "AVENIDABRASIL_3209_VILAFORMOSA_PRESIDENTEPRUDENTE", "CIDADE": "PRESIDENTE_PRUDENTE", "LATITUDE": -22.146165, "LONGITUDE": -51.3957492 }, "geometry": { "type": "Point", "coordinates": [ -51.3957492, -22.146165 ] } },
{ "type": "Feature", "properties": { "CNPJ": 19355831000104, "AGENTE": "GABRIEL_ALBINO", "ACAO": "REALIZAR_SEGUNDA_VISITA", "RAZAO_SOCIAL": "LT_TRATORES_E_MAQUINAS_LTDA_-_LT_TRATORES", "ENDERECO": "AVENIDABRASIL_3219_VILAFORMOSA_PRESIDENTEPRUDENTE", "CIDADE": "PRESIDENTE_PRUDENTE", "LATITUDE": -22.1462003, "LONGITUDE": -51.3957849 }, "geometry": { "type": "Point", "coordinates": [ -51.3957849, -22.1462003 ] } },
{ "type": "Feature", "properties": { "CNPJ": 19618525000113, "AGENTE": "GABRIEL_ALBINO", "ACAO": "REALIZAR_SEGUNDA_VISITA", "RAZAO_SOCIAL": "PIZZARIA_DO_JACKSON", "ENDERECO": "RUA_ERCILIO_CIRCO_NOGUEIRA_121_PADRE_HILARIO_PIRAPOZINHO_BRASIL", "CIDADE": "PIRAPOZINHO", "LATITUDE": -22.1455923, "LONGITUDE": -51.3922919 }, "geometry": { "type": "Point", "coordinates": [ -51.3922919, -22.1455923 ] } },
{ "type": "Feature", "properties": { "CNPJ": 26406301000103, "AGENTE": "GABRIEL_ALBINO", "ACAO": "REALIZAR_SEGUNDA_VISITA", "RAZAO_SOCIAL": "MADRE_MARIA_CHURROS", "ENDERECO": "RUA_VICTORIO_FOGLIA_47_JARDIM_COLINA_PRESIDENTE_PRUDENTE_BRASIL", "CIDADE": "PRESIDENTE_PRUDENTE", "LATITUDE": -22.1293498, "LONGITUDE": -51.4140414 }, "geometry": { "type": "Point", "coordinates": [ -51.4140414, -22.1293498 ] } },
{ "type": "Feature", "properties": { "CNPJ": 31282715000108, "AGENTE": "GABRIEL_ALBINO", "ACAO": "REALIZAR_SEGUNDA_VISITA", "RAZAO_SOCIAL": "VIA_RANGO", "ENDERECO": "AVENIDA_RAYMUNDO_NONATO_LIMA_465_CONJUNTO_HABITACIONAL_ANA_JACINTA_PRESIDENTE_PRUDENTE_BRASIL", "CIDADE": "PRESIDENTE_PRUDENTE", "LATITUDE": -22.1563248, "LONGITUDE": -51.4533082 }, "geometry": { "type": "Point", "coordinates": [ -51.4533082, -22.1563248 ] } },
{ "type": "Feature", "properties": { "CNPJ": 14720555000112, "AGENTE": "GABRIEL_ALBINO", "ACAO": "REALIZAR_SEGUNDA_VISITA", "RAZAO_SOCIAL": "CHARME_MODAS", "ENDERECO": "AVENIDA_RAYMUNDO_NONATO_LIMA_490_CONJUNTO_HABITACIONAL_ANA_JACINTA_PRESIDENTE_PRUDENTE_BRASIL", "CIDADE": "PRESIDENTE_PRUDENTE", "LATITUDE": -22.1561656, "LONGITUDE": -51.4534176 }, "geometry": { "type": "Point", "coordinates": [ -51.4534176, -22.1561656 ] } },
{ "type": "Feature", "properties": { "CNPJ": 44065831000117, "AGENTE": "GABRIEL_ALBINO", "ACAO": "REALIZAR_SEGUNDA_VISITA", "RAZAO_SOCIAL": "LITELES", "ENDERECO": "AVENIDA_RAYMUNDO_NONATO_LIMA_510_UEP4-S.1_PRESIDENTE_PRUDENTE_BRASIL", "CIDADE": "PRESIDENTE_PRUDENTE", "LATITUDE": -22.1562191, "LONGITUDE": -51.4534896 }, "geometry": { "type": "Point", "coordinates": [ -51.4534896, -22.1562191 ] } },
{ "type": "Feature", "properties": { "CNPJ": 34431543000185, "AGENTE": "GABRIEL_ALBINO", "ACAO": "REALIZAR_SEGUNDA_VISITA", "RAZAO_SOCIAL": "LA_BELA", "ENDERECO": "RUA_SEBASTIAO_DE_MOURA_644_RESIDENCIAL_MONTE_CARLO_PRESIDENTE_PRUDENTE_BRASIL", "CIDADE": "PRESIDENTE_PRUDENTE", "LATITUDE": -22.1559947, "LONGITUDE": -51.4592142 }, "geometry": { "type": "Point", "coordinates": [ -51.4592142, -22.1559947 ] } },
{ "type": "Feature", "properties": { "CNPJ": 43221127000143, "AGENTE": "GABRIEL_ALBINO", "ACAO": "REALIZAR_SEGUNDA_VISITA", "RAZAO_SOCIAL": "AGILIZA", "ENDERECO": "AVENIDA_JOSE_PERES_VARGAS_363_JARDIM_NOVO_PRUDENTINO_PRESIDENTE_PRUDENTE_BRASIL", "CIDADE": "PRESIDENTE_PRUDENTE", "LATITUDE": -22.1577925, "LONGITUDE": -51.4592202 }, "geometry": { "type": "Point", "coordinates": [ -51.4592202, -22.1577925 ] } },
{ "type": "Feature", "properties": { "CNPJ": 11550991000100, "AGENTE": "GABRIEL_ALBINO", "ACAO": "REALIZAR_SEGUNDA_VISITA", "RAZAO_SOCIAL": "SATO_GAS_E_AGUA", "ENDERECO": "RUA_BARAO_DO_RIO_BRANCO_1510_VILA_DO_ESTADIO_PRESIDENTE_PRUDENTE_BRASIL", "CIDADE": "PRESIDENTE_PRUDENTE", "LATITUDE": -22.1194606, "LONGITUDE": -51.3964393 }, "geometry": { "type": "Point", "coordinates": [ -51.3964393, -22.1194606 ] } },
{ "type": "Feature", "properties": { "CNPJ": 1173554000153, "AGENTE": "GABRIEL_ALBINO", "ACAO": "REALIZAR_PRIMEIRA_VISITA", "RAZAO_SOCIAL": "ADALBERTO_DESPENCIERI_DRACENA", "ENDERECO": "AVENIDAPRESIDENTEROOSEVELT_1134_CENTRO_DRACENA", "CIDADE": "DRACENA", "LATITUDE": -21.4872136, "LONGITUDE": -51.5388556 }, "geometry": { "type": "Point", "coordinates": [ -51.5388556, -21.4872136 ] } },
{ "type": "Feature", "properties": { "CNPJ": 65436016000197, "AGENTE": "GABRIEL_ALBINO", "ACAO": "REALIZAR_PRIMEIRA_VISITA", "RAZAO_SOCIAL": "COMERCIAL_KONDA_LTDA", "ENDERECO": "AVENIDAPRESIDENTEROOSEVELT_1168_CENTRO_DRACENA", "CIDADE": "DRACENA", "LATITUDE": -21.4872545, "LONGITUDE": -51.5391073 }, "geometry": { "type": "Point", "coordinates": [ -51.5391073, -21.4872545 ] } },
{ "type": "Feature", "properties": { "CNPJ": 47618269000108, "AGENTE": "GABRIEL_ALBINO", "ACAO": "REALIZAR_PRIMEIRA_VISITA", "RAZAO_SOCIAL": "TSUBOI_COMERCIO_DE_PNEUS_DRACENA_LTDA", "ENDERECO": "AVENIDAPRESIDENTEROOSEVELT_1108_CENTRO_DRACENA", "CIDADE": "DRACENA", "LATITUDE": -21.4875902, "LONGITUDE": -51.5382281 }, "geometry": { "type": "Point", "coordinates": [ -51.5382281, -21.4875902 ] } },
{ "type": "Feature", "properties": { "CNPJ": 8088087000102, "AGENTE": "GABRIEL_ALBINO", "ACAO": "REALIZAR_PRIMEIRA_VISITA", "RAZAO_SOCIAL": "RODRIGO_AKAHOSHI_GASPARELLI", "ENDERECO": "RUASAOPAULO_981_DRACENA_DRACENA", "CIDADE": "DRACENA", "LATITUDE": -21.4876168, "LONGITUDE": -51.539583 }, "geometry": { "type": "Point", "coordinates": [ -51.539583, -21.4876168 ] } },
{ "type": "Feature", "properties": { "CNPJ": 48423036000104, "AGENTE": "GABRIEL_ALBINO", "ACAO": "REALIZAR_PRIMEIRA_VISITA", "RAZAO_SOCIAL": "CARBONE_&_LIMA_LTDA", "ENDERECO": "RUAVISCONDEDORIOBRANCO_995_CENTRO_DRACENA", "CIDADE": "DRACENA", "LATITUDE": -21.4876498, "LONGITUDE": -51.5385982 }, "geometry": { "type": "Point", "coordinates": [ -51.5385982, -21.4876498 ] } },
{ "type": "Feature", "properties": { "CNPJ": 30258915000162, "AGENTE": "GABRIEL_ALBINO", "ACAO": "REALIZAR_PRIMEIRA_VISITA", "RAZAO_SOCIAL": "R_C_DE_SOUZA_RODRIGUES_BOUTIQUE_LTDA", "ENDERECO": "AVENIDAPRESIDENTEROOSEVELT_529_CENTRO_DRACENA", "CIDADE": "DRACENA", "LATITUDE": -21.4888841, "LONGITUDE": -51.5333029 }, "geometry": { "type": "Point", "coordinates": [ -51.5333029, -21.4888841 ] } },
{ "type": "Feature", "properties": { "CNPJ": 7047664000155, "AGENTE": "GABRIEL_ALBINO", "ACAO": "REALIZAR_PRIMEIRA_VISITA", "RAZAO_SOCIAL": "SANTI_&_SCALIANTE_LIVRARIA_LTDA", "ENDERECO": "AVENIDAPRESIDENTEROOSEVELT_537_CENTRO_DRACENA", "CIDADE": "DRACENA", "LATITUDE": -21.4888919, "LONGITUDE": -51.5333436 }, "geometry": { "type": "Point", "coordinates": [ -51.5333436, -21.4888919 ] } },
{ "type": "Feature", "properties": { "CNPJ": 7083706000103, "AGENTE": "GABRIEL_ALBINO", "ACAO": "REALIZAR_PRIMEIRA_VISITA", "RAZAO_SOCIAL": "JONAS_KOJI_SATO", "ENDERECO": "RUAMONTECASTELO_1066_CENTRO_DRACENA", "CIDADE": "DRACENA", "LATITUDE": -21.4891655, "LONGITUDE": -51.5334702 }, "geometry": { "type": "Point", "coordinates": [ -51.5334702, -21.4891655 ] } },
{ "type": "Feature", "properties": { "CNPJ": 27828885000178, "AGENTE": "GABRIEL_ALBINO", "ACAO": "REALIZAR_PRIMEIRA_VISITA", "RAZAO_SOCIAL": "MEDICAL_PET_CLINICA_VETERINARIA_LTDA", "ENDERECO": "RUAMONTECASTELO_1073_CENTRO_DRACENA", "CIDADE": "DRACENA", "LATITUDE": -21.4891758, "LONGITUDE": -51.5338741 }, "geometry": { "type": "Point", "coordinates": [ -51.5338741, -21.4891758 ] } },
{ "type": "Feature", "properties": { "CNPJ": 37833541000291, "AGENTE": "GABRIEL_ALBINO", "ACAO": "REALIZAR_PRIMEIRA_VISITA", "RAZAO_SOCIAL": "RECANTO_DAS_FLORES_NASCIMENTO_LTDA", "ENDERECO": "AVENIDAJOSEBONIFACIO_973_CENTRO_DRACENA", "CIDADE": "DRACENA", "LATITUDE": -21.4894819, "LONGITUDE": -51.5350138 }, "geometry": { "type": "Point", "coordinates": [ -51.5350138, -21.4894819 ] } },
{ "type": "Feature", "properties": { "CNPJ": 8826468000141, "AGENTE": "GABRIEL_ALBINO", "ACAO": "REALIZAR_PRIMEIRA_VISITA", "RAZAO_SOCIAL": "CORNELIO_IGNACIO_DA_SILVA", "ENDERECO": "AVENIDAJOSEBONIFACIO_951_CENTRO_DRACENA", "CIDADE": "DRACENA", "LATITUDE": -21.4897607, "LONGITUDE": -51.5348253 }, "geometry": { "type": "Point", "coordinates": [ -51.5348253, -21.4897607 ] } },
{ "type": "Feature", "properties": { "CNPJ": 37501878000110, "AGENTE": "GABRIEL_ALBINO", "ACAO": "REALIZAR_PRIMEIRA_VISITA", "RAZAO_SOCIAL": "F_M_DIONIZIO_PET_SHOP_LTDA", "ENDERECO": "RUAALVINOGOMESTEIXEIRA_2140_PARQUEFURQUIM_PRESIDENTEPRUDENTE", "CIDADE": "PRESIDENTE_PRUDENTE", "LATITUDE": -22.1029471, "LONGITUDE": -51.3887156 }, "geometry": { "type": "Point", "coordinates": [ -51.3887156, -22.1029471 ] } },
{ "type": "Feature", "properties": { "CNPJ": 61292959000132, "AGENTE": "GABRIEL_ALBINO", "ACAO": "REALIZAR_PRIMEIRA_VISITA", "RAZAO_SOCIAL": "TERRA_PIRES_&_CIA_LTDA", "ENDERECO": "AVENIDAWASHINGTONLUIZ_2046_JARDIMPAULISTA_PRESIDENTEPRUDENTE", "CIDADE": "PRESIDENTE_PRUDENTE", "LATITUDE": -22.1158657, "LONGITUDE": -51.4005718 }, "geometry": { "type": "Point", "coordinates": [ -51.4005718, -22.1158657 ] } },
{ "type": "Feature", "properties": { "CNPJ": 446092000138, "AGENTE": "GABRIEL_ALBINO", "ACAO": "REALIZAR_PRIMEIRA_VISITA", "RAZAO_SOCIAL": "LIMP-LAR_INDUSTRIA_E_COMERCIO_DE_MATERIAIS_DE_LIMPEZA_LTDA", "ENDERECO": "RUABARAODORIOBRANCO_1680_VILASANTAHELENA_PRESIDENTEPRUDENTE", "CIDADE": "PRESIDENTE_PRUDENTE", "LATITUDE": -22.1188529, "LONGITUDE": -51.3980466 }, "geometry": { "type": "Point", "coordinates": [ -51.3980466, -22.1188529 ] } },
{ "type": "Feature", "properties": { "CNPJ": 58363635000133, "AGENTE": "GABRIEL_ALBINO", "ACAO": "REALIZAR_PRIMEIRA_VISITA", "RAZAO_SOCIAL": "EVOLUIREE_CENTRO_MULTIDISCIPLINAR_PARA_ANALISE_E_INTERVENCAO_COMPORTAMENTAL_LTDA", "ENDERECO": "AVENIDAGETULIOVARGAS_143_BOSQUE_PRESIDENTEPRUDENTE", "CIDADE": "PRESIDENTE_PRUDENTE", "LATITUDE": -22.1190128, "LONGITUDE": -51.3828194 }, "geometry": { "type": "Point", "coordinates": [ -51.3828194, -22.1190128 ] } },
{ "type": "Feature", "properties": { "CNPJ": 20424608000150, "AGENTE": "GABRIEL_ALBINO", "ACAO": "REALIZAR_PRIMEIRA_VISITA", "RAZAO_SOCIAL": "SOLANGE_SAKIMI_SATO_MATTOS", "ENDERECO": "RUABARAODORIOBRANCO_1510_VILASANTAHELENA_PRESIDENTEPRUDENTE", "CIDADE": "PRESIDENTE_PRUDENTE", "LATITUDE": -22.1194814, "LONGITUDE": -51.3964258 }, "geometry": { "type": "Point", "coordinates": [ -51.3964258, -22.1194814 ] } },
{ "type": "Feature", "properties": { "CNPJ": 36089247000173, "AGENTE": "GABRIEL_ALBINO", "ACAO": "REALIZAR_PRIMEIRA_VISITA", "RAZAO_SOCIAL": "MITIGOU_TECH_CURSOS_E_TREINAMENTOS_LTDA", "ENDERECO": "RUABARAODORIOBRANCO_999_CENTRO_PRESIDENTEPRUDENTE", "CIDADE": "PRESIDENTE_PRUDENTE", "LATITUDE": -22.1219236, "LONGITUDE": -51.3920562 }, "geometry": { "type": "Point", "coordinates": [ -51.3920562, -22.1219236 ] } },
{ "type": "Feature", "properties": { "CNPJ": 38300384000130, "AGENTE": "GABRIEL_ALBINO", "ACAO": "REALIZAR_PRIMEIRA_VISITA", "RAZAO_SOCIAL": "MLE_TOP_BARATO_MANIA_LTDA", "ENDERECO": "AVENIDACORONELJOSESOARESMARCONDES_1591_VILAEUCLIDES_PRESIDENTEPRUDENTE", "CIDADE": "PRESIDENTE_PRUDENTE", "LATITUDE": -22.1252856, "LONGITUDE": -51.3896659 }, "geometry": { "type": "Point", "coordinates": [ -51.3896659, -22.1252856 ] } },
{ "type": "Feature", "properties": { "CNPJ": 20097673000119, "AGENTE": "GABRIEL_ALBINO", "ACAO": "REALIZAR_PRIMEIRA_VISITA", "RAZAO_SOCIAL": "ALVES_DIAS_AUTOELETRICA_LTDA", "ENDERECO": "RUASARGENTOFIRMINOLEAO_153_VILAMARCONDES_PRESIDENTEPRUDENTE", "CIDADE": "PRESIDENTE_PRUDENTE", "LATITUDE": -22.1254287, "LONGITUDE": -51.3812828 }, "geometry": { "type": "Point", "coordinates": [ -51.3812828, -22.1254287 ] } },
{ "type": "Feature", "properties": { "CNPJ": 47063094000101, "AGENTE": "GABRIEL_ALBINO", "ACAO": "REALIZAR_PRIMEIRA_VISITA", "RAZAO_SOCIAL": "CIRULABOR_PRODUTOS_CIRURGICOS_LTDA", "ENDERECO": "RUAJOSETHEODORO_126_VILAEUCLIDES_PRESIDENTEPRUDENTE", "CIDADE": "PRESIDENTE_PRUDENTE", "LATITUDE": -22.1276372, "LONGITUDE": -51.3930304 }, "geometry": { "type": "Point", "coordinates": [ -51.3930304, -22.1276372 ] } },
{ "type": "Feature", "properties": { "CNPJ": 10495973000100, "AGENTE": "GABRIEL_ALBINO", "ACAO": "REALIZAR_PRIMEIRA_VISITA", "RAZAO_SOCIAL": "T._A._PEREIRA_LANCHONETE", "ENDERECO": "RUAABILIONASCIMENTO_1320_JARDIMSANTAMARTA_PRESIDENTEPRUDENTE", "CIDADE": "PRESIDENTE_PRUDENTE", "LATITUDE": -22.1387481, "LONGITUDE": -51.37594 }, "geometry": { "type": "Point", "coordinates": [ -51.37594, -22.1387481 ] } },
{ "type": "Feature", "properties": { "CNPJ": 72692569000176, "AGENTE": "GABRIEL_ALBINO", "ACAO": "REALIZAR_PRIMEIRA_VISITA", "RAZAO_SOCIAL": "LANCHONETE_O_REI_DO_MOCOTO_PRESIDENTE_PRUDENTE_LTDA", "ENDERECO": "RUABENEDITOSOARESMARCONDES_877_VILARAMOSDEFREITAS_PRESIDENTEPRUDENTE", "CIDADE": "PRESIDENTE_PRUDENTE", "LATITUDE": -22.1400614, "LONGITUDE": -51.3795322 }, "geometry": { "type": "Point", "coordinates": [ -51.3795322, -22.1400614 ] } },
{ "type": "Feature", "properties": { "CNPJ": 66577222000180, "AGENTE": "GABRIEL_ALBINO", "ACAO": "REALIZAR_PRIMEIRA_VISITA", "RAZAO_SOCIAL": "VANESSA_DE_SOUSA_PAZOTE_ZAQUI_LTDA", "ENDERECO": "RUAANTONIOROBLESFERNANDES_101_JARDIMNOVAPLANALTINA_PRESIDENTEPRUDENTE", "CIDADE": "PRESIDENTE_PRUDENTE", "LATITUDE": -22.1430765, "LONGITUDE": -51.3820949 }, "geometry": { "type": "Point", "coordinates": [ -51.3820949, -22.1430765 ] } },
{ "type": "Feature", "properties": { "CNPJ": 74274648000192, "AGENTE": "GABRIEL_ALBINO", "ACAO": "REALIZAR_PRIMEIRA_VISITA", "RAZAO_SOCIAL": "DROGARIA_MARIOTO_PRESIDENTE_PRUDENTE_LTDA", "ENDERECO": "RUAJOAQUIMMARQUESCALDEIRA_274_JARDIMBRASILIA_PRESIDENTEPRUDENTE", "CIDADE": "PRESIDENTE_PRUDENTE", "LATITUDE": -22.143695, "LONGITUDE": -51.3859219 }, "geometry": { "type": "Point", "coordinates": [ -51.3859219, -22.143695 ] } },
{ "type": "Feature", "properties": { "CNPJ": 5435173000156, "AGENTE": "GABRIEL_ALBINO", "ACAO": "REALIZAR_PRIMEIRA_VISITA", "RAZAO_SOCIAL": "M.M._COMERCIO_DE_GAS_PRESIDENTE_PRUDENTE_LTDA", "ENDERECO": "RUAALBERTOARTONI_35_JARDIMSANTANA_PRESIDENTEPRUDENTE", "CIDADE": "PRESIDENTE_PRUDENTE", "LATITUDE": -22.146272, "LONGITUDE": -51.3853109 }, "geometry": { "type": "Point", "coordinates": [ -51.3853109, -22.146272 ] } },
{ "type": "Feature", "properties": { "CNPJ": 3314418000161, "AGENTE": "GABRIEL_ALBINO", "ACAO": "REALIZAR_PRIMEIRA_VISITA", "RAZAO_SOCIAL": "M_C_GOMES_COMERCIAL_LTDA", "ENDERECO": "RUAJOSEMENUZZI_13_JARDIMSANTANA_PRESIDENTEPRUDENTE", "CIDADE": "PRESIDENTE_PRUDENTE", "LATITUDE": -22.1463695, "LONGITUDE": -51.3857917 }, "geometry": { "type": "Point", "coordinates": [ -51.3857917, -22.1463695 ] } },
{ "type": "Feature", "properties": { "CNPJ": 3351862000157, "AGENTE": "GABRIEL_ALBINO", "ACAO": "REALIZAR_PRIMEIRA_VISITA", "RAZAO_SOCIAL": "LOVITHA_TRANSPORTES_LTDA", "ENDERECO": "RUACARLOSIGNACIOALCENCIO_152_JARDIMPLANALTO_PRESIDENTEPRUDENTE", "CIDADE": "PRESIDENTE_PRUDENTE", "LATITUDE": -22.1497919, "LONGITUDE": -51.3863029 }, "geometry": { "type": "Point", "coordinates": [ -51.3863029, -22.1497919 ] } }
]
}
