{
"type": "FeatureCollection",
"name": "GISLAINE_BOTELHO",
"crs": { "type": "name", "properties": { "name": "urn:ogc:def:crs:OGC:1.3:CRS84" } },
"xy_coordinate_resolution": 1e-15,
"features": [
{ "type": "Feature", "properties": { "CNPJ": 9441497000158, "AGENTE": "GISLAINE_BOTELHO", "ACAO": "URGENTE_REALIZAR_PRIMEIRA_VISITA", "RAZAO_SOCIAL": "VANDO_GUERREIRO_SANTOS", "ENDERECO": "RUAPRUDENTEDEMORAES_100_CENTRO_QUELUZ", "CIDADE": "QUELUZ", "LATITUDE": -22.5393391, "LONGITUDE": -44.7736735, "BASE": "URGENTE_" }, "geometry": { "type": "Point", "coordinates": [ -44.7736735, -22.5393391 ] } },
{ "type": "Feature", "properties": { "CNPJ": 49217543000154, "AGENTE": "GISLAINE_BOTELHO", "ACAO": "URGENTE_REALIZAR_PRIMEIRA_VISITA", "RAZAO_SOCIAL": "JN_PRODUTOS_NATURAIS_LTDA", "ENDERECO": "RUADOUTOROSCARDEALMEIDA_7_CENTRO_QUELUZ", "CIDADE": "QUELUZ", "LATITUDE": -22.5404283, "LONGITUDE": -44.7730117, "BASE": "URGENTE_" }, "geometry": { "type": "Point", "coordinates": [ -44.7730117, -22.5404283 ] } },
{ "type": "Feature", "properties": { "CNPJ": 43928086000120, "AGENTE": "GISLAINE_BOTELHO", "ACAO": "URGENTE_REALIZAR_PRIMEIRA_VISITA", "RAZAO_SOCIAL": "ANA_FLAVIA_MORADEI_DE_SIQUEIRA", "ENDERECO": "PRACAMARECHALFLORIANOPIEXOTO_26_CENTRO_QUELUZ", "CIDADE": "QUELUZ", "LATITUDE": -22.5404685, "LONGITUDE": -44.7725684, "BASE": "URGENTE_" }, "geometry": { "type": "Point", "coordinates": [ -44.7725684, -22.5404685 ] } },
{ "type": "Feature", "properties": { "CNPJ": 20215460000144, "AGENTE": "GISLAINE_BOTELHO", "ACAO": "URGENTE_REALIZAR_PRIMEIRA_VISITA", "RAZAO_SOCIAL": "FABIO_DA_SILVA_DE_PAIVA", "ENDERECO": "RUACORONELMANOELHORTA_141_CENTRO_LAVRINHAS", "CIDADE": "LAVRINHAS", "LATITUDE": -22.5670768, "LONGITUDE": -44.9068049, "BASE": "URGENTE_" }, "geometry": { "type": "Point", "coordinates": [ -44.9068049, -22.5670768 ] } },
{ "type": "Feature", "properties": { "CNPJ": 2452953000116, "AGENTE": "GISLAINE_BOTELHO", "ACAO": "URGENTE_REALIZAR_PRIMEIRA_VISITA", "RAZAO_SOCIAL": "SEBASTIAO_TAVARES_FILHO_-_AREIAS", "ENDERECO": "AVENIDASIQUEIRACAMPOS_225_CENTRO_AREIAS", "CIDADE": "AREIAS", "LATITUDE": -22.5809184, "LONGITUDE": -44.6945526, "BASE": "URGENTE_" }, "geometry": { "type": "Point", "coordinates": [ -44.6945526, -22.5809184 ] } },
{ "type": "Feature", "properties": { "CNPJ": 45339527000183, "AGENTE": "GISLAINE_BOTELHO", "ACAO": "URGENTE_REALIZAR_PRIMEIRA_VISITA", "RAZAO_SOCIAL": "JOHELI_STORE_RACOES_E_MATERIAIS_PARA_CONSTRUCAO_LTDA", "ENDERECO": "RUACOMENDADORSAMPAIO_259_CENTRO_AREIAS", "CIDADE": "AREIAS", "LATITUDE": -22.5810184, "LONGITUDE": -44.6942441, "BASE": "URGENTE_" }, "geometry": { "type": "Point", "coordinates": [ -44.6942441, -22.5810184 ] } },
{ "type": "Feature", "properties": { "CNPJ": 27105850000100, "AGENTE": "GISLAINE_BOTELHO", "ACAO": "URGENTE_REALIZAR_PRIMEIRA_VISITA", "RAZAO_SOCIAL": "ADRIANO_JOSE_RODRIGUES", "ENDERECO": "RUAQUINZEDENOVEMBRO_109_CENTRO_AREIAS", "CIDADE": "AREIAS", "LATITUDE": -22.5810365, "LONGITUDE": -44.698346, "BASE": "URGENTE_" }, "geometry": { "type": "Point", "coordinates": [ -44.698346, -22.5810365 ] } },
{ "type": "Feature", "properties": { "CNPJ": 18383637000170, "AGENTE": "GISLAINE_BOTELHO", "ACAO": "URGENTE_REALIZAR_PRIMEIRA_VISITA", "RAZAO_SOCIAL": "CARLOS_EDUARDO_DE_SOUZA_CARDOSO", "ENDERECO": "AVENIDASIQUEIRACAMPOS_341_CENTRO_AREIAS", "CIDADE": "AREIAS", "LATITUDE": -22.5813203, "LONGITUDE": -44.6936419, "BASE": "URGENTE_" }, "geometry": { "type": "Point", "coordinates": [ -44.6936419, -22.5813203 ] } },
{ "type": "Feature", "properties": { "CNPJ": 46435342000135, "AGENTE": "GISLAINE_BOTELHO", "ACAO": "URGENTE_REALIZAR_PRIMEIRA_VISITA", "RAZAO_SOCIAL": "SOUZA_E_RODRIGUES_LOJA_DE_VARIEDADES_LTDA", "ENDERECO": "AVENIDASIQUEIRACAMPOS_480_CENTRO_AREIAS", "CIDADE": "AREIAS", "LATITUDE": -22.5813772, "LONGITUDE": -44.6922301, "BASE": "URGENTE_" }, "geometry": { "type": "Point", "coordinates": [ -44.6922301, -22.5813772 ] } },
{ "type": "Feature", "properties": { "CNPJ": 62846829000167, "AGENTE": "GISLAINE_BOTELHO", "ACAO": "URGENTE_REALIZAR_PRIMEIRA_VISITA", "RAZAO_SOCIAL": "ANA_MASAKO_USSUHI", "ENDERECO": "RUADOPIQUETE_67_CENTRO_PIQUETE", "CIDADE": "PIQUETE", "LATITUDE": -22.6083967, "LONGITUDE": -45.18465, "BASE": "URGENTE_" }, "geometry": { "type": "Point", "coordinates": [ -45.18465, -22.6083967 ] } },
{ "type": "Feature", "properties": { "CNPJ": 8870582000179, "AGENTE": "GISLAINE_BOTELHO", "ACAO": "URGENTE_REALIZAR_PRIMEIRA_VISITA", "RAZAO_SOCIAL": "DAYANE_LOURENCO_DA_SILVA", "ENDERECO": "RUADOPIQUETE_6_CENTRO_PIQUETE", "CIDADE": "PIQUETE", "LATITUDE": -22.60866, "LONGITUDE": -45.183485, "BASE": "URGENTE_" }, "geometry": { "type": "Point", "coordinates": [ -45.183485, -22.60866 ] } },
{ "type": "Feature", "properties": { "CNPJ": 50384730000101, "AGENTE": "GISLAINE_BOTELHO", "ACAO": "URGENTE_REALIZAR_PRIMEIRA_VISITA", "RAZAO_SOCIAL": "JULIANO_JOSE_DA_SILA_&_CIA_LTDA", "ENDERECO": "PRACADABANDEIRA_94_CENTRO_PIQUETE", "CIDADE": "PIQUETE", "LATITUDE": -22.6088133, "LONGITUDE": -45.183655, "BASE": "URGENTE_" }, "geometry": { "type": "Point", "coordinates": [ -45.183655, -22.6088133 ] } },
{ "type": "Feature", "properties": { "CNPJ": 29268154000140, "AGENTE": "GISLAINE_BOTELHO", "ACAO": "URGENTE_REALIZAR_PRIMEIRA_VISITA", "RAZAO_SOCIAL": "DEBORA_A.C.P._SANTOS", "ENDERECO": "RUACOMENDADORCUSTODIO_78_CENTRO_PIQUETE", "CIDADE": "PIQUETE", "LATITUDE": -22.6092498, "LONGITUDE": -45.1844315, "BASE": "URGENTE_" }, "geometry": { "type": "Point", "coordinates": [ -45.1844315, -22.6092498 ] } },
{ "type": "Feature", "properties": { "CNPJ": 1253267000153, "AGENTE": "GISLAINE_BOTELHO", "ACAO": "URGENTE_REALIZAR_PRIMEIRA_VISITA", "RAZAO_SOCIAL": "CARLOS_JOSE_DOS_SANTOS_EMBALAGENS", "ENDERECO": "RUAMAJORCARLOSRIBEIRO_31_CENTRO_PIQUETE", "CIDADE": "PIQUETE", "LATITUDE": -22.6151833, "LONGITUDE": -45.1777033, "BASE": "URGENTE_" }, "geometry": { "type": "Point", "coordinates": [ -45.1777033, -22.6151833 ] } },
{ "type": "Feature", "properties": { "CNPJ": 1137466000104, "AGENTE": "GISLAINE_BOTELHO", "ACAO": "URGENTE_REALIZAR_PRIMEIRA_VISITA", "RAZAO_SOCIAL": "ARTHUR_RODRIGUES_DOS_SANTOS_NETO", "ENDERECO": "AVENIDAGOVERNADORCARVALHOPINTO_30_CENTRO_SILVEIRAS", "CIDADE": "SILVEIRAS", "LATITUDE": -22.6591495, "LONGITUDE": -44.851616, "BASE": "URGENTE_" }, "geometry": { "type": "Point", "coordinates": [ -44.851616, -22.6591495 ] } },
{ "type": "Feature", "properties": { "CNPJ": 23200969000101, "AGENTE": "GISLAINE_BOTELHO", "ACAO": "URGENTE_REALIZAR_PRIMEIRA_VISITA", "RAZAO_SOCIAL": "ALISON_DA_SILVA_CRUZ", "ENDERECO": "AVENIDAGOVERNADORCARVALHOPINTO_290_CENTRO_SILVEIRAS", "CIDADE": "SILVEIRAS", "LATITUDE": -22.661622, "LONGITUDE": -44.8506573, "BASE": "URGENTE_" }, "geometry": { "type": "Point", "coordinates": [ -44.8506573, -22.661622 ] } },
{ "type": "Feature", "properties": { "CNPJ": 34346774000190, "AGENTE": "GISLAINE_BOTELHO", "ACAO": "URGENTE_REALIZAR_PRIMEIRA_VISITA", "RAZAO_SOCIAL": "TAIS_RODRIGUES_RIBEIRO", "ENDERECO": "RUAMAESTROJOAOBATISTAJULIAO_33_CENTRO_SILVEIRAS", "CIDADE": "SILVEIRAS", "LATITUDE": -22.6661056, "LONGITUDE": -44.8515367, "BASE": "URGENTE_" }, "geometry": { "type": "Point", "coordinates": [ -44.8515367, -22.6661056 ] } },
{ "type": "Feature", "properties": { "CNPJ": 3423413000177, "AGENTE": "GISLAINE_BOTELHO", "ACAO": "URGENTE_REALIZAR_PRIMEIRA_VISITA", "RAZAO_SOCIAL": "SANDRA_REGINA_BELEM_ALVES_DE_ABREU", "ENDERECO": "AVENIDATHEODORICOCAVALCANTEDESOUZA_444_JARDIMBOAVISTA_PINDAMONHANGABA", "CIDADE": "PINDAMONHANGABA", "LATITUDE": -22.9169689, "LONGITUDE": -45.4706773, "BASE": "URGENTE_" }, "geometry": { "type": "Point", "coordinates": [ -45.4706773, -22.9169689 ] } },
{ "type": "Feature", "properties": { "CNPJ": 8249165000103, "AGENTE": "GISLAINE_BOTELHO", "ACAO": "URGENTE_REALIZAR_PRIMEIRA_VISITA", "RAZAO_SOCIAL": "ADRIANA_MEDEIROS_MONTEIRO_REBELLO", "ENDERECO": "LADEIRABARAODEPINDAMONHANGABA_87_BOSQUEDAPRINCESA_PINDAMONHANGABA", "CIDADE": "PINDAMONHANGABA", "LATITUDE": -22.9219785, "LONGITUDE": -45.4623362, "BASE": "URGENTE_" }, "geometry": { "type": "Point", "coordinates": [ -45.4623362, -22.9219785 ] } },
{ "type": "Feature", "properties": { "CNPJ": 54518999000194, "AGENTE": "GISLAINE_BOTELHO", "ACAO": "URGENTE_REALIZAR_PRIMEIRA_VISITA", "RAZAO_SOCIAL": "AGUIAR_&_GUIAR_FORMACAO_PROFISSIONAL_LTDA", "ENDERECO": "RUABICUDOLEME_40_CENTRO_PINDAMONHANGABA", "CIDADE": "PINDAMONHANGABA", "LATITUDE": -22.9237383, "LONGITUDE": -45.4627167, "BASE": "URGENTE_" }, "geometry": { "type": "Point", "coordinates": [ -45.4627167, -22.9237383 ] } },
{ "type": "Feature", "properties": { "CNPJ": 42242590000109, "AGENTE": "GISLAINE_BOTELHO", "ACAO": "URGENTE_REALIZAR_PRIMEIRA_VISITA", "RAZAO_SOCIAL": "CLINICA_VETERINARIA_E_PET_SHOP_PINDA_LTDA", "ENDERECO": "RUABICUDOLEME_45_CENTRO_PINDAMONHANGABA", "CIDADE": "PINDAMONHANGABA", "LATITUDE": -22.9238902, "LONGITUDE": -45.4627117, "BASE": "URGENTE_" }, "geometry": { "type": "Point", "coordinates": [ -45.4627117, -22.9238902 ] } },
{ "type": "Feature", "properties": { "CNPJ": 5265278000104, "AGENTE": "GISLAINE_BOTELHO", "ACAO": "URGENTE_REALIZAR_PRIMEIRA_VISITA", "RAZAO_SOCIAL": "ANA_PAULA_CESAR_MATHIAS_FINGER", "ENDERECO": "RUADEPUTADOCLAROCESAR_174_CENTRO_PINDAMONHANGABA", "CIDADE": "PINDAMONHANGABA", "LATITUDE": -22.9242972, "LONGITUDE": -45.4623125, "BASE": "URGENTE_" }, "geometry": { "type": "Point", "coordinates": [ -45.4623125, -22.9242972 ] } },
{ "type": "Feature", "properties": { "CNPJ": 49804290000115, "AGENTE": "GISLAINE_BOTELHO", "ACAO": "URGENTE_REALIZAR_PRIMEIRA_VISITA", "RAZAO_SOCIAL": "CODIGO_G_MODA_PLUS_III_LTDA", "ENDERECO": "RUADEPUTADOCLAROCESAR_187_CENTRO_PINDAMONHANGABA", "CIDADE": "PINDAMONHANGABA", "LATITUDE": -22.9244102, "LONGITUDE": -45.4621521, "BASE": "URGENTE_" }, "geometry": { "type": "Point", "coordinates": [ -45.4621521, -22.9244102 ] } },
{ "type": "Feature", "properties": { "CNPJ": 58396665000146, "AGENTE": "GISLAINE_BOTELHO", "ACAO": "URGENTE_REALIZAR_PRIMEIRA_VISITA", "RAZAO_SOCIAL": "OTICAS_SOUZA_MORETTO_LTDA", "ENDERECO": "RUADEPUTADOCLAROCESAR_215_CENTRO_PINDAMONHANGABA", "CIDADE": "PINDAMONHANGABA", "LATITUDE": -22.9247117, "LONGITUDE": -45.4621233, "BASE": "URGENTE_" }, "geometry": { "type": "Point", "coordinates": [ -45.4621233, -22.9247117 ] } },
{ "type": "Feature", "properties": { "CNPJ": 49024561000110, "AGENTE": "GISLAINE_BOTELHO", "ACAO": "URGENTE_REALIZAR_PRIMEIRA_VISITA", "RAZAO_SOCIAL": "WEVERTON_LUIZ_AREZO_DA_SILVA", "ENDERECO": "RUADEPUTADOCLAROCESAR_233_CENTRO_PINDAMONHANGABA", "CIDADE": "PINDAMONHANGABA", "LATITUDE": -22.9248014, "LONGITUDE": -45.4620393, "BASE": "URGENTE_" }, "geometry": { "type": "Point", "coordinates": [ -45.4620393, -22.9248014 ] } },
{ "type": "Feature", "properties": { "CNPJ": 23388744000120, "AGENTE": "GISLAINE_BOTELHO", "ACAO": "URGENTE_REALIZAR_PRIMEIRA_VISITA", "RAZAO_SOCIAL": "SILAS_EVANDRO_DOS_SANTOS_&_CIA.LTDA", "ENDERECO": "RUADEPUTADOCLAROCESAR_240_CENTRO_PINDAMONHANGABA", "CIDADE": "PINDAMONHANGABA", "LATITUDE": -22.9248563, "LONGITUDE": -45.4621702, "BASE": "URGENTE_" }, "geometry": { "type": "Point", "coordinates": [ -45.4621702, -22.9248563 ] } },
{ "type": "Feature", "properties": { "CNPJ": 73119927000623, "AGENTE": "GISLAINE_BOTELHO", "ACAO": "URGENTE_REALIZAR_PRIMEIRA_VISITA", "RAZAO_SOCIAL": "PRO_-_PHARMACOS_FARMACIA_LTDA", "ENDERECO": "RUADEPUTADOCLAROCESAR_243_CENTRO_PINDAMONHANGABA", "CIDADE": "PINDAMONHANGABA", "LATITUDE": -22.9249822, "LONGITUDE": -45.4620519, "BASE": "URGENTE_" }, "geometry": { "type": "Point", "coordinates": [ -45.4620519, -22.9249822 ] } },
{ "type": "Feature", "properties": { "CNPJ": 4491358000115, "AGENTE": "GISLAINE_BOTELHO", "ACAO": "URGENTE_REALIZAR_PRIMEIRA_VISITA", "RAZAO_SOCIAL": "CAMILARI_COLCHOES_LTDA", "ENDERECO": "PRACAMONSENHORMARCONDES_8_CENTRO_PINDAMONHANGABA", "CIDADE": "PINDAMONHANGABA", "LATITUDE": -22.9250518, "LONGITUDE": -45.462616, "BASE": "URGENTE_" }, "geometry": { "type": "Point", "coordinates": [ -45.462616, -22.9250518 ] } },
{ "type": "Feature", "properties": { "CNPJ": 5691366000500, "AGENTE": "GISLAINE_BOTELHO", "ACAO": "URGENTE_REALIZAR_PRIMEIRA_VISITA", "RAZAO_SOCIAL": "EDVALDO_COSTA_DE_LIMA_LTDA", "ENDERECO": "RUADOSANDRADAS_222_CENTRO_PINDAMONHANGABA", "CIDADE": "PINDAMONHANGABA", "LATITUDE": -22.9251045, "LONGITUDE": -45.4619574, "BASE": "URGENTE_" }, "geometry": { "type": "Point", "coordinates": [ -45.4619574, -22.9251045 ] } },
{ "type": "Feature", "properties": { "CNPJ": 47738046000176, "AGENTE": "GISLAINE_BOTELHO", "ACAO": "URGENTE_REALIZAR_PRIMEIRA_VISITA", "RAZAO_SOCIAL": "TAYLANA_VANUSA_APARECIDA_DE_CAMPOS", "ENDERECO": "RUADOSANDRADAS_213_CENTRO_PINDAMONHANGABA", "CIDADE": "PINDAMONHANGABA", "LATITUDE": -22.9251375, "LONGITUDE": -45.4618542, "BASE": "URGENTE_" }, "geometry": { "type": "Point", "coordinates": [ -45.4618542, -22.9251375 ] } },
{ "type": "Feature", "properties": { "CNPJ": 48727787000114, "AGENTE": "GISLAINE_BOTELHO", "ACAO": "URGENTE_REALIZAR_PRIMEIRA_VISITA", "RAZAO_SOCIAL": "PINAFFI_&_GUEIROS_RESTAURANTE_LTDA", "ENDERECO": "RUADOSANDRADAS_204_CENTRO_PINDAMONHANGABA", "CIDADE": "PINDAMONHANGABA", "LATITUDE": -22.9251586, "LONGITUDE": -45.4616651, "BASE": "URGENTE_" }, "geometry": { "type": "Point", "coordinates": [ -45.4616651, -22.9251586 ] } },
{ "type": "Feature", "properties": { "CNPJ": 51974924000120, "AGENTE": "GISLAINE_BOTELHO", "ACAO": "URGENTE_REALIZAR_PRIMEIRA_VISITA", "RAZAO_SOCIAL": "CENTRAL_DE_BIJUTERIAS_PINDAMONHANGABA_LTDA", "ENDERECO": "RUADEZDEJULHO_25_CENTRO_PINDAMONHANGABA", "CIDADE": "PINDAMONHANGABA", "LATITUDE": -22.9257721, "LONGITUDE": -45.4617949, "BASE": "URGENTE_" }, "geometry": { "type": "Point", "coordinates": [ -45.4617949, -22.9257721 ] } },
{ "type": "Feature", "properties": { "CNPJ": 20414529000169, "AGENTE": "GISLAINE_BOTELHO", "ACAO": "URGENTE_REALIZAR_PRIMEIRA_VISITA", "RAZAO_SOCIAL": "KPF_ENGENHARIA_E_PERICIA_LTDA", "ENDERECO": "RUADOUTORMATHEUSROMEIRO_143_CENTRO_PINDAMONHANGABA", "CIDADE": "PINDAMONHANGABA", "LATITUDE": -22.92607, "LONGITUDE": -45.4653683, "BASE": "URGENTE_" }, "geometry": { "type": "Point", "coordinates": [ -45.4653683, -22.92607 ] } },
{ "type": "Feature", "properties": { "CNPJ": 36081187000142, "AGENTE": "GISLAINE_BOTELHO", "ACAO": "URGENTE_REALIZAR_PRIMEIRA_VISITA", "RAZAO_SOCIAL": "GABRIEL_RAMOS_FERREIRA", "ENDERECO": "RUADOUTORGUSTAVODEGODOY_506_VILANAIR_PINDAMONHANGABA", "CIDADE": "PINDAMONHANGABA", "LATITUDE": -22.9261144, "LONGITUDE": -45.467286, "BASE": "URGENTE_" }, "geometry": { "type": "Point", "coordinates": [ -45.467286, -22.9261144 ] } },
{ "type": "Feature", "properties": { "CNPJ": 10218530000164, "AGENTE": "GISLAINE_BOTELHO", "ACAO": "URGENTE_REALIZAR_PRIMEIRA_VISITA", "RAZAO_SOCIAL": "KARLA_CESAR_CAMPOS", "ENDERECO": "RUADOUTORGUSTAVODEGODOY_450_VILANAIR_PINDAMONHANGABA", "CIDADE": "PINDAMONHANGABA", "LATITUDE": -22.9262517, "LONGITUDE": -45.46623, "BASE": "URGENTE_" }, "geometry": { "type": "Point", "coordinates": [ -45.46623, -22.9262517 ] } },
{ "type": "Feature", "properties": { "CNPJ": 32841077000261, "AGENTE": "GISLAINE_BOTELHO", "ACAO": "URGENTE_REALIZAR_PRIMEIRA_VISITA", "RAZAO_SOCIAL": "J._S._DOMINGOS_FILHO_VESTUARIO_E_ACESSORIOS", "ENDERECO": "RUADOSEXPEDICIONARIOS_147_CENTRO_PINDAMONHANGABA", "CIDADE": "PINDAMONHANGABA", "LATITUDE": -22.9263459, "LONGITUDE": -45.4605143, "BASE": "URGENTE_" }, "geometry": { "type": "Point", "coordinates": [ -45.4605143, -22.9263459 ] } },
{ "type": "Feature", "properties": { "CNPJ": 35569124000177, "AGENTE": "GISLAINE_BOTELHO", "ACAO": "URGENTE_REALIZAR_PRIMEIRA_VISITA", "RAZAO_SOCIAL": "LUCIA_MARIA_BRAZ", "ENDERECO": "RUADOUTORGUSTAVODEGODOY_299_CENTRO_PINDAMONHANGABA", "CIDADE": "PINDAMONHANGABA", "LATITUDE": -22.9264235, "LONGITUDE": -45.4650712, "BASE": "URGENTE_" }, "geometry": { "type": "Point", "coordinates": [ -45.4650712, -22.9264235 ] } },
{ "type": "Feature", "properties": { "CNPJ": 39831728000109, "AGENTE": "GISLAINE_BOTELHO", "ACAO": "URGENTE_REALIZAR_PRIMEIRA_VISITA", "RAZAO_SOCIAL": "OTICA_DOUTOR_GUSTAVO_DE_GODOY_LTDA", "ENDERECO": "RUADOUTORGUSTAVODEGODOY_49_CENTRO_PINDAMONHANGABA", "CIDADE": "PINDAMONHANGABA", "LATITUDE": -22.9264347, "LONGITUDE": -45.4626349, "BASE": "URGENTE_" }, "geometry": { "type": "Point", "coordinates": [ -45.4626349, -22.9264347 ] } },
{ "type": "Feature", "properties": { "CNPJ": 8432371000154, "AGENTE": "GISLAINE_BOTELHO", "ACAO": "URGENTE_REALIZAR_PRIMEIRA_VISITA", "RAZAO_SOCIAL": "SILVIA_HELENA_RODRIGUES_DA_SILVA", "ENDERECO": "RUACAPITAOJOSEMARTINIANOVIEIRAFERRAZ_186_CENTRO_PINDAMONHANGABA", "CIDADE": "PINDAMONHANGABA", "LATITUDE": -22.9267682, "LONGITUDE": -45.4629004, "BASE": "URGENTE_" }, "geometry": { "type": "Point", "coordinates": [ -45.4629004, -22.9267682 ] } },
{ "type": "Feature", "properties": { "CNPJ": 60423175000133, "AGENTE": "GISLAINE_BOTELHO", "ACAO": "URGENTE_REALIZAR_PRIMEIRA_VISITA", "RAZAO_SOCIAL": "EUNICE_DOS_SANTOS_COMERCIO_DE_RACOES", "ENDERECO": "RUACAPITAOJOSEMARTINIANOVIEIRAFERRAZ_186_CENTRO_PINDAMONHANGABA", "CIDADE": "PINDAMONHANGABA", "LATITUDE": -22.9268034, "LONGITUDE": -45.4631524, "BASE": "URGENTE_" }, "geometry": { "type": "Point", "coordinates": [ -45.4631524, -22.9268034 ] } },
{ "type": "Feature", "properties": { "CNPJ": 4467129000165, "AGENTE": "GISLAINE_BOTELHO", "ACAO": "URGENTE_REALIZAR_PRIMEIRA_VISITA", "RAZAO_SOCIAL": "FERRAGENS_CAVALCANTE_DE_SOUZA_LTDA", "ENDERECO": "RUACAPITAOJOSEMARTINIANOVIEIRAFERRAZ_159_CENTRO_PINDAMONHANGABA", "CIDADE": "PINDAMONHANGABA", "LATITUDE": -22.9270359, "LONGITUDE": -45.46202, "BASE": "URGENTE_" }, "geometry": { "type": "Point", "coordinates": [ -45.46202, -22.9270359 ] } },
{ "type": "Feature", "properties": { "CNPJ": 38152127000107, "AGENTE": "GISLAINE_BOTELHO", "ACAO": "URGENTE_REALIZAR_PRIMEIRA_VISITA", "RAZAO_SOCIAL": "ROYALE_MATERIAIS_&_PROJETOS_ELETRICOS_LTDA", "ENDERECO": "RUADOUTORGREGORIOCOSTA_220_CENTRO_PINDAMONHANGABA", "CIDADE": "PINDAMONHANGABA", "LATITUDE": -22.9278634, "LONGITUDE": -45.459371, "BASE": "URGENTE_" }, "geometry": { "type": "Point", "coordinates": [ -45.459371, -22.9278634 ] } },
{ "type": "Feature", "properties": { "CNPJ": 4242169000109, "AGENTE": "GISLAINE_BOTELHO", "ACAO": "URGENTE_REALIZAR_PRIMEIRA_VISITA", "RAZAO_SOCIAL": "DENTAL_PINDA_LTDA", "ENDERECO": "RUADOSEXPEDICIONARIOS_475_CENTRO_PINDAMONHANGABA", "CIDADE": "PINDAMONHANGABA", "LATITUDE": -22.9281392, "LONGITUDE": -45.458488, "BASE": "URGENTE_" }, "geometry": { "type": "Point", "coordinates": [ -45.458488, -22.9281392 ] } },
{ "type": "Feature", "properties": { "CNPJ": 18123138000143, "AGENTE": "GISLAINE_BOTELHO", "ACAO": "URGENTE_REALIZAR_PRIMEIRA_VISITA", "RAZAO_SOCIAL": "MARCIA_REGINA_COSTA_NUNES_ACOUGUE", "ENDERECO": "RUACAPITAOJOSEMARTINIANOVIEIRAFERRAZ_279_CENTRO_PINDAMONHANGABA", "CIDADE": "PINDAMONHANGABA", "LATITUDE": -22.9283517, "LONGITUDE": -45.46269, "BASE": "URGENTE_" }, "geometry": { "type": "Point", "coordinates": [ -45.46269, -22.9283517 ] } },
{ "type": "Feature", "properties": { "CNPJ": 48400527000130, "AGENTE": "GISLAINE_BOTELHO", "ACAO": "URGENTE_REALIZAR_PRIMEIRA_VISITA", "RAZAO_SOCIAL": "SEIJI_NAGAOKA", "ENDERECO": "RUADOSSAGRADOSCORACOES_1186_JARDIMSANTALUZIA_PINDAMONHANGABA", "CIDADE": "PINDAMONHANGABA", "LATITUDE": -22.9304498, "LONGITUDE": -45.4487432, "BASE": "URGENTE_" }, "geometry": { "type": "Point", "coordinates": [ -45.4487432, -22.9304498 ] } },
{ "type": "Feature", "properties": { "CNPJ": 2804069000101, "AGENTE": "GISLAINE_BOTELHO", "ACAO": "URGENTE_REALIZAR_PRIMEIRA_VISITA", "RAZAO_SOCIAL": "MAURICIO_SAKIHAMA", "ENDERECO": "RUAMAJORJOSEDOSSANTOSMOREIRA_1000_VILABOURGHESE_PINDAMONHANGABA", "CIDADE": "PINDAMONHANGABA", "LATITUDE": -22.9307547, "LONGITUDE": -45.4543104, "BASE": "URGENTE_" }, "geometry": { "type": "Point", "coordinates": [ -45.4543104, -22.9307547 ] } },
{ "type": "Feature", "properties": { "CNPJ": 7811209000184, "AGENTE": "GISLAINE_BOTELHO", "ACAO": "URGENTE_REALIZAR_PRIMEIRA_VISITA", "RAZAO_SOCIAL": "JOCIMARA_DA_SILVA_LIVRAMENTO_LIMA", "ENDERECO": "RUAMAJORJOSEDOSSANTOSMOREIRA_775_VILABOURGHESE_PINDAMONHANGABA", "CIDADE": "PINDAMONHANGABA", "LATITUDE": -22.9309613, "LONGITUDE": -45.4546536, "BASE": "URGENTE_" }, "geometry": { "type": "Point", "coordinates": [ -45.4546536, -22.9309613 ] } },
{ "type": "Feature", "properties": { "CNPJ": 8032928000160, "AGENTE": "GISLAINE_BOTELHO", "ACAO": "URGENTE_REALIZAR_PRIMEIRA_VISITA", "RAZAO_SOCIAL": "GUILHERME_KOBBAZ_DARRIGO_&_CIA_LTDA", "ENDERECO": "RUAMAJORJOSEDOSSANTOSMOREIRA_690_VILABOURGHESE_PINDAMONHANGABA", "CIDADE": "PINDAMONHANGABA", "LATITUDE": -22.9309878, "LONGITUDE": -45.4572116, "BASE": "URGENTE_" }, "geometry": { "type": "Point", "coordinates": [ -45.4572116, -22.9309878 ] } },
{ "type": "Feature", "properties": { "CNPJ": 30466811000143, "AGENTE": "GISLAINE_BOTELHO", "ACAO": "URGENTE_REALIZAR_PRIMEIRA_VISITA", "RAZAO_SOCIAL": "RAFAEL_CLARO_LTDA", "ENDERECO": "RUADOUTORCAMPOSSALLES_549_CHACARADAGALEGA_PINDAMONHANGABA", "CIDADE": "PINDAMONHANGABA", "LATITUDE": -22.9314001, "LONGITUDE": -45.46313, "BASE": "URGENTE_" }, "geometry": { "type": "Point", "coordinates": [ -45.46313, -22.9314001 ] } },
{ "type": "Feature", "properties": { "CNPJ": 26425907000196, "AGENTE": "GISLAINE_BOTELHO", "ACAO": "URGENTE_REALIZAR_PRIMEIRA_VISITA", "RAZAO_SOCIAL": "INTEGRACAO_-_CLINICA_DE_SAUDE_LTDA", "ENDERECO": "RUAOSWALDOCRUZ_75_PARQUESAOBENEDITO_PINDAMONHANGABA", "CIDADE": "PINDAMONHANGABA", "LATITUDE": -22.9314438, "LONGITUDE": -45.4574006, "BASE": "URGENTE_" }, "geometry": { "type": "Point", "coordinates": [ -45.4574006, -22.9314438 ] } },
{ "type": "Feature", "properties": { "CNPJ": 54452628000157, "AGENTE": "GISLAINE_BOTELHO", "ACAO": "URGENTE_REALIZAR_PRIMEIRA_VISITA", "RAZAO_SOCIAL": "CENTERPRINT_GRAFICA_LTDA", "ENDERECO": "RUADOUTORLAERTEMACHADOGUIMARAES_878_VILABOURGHESE_PINDAMONHANGABA", "CIDADE": "PINDAMONHANGABA", "LATITUDE": -22.9325678, "LONGITUDE": -45.454205, "BASE": "URGENTE_" }, "geometry": { "type": "Point", "coordinates": [ -45.454205, -22.9325678 ] } },
{ "type": "Feature", "properties": { "CNPJ": 41294809000150, "AGENTE": "GISLAINE_BOTELHO", "ACAO": "URGENTE_REALIZAR_PRIMEIRA_VISITA", "RAZAO_SOCIAL": "ANTONIO_FLAVIO_PEREIRA_DE_OLIVEIRA_E_SILVA", "ENDERECO": "PRACADOUTOREMILIORIBAS_3_CHACARADAGALEGA_PINDAMONHANGABA", "CIDADE": "PINDAMONHANGABA", "LATITUDE": -22.9327526, "LONGITUDE": -45.462202, "BASE": "URGENTE_" }, "geometry": { "type": "Point", "coordinates": [ -45.462202, -22.9327526 ] } },
{ "type": "Feature", "properties": { "CNPJ": 40703911000108, "AGENTE": "GISLAINE_BOTELHO", "ACAO": "URGENTE_REALIZAR_PRIMEIRA_VISITA", "RAZAO_SOCIAL": "TR_FARMA_LTDA", "ENDERECO": "RUACAPITAOVITORIOBASSO_685_PARQUESAOBENEDITO_PINDAMONHANGABA", "CIDADE": "PINDAMONHANGABA", "LATITUDE": -22.9343004, "LONGITUDE": -45.4553505, "BASE": "URGENTE_" }, "geometry": { "type": "Point", "coordinates": [ -45.4553505, -22.9343004 ] } },
{ "type": "Feature", "properties": { "CNPJ": 7456977000167, "AGENTE": "GISLAINE_BOTELHO", "ACAO": "URGENTE_REALIZAR_PRIMEIRA_VISITA", "RAZAO_SOCIAL": "VALDIR_MITSUO_HIGA_ME", "ENDERECO": "RUACAPITAOVITORIOBASSO_491_PARQUESAODOMINGOS_PINDAMONHANGABA", "CIDADE": "PINDAMONHANGABA", "LATITUDE": -22.9343817, "LONGITUDE": -45.4572783, "BASE": "URGENTE_" }, "geometry": { "type": "Point", "coordinates": [ -45.4572783, -22.9343817 ] } },
{ "type": "Feature", "properties": { "CNPJ": 74395195000152, "AGENTE": "GISLAINE_BOTELHO", "ACAO": "URGENTE_REALIZAR_PRIMEIRA_VISITA", "RAZAO_SOCIAL": "JOSE_CLAUDIO_DE_GODOI_PINDA", "ENDERECO": "RUACAPITAOVITORIOBASSO_578_PARQUESAODOMINGOS_PINDAMONHANGABA", "CIDADE": "PINDAMONHANGABA", "LATITUDE": -22.9344758, "LONGITUDE": -45.4564585, "BASE": "URGENTE_" }, "geometry": { "type": "Point", "coordinates": [ -45.4564585, -22.9344758 ] } },
{ "type": "Feature", "properties": { "CNPJ": 9332296000112, "AGENTE": "GISLAINE_BOTELHO", "ACAO": "URGENTE_REALIZAR_PRIMEIRA_VISITA", "RAZAO_SOCIAL": "MOTO_GT_DO_VALE_LTDA", "ENDERECO": "RUACAPITAOVITORIOBASSO_809_PARQUESAOBENEDITO_PINDAMONHANGABA", "CIDADE": "PINDAMONHANGABA", "LATITUDE": -22.9348024, "LONGITUDE": -45.4542429, "BASE": "URGENTE_" }, "geometry": { "type": "Point", "coordinates": [ -45.4542429, -22.9348024 ] } },
{ "type": "Feature", "properties": { "CNPJ": 59772719000193, "AGENTE": "GISLAINE_BOTELHO", "ACAO": "URGENTE_REALIZAR_PRIMEIRA_VISITA", "RAZAO_SOCIAL": "EXCLUSIVA_INDUSTRIA_DE_TINTAS_E_TEXTURAS_LTDA", "ENDERECO": "AVENIDAPROFESSORMANOELCESARRIBEIRO_4045_IPIRANGA_PINDAMONHANGABA", "CIDADE": "PINDAMONHANGABA", "LATITUDE": -22.9453433, "LONGITUDE": -45.4122967, "BASE": "URGENTE_" }, "geometry": { "type": "Point", "coordinates": [ -45.4122967, -22.9453433 ] } },
{ "type": "Feature", "properties": { "CNPJ": 7684980000138, "AGENTE": "GISLAINE_BOTELHO", "ACAO": "URGENTE_REALIZAR_PRIMEIRA_VISITA", "RAZAO_SOCIAL": "RS_COMERCIO_E_MANUTENCAO_DE_MAQUINAS_INDUSTRIAIS_LTDA", "ENDERECO": "AVENIDAPROFESSORMANOELCESARRIBEIRO_4301_CIDADENOVA_PINDAMONHANGABA", "CIDADE": "PINDAMONHANGABA", "LATITUDE": -22.9467654, "LONGITUDE": -45.4101281, "BASE": "URGENTE_" }, "geometry": { "type": "Point", "coordinates": [ -45.4101281, -22.9467654 ] } },
{ "type": "Feature", "properties": { "CNPJ": 34836303000160, "AGENTE": "GISLAINE_BOTELHO", "ACAO": "URGENTE_REALIZAR_PRIMEIRA_VISITA", "RAZAO_SOCIAL": "J_&_H_ROUPAS_E_ACESSORIOS_LTDA", "ENDERECO": "RUADOUTORCASEMIRODAROCHA_83_CENTRO_CUNHA", "CIDADE": "CUNHA", "LATITUDE": -23.0735129, "LONGITUDE": -44.9599447, "BASE": "URGENTE_" }, "geometry": { "type": "Point", "coordinates": [ -44.9599447, -23.0735129 ] } },
{ "type": "Feature", "properties": { "CNPJ": 1831147000196, "AGENTE": "GISLAINE_BOTELHO", "ACAO": "URGENTE_REALIZAR_PRIMEIRA_VISITA", "RAZAO_SOCIAL": "MARLENE_DE_ARAUJO_DOS_REIS", "ENDERECO": "RUAMAJORSANTANA_51_CENTRO_CUNHA", "CIDADE": "CUNHA", "LATITUDE": -23.0737902, "LONGITUDE": -44.9593488, "BASE": "URGENTE_" }, "geometry": { "type": "Point", "coordinates": [ -44.9593488, -23.0737902 ] } },
{ "type": "Feature", "properties": { "CNPJ": 44227383000100, "AGENTE": "GISLAINE_BOTELHO", "ACAO": "URGENTE_REALIZAR_PRIMEIRA_VISITA", "RAZAO_SOCIAL": "RHIAD_MOVEIS_CUNHENSE_LTDA", "ENDERECO": "ALAMEDAFRANCISCODACUNHAMENEZES_1066_FALCAO_CUNHA", "CIDADE": "CUNHA", "LATITUDE": -23.0649485, "LONGITUDE": -44.9603891, "BASE": "URGENTE_" }, "geometry": { "type": "Point", "coordinates": [ -44.9603891, -23.0649485 ] } },
{ "type": "Feature", "properties": { "CNPJ": 29955029000109, "AGENTE": "GISLAINE_BOTELHO", "ACAO": "URGENTE_REALIZAR_PRIMEIRA_VISITA", "RAZAO_SOCIAL": "E._A._DE_CARVALHO_PERFUMARIA", "ENDERECO": "RUADOUTORCASEMIRODAROCHA_16_CENTRO_CUNHA", "CIDADE": "CUNHA", "LATITUDE": -23.07414, "LONGITUDE": -44.9597373, "BASE": "URGENTE_" }, "geometry": { "type": "Point", "coordinates": [ -44.9597373, -23.07414 ] } },
{ "type": "Feature", "properties": { "CNPJ": 53770495000102, "AGENTE": "GISLAINE_BOTELHO", "ACAO": "URGENTE_REALIZAR_PRIMEIRA_VISITA", "RAZAO_SOCIAL": "SAUDE_EM_GRANEL_COMERCIO_DE_PRODUTOS_NATURAIS_LTDA", "ENDERECO": "RUADOUTORCASEMIRODAROCHA_16_CENTRO_CUNHA", "CIDADE": "CUNHA", "LATITUDE": -23.07414, "LONGITUDE": -44.9597373, "BASE": "URGENTE_" }, "geometry": { "type": "Point", "coordinates": [ -44.9597373, -23.07414 ] } },
{ "type": "Feature", "properties": { "CNPJ": 43679657000210, "AGENTE": "GISLAINE_BOTELHO", "ACAO": "URGENTE_REALIZAR_PRIMEIRA_VISITA", "RAZAO_SOCIAL": "BRENO_A._GARCIA_SALGADO", "ENDERECO": "RUAPRUDENTEDEMORAES_363_CENTRO_PINDAMONHANGABA", "CIDADE": "PINDAMONHANGABA", "LATITUDE": -22.9234096, "LONGITUDE": -45.4586488, "BASE": "URGENTE_" }, "geometry": { "type": "Point", "coordinates": [ -45.4586488, -22.9234096 ] } },
{ "type": "Feature", "properties": { "CNPJ": 18727076000189, "AGENTE": "GISLAINE_BOTELHO", "ACAO": "URGENTE_REALIZAR_PRIMEIRA_VISITA", "RAZAO_SOCIAL": "MARCIA_MELO_VESTUARIO_LTDA.", "ENDERECO": "RUADEPUTADOCLAROCESAR_70_CENTRO_PINDAMONHANGABA", "CIDADE": "PINDAMONHANGABA", "LATITUDE": -22.9234229, "LONGITUDE": -45.4622606, "BASE": "URGENTE_" }, "geometry": { "type": "Point", "coordinates": [ -45.4622606, -22.9234229 ] } },
{ "type": "Feature", "properties": { "CNPJ": 17036604000190, "AGENTE": "GISLAINE_BOTELHO", "ACAO": "URGENTE_REALIZAR_PRIMEIRA_VISITA", "RAZAO_SOCIAL": "ACP_CALCADOS_PINDA_LTDA", "ENDERECO": "RUABICUDOLEME_25_CENTRO_PINDAMONHANGABA", "CIDADE": "PINDAMONHANGABA", "LATITUDE": -22.9238782, "LONGITUDE": -45.4624268, "BASE": "URGENTE_" }, "geometry": { "type": "Point", "coordinates": [ -45.4624268, -22.9238782 ] } },
{ "type": "Feature", "properties": { "CNPJ": 32077445000328, "AGENTE": "GISLAINE_BOTELHO", "ACAO": "URGENTE_REALIZAR_PRIMEIRA_VISITA", "RAZAO_SOCIAL": "MAYARA_LEME_GOMES", "ENDERECO": "TRAVESSAMARQUESDOHERVAL_60_CENTRO_PINDAMONHANGABA", "CIDADE": "PINDAMONHANGABA", "LATITUDE": -22.9243956, "LONGITUDE": -45.4634701, "BASE": "URGENTE_" }, "geometry": { "type": "Point", "coordinates": [ -45.4634701, -22.9243956 ] } },
{ "type": "Feature", "properties": { "CNPJ": 5669647000124, "AGENTE": "GISLAINE_BOTELHO", "ACAO": "URGENTE_REALIZAR_PRIMEIRA_VISITA", "RAZAO_SOCIAL": "N._I._L._DE_ALMEIDA_CONFECCOES", "ENDERECO": "AVENIDACORONELFERNANDOPRESTES_265_CENTRO_PINDAMONHANGABA", "CIDADE": "PINDAMONHANGABA", "LATITUDE": -22.92606, "LONGITUDE": -45.4608083, "BASE": "URGENTE_" }, "geometry": { "type": "Point", "coordinates": [ -45.4608083, -22.92606 ] } },
{ "type": "Feature", "properties": { "CNPJ": 54688911000182, "AGENTE": "GISLAINE_BOTELHO", "ACAO": "URGENTE_REALIZAR_PRIMEIRA_VISITA", "RAZAO_SOCIAL": "MICHELE_LEHPAMER_COQUETTI", "ENDERECO": "AVENIDADOUTORJORGETIBIRICA_531_CHACARADAGALEGA_PINDAMONHANGABA", "CIDADE": "PINDAMONHANGABA", "LATITUDE": -22.9298729, "LONGITUDE": -45.4621624, "BASE": "URGENTE_" }, "geometry": { "type": "Point", "coordinates": [ -45.4621624, -22.9298729 ] } },
{ "type": "Feature", "properties": { "CNPJ": 54190226000121, "AGENTE": "GISLAINE_BOTELHO", "ACAO": "URGENTE_REALIZAR_PRIMEIRA_VISITA", "RAZAO_SOCIAL": "LVS_SISTEMA_CONTRA_INCENDIO_LTDA", "ENDERECO": "AVENIDADOUTORJORGETIBIRICA_596_CHACARADAGALEGA_PINDAMONHANGABA", "CIDADE": "PINDAMONHANGABA", "LATITUDE": -22.930505, "LONGITUDE": -45.4621982, "BASE": "URGENTE_" }, "geometry": { "type": "Point", "coordinates": [ -45.4621982, -22.930505 ] } },
{ "type": "Feature", "properties": { "CNPJ": 10623885000210, "AGENTE": "GISLAINE_BOTELHO", "ACAO": "URGENTE_REALIZAR_PRIMEIRA_VISITA", "RAZAO_SOCIAL": "CLEAN'S_ODONTOLOGIA_LTDA", "ENDERECO": "AVENIDADOUTORJORGETIBIRICA_713_CHACARADAGALEGA_PINDAMONHANGABA", "CIDADE": "PINDAMONHANGABA", "LATITUDE": -22.9315751, "LONGITUDE": -45.4620252, "BASE": "URGENTE_" }, "geometry": { "type": "Point", "coordinates": [ -45.4620252, -22.9315751 ] } },
{ "type": "Feature", "properties": { "CNPJ": 53924076000170, "AGENTE": "GISLAINE_BOTELHO", "ACAO": "URGENTE_REALIZAR_PRIMEIRA_VISITA", "RAZAO_SOCIAL": "INTERDIALOGOS_TRANSFORMACAO_PLURAL_LTDA", "ENDERECO": "RUAFRANCISCOGLICERIO_83_VILANAIR_PINDAMONHANGABA", "CIDADE": "PINDAMONHANGABA", "LATITUDE": -22.9255713, "LONGITUDE": -45.4673804, "BASE": "URGENTE_" }, "geometry": { "type": "Point", "coordinates": [ -45.4673804, -22.9255713 ] } },
{ "type": "Feature", "properties": { "CNPJ": 10218672000121, "AGENTE": "GISLAINE_BOTELHO", "ACAO": "URGENTE_REALIZAR_PRIMEIRA_VISITA", "RAZAO_SOCIAL": "SUPERMERCADO_IRMAOS_LOURENCO_COMERCIO_DE_ALIMENTOS_LTDA", "ENDERECO": "RUADOUTORMATHEUSROMEIRO_160_CENTRO_PINDAMONHANGABA", "CIDADE": "PINDAMONHANGABA", "LATITUDE": -22.9262385, "LONGITUDE": -45.4657096, "BASE": "URGENTE_" }, "geometry": { "type": "Point", "coordinates": [ -45.4657096, -22.9262385 ] } },
{ "type": "Feature", "properties": { "CNPJ": 27194027000119, "AGENTE": "GISLAINE_BOTELHO", "ACAO": "URGENTE_REALIZAR_PRIMEIRA_VISITA", "RAZAO_SOCIAL": "PAIM_ODONTOLOGIA_LTDA", "ENDERECO": "RUADOUTORGUSTAVODEGODOY_280_CENTRO_PINDAMONHANGABA", "CIDADE": "PINDAMONHANGABA", "LATITUDE": -22.926349, "LONGITUDE": -45.4649209, "BASE": "URGENTE_" }, "geometry": { "type": "Point", "coordinates": [ -45.4649209, -22.926349 ] } },
{ "type": "Feature", "properties": { "CNPJ": 6244625000185, "AGENTE": "GISLAINE_BOTELHO", "ACAO": "URGENTE_REALIZAR_PRIMEIRA_VISITA", "RAZAO_SOCIAL": "MARIKO_ROBERTA_TASHIKAWA_DA_SILVA", "ENDERECO": "RUACONEGOTOBIAS_367_CENTRO_PINDAMONHANGABA", "CIDADE": "PINDAMONHANGABA", "LATITUDE": -22.9266446, "LONGITUDE": -45.4557594, "BASE": "URGENTE_" }, "geometry": { "type": "Point", "coordinates": [ -45.4557594, -22.9266446 ] } },
{ "type": "Feature", "properties": { "CNPJ": 40084947000142, "AGENTE": "GISLAINE_BOTELHO", "ACAO": "URGENTE_REALIZAR_PRIMEIRA_VISITA", "RAZAO_SOCIAL": "L_R_DA_SILVA_LTDA", "ENDERECO": "RUADOUTORCAMPOSSALLES_24_CENTRO_PINDAMONHANGABA", "CIDADE": "PINDAMONHANGABA", "LATITUDE": -22.9267357, "LONGITUDE": -45.4634504, "BASE": "URGENTE_" }, "geometry": { "type": "Point", "coordinates": [ -45.4634504, -22.9267357 ] } },
{ "type": "Feature", "properties": { "CNPJ": 3304259000114, "AGENTE": "GISLAINE_BOTELHO", "ACAO": "URGENTE_REALIZAR_PRIMEIRA_VISITA", "RAZAO_SOCIAL": "PEIXARIA_IKEDA_LTDA", "ENDERECO": "RUACAPITAOJOSEMARTINIANOVIEIRAFERRAZ_186_CENTRO_PINDAMONHANGABA", "CIDADE": "PINDAMONHANGABA", "LATITUDE": -22.9269157, "LONGITUDE": -45.4628912, "BASE": "URGENTE_" }, "geometry": { "type": "Point", "coordinates": [ -45.4628912, -22.9269157 ] } },
{ "type": "Feature", "properties": { "CNPJ": 44251638000170, "AGENTE": "GISLAINE_BOTELHO", "ACAO": "URGENTE_REALIZAR_PRIMEIRA_VISITA", "RAZAO_SOCIAL": "SOCIEDADE_COMERCIAL_PEREIRA_E_DE_MIGUEL_LTDA", "ENDERECO": "RUADOUTORGUSTAVOADOLFORAMOSMELLO_52_CHACARADAGALEGA_PINDAMONHANGABA", "CIDADE": "PINDAMONHANGABA", "LATITUDE": -22.9314774, "LONGITUDE": -45.4625119, "BASE": "URGENTE_" }, "geometry": { "type": "Point", "coordinates": [ -45.4625119, -22.9314774 ] } },
{ "type": "Feature", "properties": { "CNPJ": 11709882000185, "AGENTE": "GISLAINE_BOTELHO", "ACAO": "URGENTE_REALIZAR_PRIMEIRA_VISITA", "RAZAO_SOCIAL": "VICTORIO_CLINICA_INTEGRADA_LTDA", "ENDERECO": "RUADONACARMELITAGAMAROMEIRO_95_PARQUESAOBENEDITO_PINDAMONHANGABA", "CIDADE": "PINDAMONHANGABA", "LATITUDE": -22.9316139, "LONGITUDE": -45.4559384, "BASE": "URGENTE_" }, "geometry": { "type": "Point", "coordinates": [ -45.4559384, -22.9316139 ] } },
{ "type": "Feature", "properties": { "CNPJ": 6935745000129, "AGENTE": "GISLAINE_BOTELHO", "ACAO": "URGENTE_REALIZAR_PRIMEIRA_VISITA", "RAZAO_SOCIAL": "CELSO_RIBEIRO_CAVALCANTE_DE_SOUZA", "ENDERECO": "RUADOUTORCAMPOSSALLES_340_CENTRO_PINDAMONHANGABA", "CIDADE": "PINDAMONHANGABA", "LATITUDE": -22.93237, "LONGITUDE": -45.4627767, "BASE": "URGENTE_" }, "geometry": { "type": "Point", "coordinates": [ -45.4627767, -22.93237 ] } },
{ "type": "Feature", "properties": { "CNPJ": 40492470000134, "AGENTE": "GISLAINE_BOTELHO", "ACAO": "URGENTE_REALIZAR_PRIMEIRA_VISITA", "RAZAO_SOCIAL": "STENIO_DE_ANDRADE_FUNILARIA_LTDA", "ENDERECO": "AVENIDAABELCORREAGUIMARAES_600_VILARICA_PINDAMONHANGABA", "CIDADE": "PINDAMONHANGABA", "LATITUDE": -22.9334542, "LONGITUDE": -45.4706189, "BASE": "URGENTE_" }, "geometry": { "type": "Point", "coordinates": [ -45.4706189, -22.9334542 ] } },
{ "type": "Feature", "properties": { "CNPJ": 43278609000130, "AGENTE": "GISLAINE_BOTELHO", "ACAO": "URGENTE_REALIZAR_PRIMEIRA_VISITA", "RAZAO_SOCIAL": "GU_COMERCIO_DE_TINTAS_LTDA", "ENDERECO": "RUADOUTORFONTESJUNIOR_580_ALTODOCARDOSO_PINDAMONHANGABA", "CIDADE": "PINDAMONHANGABA", "LATITUDE": -22.9364263, "LONGITUDE": -45.4662427, "BASE": "URGENTE_" }, "geometry": { "type": "Point", "coordinates": [ -45.4662427, -22.9364263 ] } },
{ "type": "Feature", "properties": { "CNPJ": 52593614000128, "AGENTE": "GISLAINE_BOTELHO", "ACAO": "URGENTE_REALIZAR_PRIMEIRA_VISITA", "RAZAO_SOCIAL": "MVA_AUTOS_E_EMPREENDIMENTOS_LTDA", "ENDERECO": "RUADOUTORFONTESJUNIOR_750_ALTODOCARDOSO_PINDAMONHANGABA", "CIDADE": "PINDAMONHANGABA", "LATITUDE": -22.9373275, "LONGITUDE": -45.4676232, "BASE": "URGENTE_" }, "geometry": { "type": "Point", "coordinates": [ -45.4676232, -22.9373275 ] } },
{ "type": "Feature", "properties": { "CNPJ": 3692086000159, "AGENTE": "GISLAINE_BOTELHO", "ACAO": "URGENTE_REALIZAR_PRIMEIRA_VISITA", "RAZAO_SOCIAL": "JOSE_REOLON_FILHO_MATERIAIS_PARA_CONSTRUCAO_LTDA", "ENDERECO": "RUAMANOELIGNACIOMARCONDESROMEIRO_1285_VILARICA_PINDAMONHANGABA", "CIDADE": "PINDAMONHANGABA", "LATITUDE": -22.9391332, "LONGITUDE": -45.4816952, "BASE": "URGENTE_" }, "geometry": { "type": "Point", "coordinates": [ -45.4816952, -22.9391332 ] } },
{ "type": "Feature", "properties": { "CNPJ": 39484980000180, "AGENTE": "GISLAINE_BOTELHO", "ACAO": "URGENTE_REALIZAR_PRIMEIRA_VISITA", "RAZAO_SOCIAL": "ROBSON_MONTEIRO_FERREIRA_DA_SILVA", "ENDERECO": "AVENIDAABELCORREAGUIMARAES_2037_VILARICA_PINDAMONHANGABA", "CIDADE": "PINDAMONHANGABA", "LATITUDE": -22.94044, "LONGITUDE": -45.4825233, "BASE": "URGENTE_" }, "geometry": { "type": "Point", "coordinates": [ -45.4825233, -22.94044 ] } },
{ "type": "Feature", "properties": { "CNPJ": 45343366000100, "AGENTE": "GISLAINE_BOTELHO", "ACAO": "URGENTE_REALIZAR_PRIMEIRA_VISITA", "RAZAO_SOCIAL": "CHARLES_APARECIDO_ZANDONA_LTDA", "ENDERECO": "AVENIDANOSSASENHORADOPERPETUOSOCORRO_1450_NOSSASENHORADOPERPETUOSOCORRO_GUARATINGUETA", "CIDADE": "GUARATINGUETA", "LATITUDE": -22.9424346, "LONGITUDE": -45.4717998, "BASE": "URGENTE_" }, "geometry": { "type": "Point", "coordinates": [ -45.4717998, -22.9424346 ] } },
{ "type": "Feature", "properties": { "CNPJ": 49043258000164, "AGENTE": "GISLAINE_BOTELHO", "ACAO": "URGENTE_REALIZAR_PRIMEIRA_VISITA", "RAZAO_SOCIAL": "EVALDO_BORGES_DOS_SANTOS", "ENDERECO": "AVENIDANOSSASENHORADOPERPETUOSOCORRO_1701_NOSSASENHORADOPERPETUOSOCORRO_PINDAMONHANGABA", "CIDADE": "PINDAMONHANGABA", "LATITUDE": -22.943571, "LONGITUDE": -45.4727873, "BASE": "URGENTE_" }, "geometry": { "type": "Point", "coordinates": [ -45.4727873, -22.943571 ] } },
{ "type": "Feature", "properties": { "CNPJ": 8415643000108, "AGENTE": "GISLAINE_BOTELHO", "ACAO": "URGENTE_REALIZAR_PRIMEIRA_VISITA", "RAZAO_SOCIAL": "BELITA_CAMARGO_CABRAL", "ENDERECO": "AVENIDANOSSASENHORADOPERPETUOSOCORRO_1685_NOSSASENHORADOPERPETUOSOCORRO_PINDAMONHANGABA", "CIDADE": "PINDAMONHANGABA", "LATITUDE": -22.9454896, "LONGITUDE": -45.4753508, "BASE": "URGENTE_" }, "geometry": { "type": "Point", "coordinates": [ -45.4753508, -22.9454896 ] } },
{ "type": "Feature", "properties": { "CNPJ": 60485774000181, "AGENTE": "GISLAINE_BOTELHO", "ACAO": "URGENTE_REALIZAR_PRIMEIRA_VISITA", "RAZAO_SOCIAL": "MGF_EMBELEZAMENTO__ESTETICA_E_CUIDADO_ANIMAL_LTDA", "ENDERECO": "AVENIDANOSSASENHORADOPERPETUOSOCORRO_2018_NOSSASENHORADOPERPETUOSOCORRO_PINDAMONHANGABA", "CIDADE": "PINDAMONHANGABA", "LATITUDE": -22.945598, "LONGITUDE": -45.476004, "BASE": "URGENTE_" }, "geometry": { "type": "Point", "coordinates": [ -45.476004, -22.945598 ] } },
{ "type": "Feature", "properties": { "CNPJ": 37230680000140, "AGENTE": "GISLAINE_BOTELHO", "ACAO": "URGENTE_REALIZAR_PRIMEIRA_VISITA", "RAZAO_SOCIAL": "E_._DE_LIMA_FRANCISCO", "ENDERECO": "RODOVIAAMADORBUENODAVEIGA_2100_NOSSASENHORADOPERPETUOSOCORRO_PINDAMONHANGABA", "CIDADE": "PINDAMONHANGABA", "LATITUDE": -22.9482974, "LONGITUDE": -45.478397, "BASE": "URGENTE_" }, "geometry": { "type": "Point", "coordinates": [ -45.478397, -22.9482974 ] } },
{ "type": "Feature", "properties": { "CNPJ": 4830676000163, "AGENTE": "GISLAINE_BOTELHO", "ACAO": "URGENTE_REALIZAR_PRIMEIRA_VISITA", "RAZAO_SOCIAL": "METALURGICA_L_C_LTDA", "ENDERECO": "RUASANTABRANCA_50_CIDADENOVA_PINDAMONHANGABA", "CIDADE": "PINDAMONHANGABA", "LATITUDE": -22.9506383, "LONGITUDE": -45.407675, "BASE": "URGENTE_" }, "geometry": { "type": "Point", "coordinates": [ -45.407675, -22.9506383 ] } },
{ "type": "Feature", "properties": { "CNPJ": 7400932000170, "AGENTE": "GISLAINE_BOTELHO", "ACAO": "URGENTE_REALIZAR_PRIMEIRA_VISITA", "RAZAO_SOCIAL": "MARTINS_E_COELHO_COMERCIO_DE_RECICLAVEIS_LTDA", "ENDERECO": "RUASANTABRANCA_100_CIDADENOVA_PINDAMONHANGABA", "CIDADE": "PINDAMONHANGABA", "LATITUDE": -22.951585, "LONGITUDE": -45.4074783, "BASE": "URGENTE_" }, "geometry": { "type": "Point", "coordinates": [ -45.4074783, -22.951585 ] } },
{ "type": "Feature", "properties": { "CNPJ": 50197130000134, "AGENTE": "GISLAINE_BOTELHO", "ACAO": "URGENTE_REALIZAR_SEGUNDA_VISITA", "RAZAO_SOCIAL": "OTICAS_VITHORIA_LTDA", "ENDERECO": "RUABICUDOLEME_10_CENTRO_PINDAMONHANGABA", "CIDADE": "PINDAMONHANGABA", "LATITUDE": -22.9237263, "LONGITUDE": -45.4622366, "BASE": "URGENTE_" }, "geometry": { "type": "Point", "coordinates": [ -45.4622366, -22.9237263 ] } },
{ "type": "Feature", "properties": { "CNPJ": 10406963000143, "AGENTE": "GISLAINE_BOTELHO", "ACAO": "URGENTE_REALIZAR_SEGUNDA_VISITA", "RAZAO_SOCIAL": "CIA_DA_MODA_CONFECCOES_PINDALTDA", "ENDERECO": "RUABICUDOLEME_60_CENTRO_PINDAMONHANGABA", "CIDADE": "PINDAMONHANGABA", "LATITUDE": -22.9237609, "LONGITUDE": -45.4628862, "BASE": "URGENTE_" }, "geometry": { "type": "Point", "coordinates": [ -45.4628862, -22.9237609 ] } },
{ "type": "Feature", "properties": { "CNPJ": 365060000299, "AGENTE": "GISLAINE_BOTELHO", "ACAO": "URGENTE_REALIZAR_SEGUNDA_VISITA", "RAZAO_SOCIAL": "ADILSON_FERNANDES_DELPHINO", "ENDERECO": "RUABICUDOLEME_160_CENTRO_PINDAMONHANGABA", "CIDADE": "PINDAMONHANGABA", "LATITUDE": -22.923809, "LONGITUDE": -45.4638309, "BASE": "URGENTE_" }, "geometry": { "type": "Point", "coordinates": [ -45.4638309, -22.923809 ] } },
{ "type": "Feature", "properties": { "CNPJ": 4551604000187, "AGENTE": "GISLAINE_BOTELHO", "ACAO": "URGENTE_REALIZAR_SEGUNDA_VISITA", "RAZAO_SOCIAL": "VANIA_BOTANI_GONCALVES", "ENDERECO": "RUABICUDOLEME_144_CENTRO_PINDAMONHANGABA", "CIDADE": "PINDAMONHANGABA", "LATITUDE": -22.9239021, "LONGITUDE": -45.4636559, "BASE": "URGENTE_" }, "geometry": { "type": "Point", "coordinates": [ -45.4636559, -22.9239021 ] } },
{ "type": "Feature", "properties": { "CNPJ": 51501531000107, "AGENTE": "GISLAINE_BOTELHO", "ACAO": "URGENTE_REALIZAR_SEGUNDA_VISITA", "RAZAO_SOCIAL": "SILVA_E_CABRAL_FLORICULTURA_LTDA", "ENDERECO": "AVENIDACORONELFERNANDOPRESTES_96_CENTRO_PINDAMONHANGABA", "CIDADE": "PINDAMONHANGABA", "LATITUDE": -22.9244903, "LONGITUDE": -45.4610694, "BASE": "URGENTE_" }, "geometry": { "type": "Point", "coordinates": [ -45.4610694, -22.9244903 ] } },
{ "type": "Feature", "properties": { "CNPJ": 54887217000194, "AGENTE": "GISLAINE_BOTELHO", "ACAO": "URGENTE_REALIZAR_SEGUNDA_VISITA", "RAZAO_SOCIAL": "G.S.P_COMERCIO_DE_ROUPAS_E_ACESSORIOS_LTDA", "ENDERECO": "RUADOSANDRADAS_412_CENTRO_PINDAMONHANGABA", "CIDADE": "PINDAMONHANGABA", "LATITUDE": -22.9249, "LONGITUDE": -45.4640982, "BASE": "URGENTE_" }, "geometry": { "type": "Point", "coordinates": [ -45.4640982, -22.9249 ] } },
{ "type": "Feature", "properties": { "CNPJ": 48417570000108, "AGENTE": "GISLAINE_BOTELHO", "ACAO": "URGENTE_REALIZAR_SEGUNDA_VISITA", "RAZAO_SOCIAL": "CARMEN_LIVRAMENTO_DE_OLIVEIRA", "ENDERECO": "RUADOSANDRADAS_450_CENTRO_PINDAMONHANGABA", "CIDADE": "PINDAMONHANGABA", "LATITUDE": -22.9249113, "LONGITUDE": -45.4640371, "BASE": "URGENTE_" }, "geometry": { "type": "Point", "coordinates": [ -45.4640371, -22.9249113 ] } },
{ "type": "Feature", "properties": { "CNPJ": 34897760000165, "AGENTE": "GISLAINE_BOTELHO", "ACAO": "URGENTE_REALIZAR_SEGUNDA_VISITA", "RAZAO_SOCIAL": "R_A_FREIRE_SANTOS", "ENDERECO": "RUADOSANDRADAS_270_CENTRO_PINDAMONHANGABA", "CIDADE": "PINDAMONHANGABA", "LATITUDE": -22.9249835, "LONGITUDE": -45.4622634, "BASE": "URGENTE_" }, "geometry": { "type": "Point", "coordinates": [ -45.4622634, -22.9249835 ] } },
{ "type": "Feature", "properties": { "CNPJ": 30483286000174, "AGENTE": "GISLAINE_BOTELHO", "ACAO": "URGENTE_REALIZAR_SEGUNDA_VISITA", "RAZAO_SOCIAL": "CESAR_&_ALVES_OPTICA_LTDA", "ENDERECO": "RUADOSANDRADAS_96_CENTRO_PINDAMONHANGABA", "CIDADE": "PINDAMONHANGABA", "LATITUDE": -22.9252499, "LONGITUDE": -45.4606606, "BASE": "URGENTE_" }, "geometry": { "type": "Point", "coordinates": [ -45.4606606, -22.9252499 ] } },
{ "type": "Feature", "properties": { "CNPJ": 50455203000140, "AGENTE": "GISLAINE_BOTELHO", "ACAO": "URGENTE_REALIZAR_SEGUNDA_VISITA", "RAZAO_SOCIAL": "CASTOR_CONSULTORIA_DE_IMOVEIS_LTDA", "ENDERECO": "RUADOSANDRADAS_157_CENTRO_PINDAMONHANGABA", "CIDADE": "PINDAMONHANGABA", "LATITUDE": -22.9252774, "LONGITUDE": -45.4612793, "BASE": "URGENTE_" }, "geometry": { "type": "Point", "coordinates": [ -45.4612793, -22.9252774 ] } },
{ "type": "Feature", "properties": { "CNPJ": 40889516000153, "AGENTE": "GISLAINE_BOTELHO", "ACAO": "URGENTE_REALIZAR_SEGUNDA_VISITA", "RAZAO_SOCIAL": "ICEGEL_SABORES_GELADOS_LTDA", "ENDERECO": "RUADEZDEJULHO_35_CENTRO_PINDAMONHANGABA", "CIDADE": "PINDAMONHANGABA", "LATITUDE": -22.9257452, "LONGITUDE": -45.4616815, "BASE": "URGENTE_" }, "geometry": { "type": "Point", "coordinates": [ -45.4616815, -22.9257452 ] } },
{ "type": "Feature", "properties": { "CNPJ": 48401699000128, "AGENTE": "GISLAINE_BOTELHO", "ACAO": "URGENTE_REALIZAR_SEGUNDA_VISITA", "RAZAO_SOCIAL": "JOSE_SAVIO_MENEZES_DEL_MONACO", "ENDERECO": "TRAVESSACENTROCOMDEZDEJULHO_35_CENTRO_PINDAMONHANGABA", "CIDADE": "PINDAMONHANGABA", "LATITUDE": -22.9258684, "LONGITUDE": -45.4635361, "BASE": "URGENTE_" }, "geometry": { "type": "Point", "coordinates": [ -45.4635361, -22.9258684 ] } },
{ "type": "Feature", "properties": { "CNPJ": 37011743000177, "AGENTE": "GISLAINE_BOTELHO", "ACAO": "URGENTE_REALIZAR_SEGUNDA_VISITA", "RAZAO_SOCIAL": "CASA_DE_ARMARINHOS_OLIVEIRA_LTDA", "ENDERECO": "PRACAMONSENHORMARCONDES_112_CENTRO_PINDAMONHANGABA", "CIDADE": "PINDAMONHANGABA", "LATITUDE": -22.9260073, "LONGITUDE": -45.4628377, "BASE": "URGENTE_" }, "geometry": { "type": "Point", "coordinates": [ -45.4628377, -22.9260073 ] } },
{ "type": "Feature", "properties": { "CNPJ": 54553994000100, "AGENTE": "GISLAINE_BOTELHO", "ACAO": "URGENTE_REALIZAR_SEGUNDA_VISITA", "RAZAO_SOCIAL": "VISTA_BELA_HOTEL_LTDA", "ENDERECO": "AVENIDADOUTORJORGETIBIRICA_103_CENTRO_PINDAMONHANGABA", "CIDADE": "PINDAMONHANGABA", "LATITUDE": -22.9260457, "LONGITUDE": -45.4620161, "BASE": "URGENTE_" }, "geometry": { "type": "Point", "coordinates": [ -45.4620161, -22.9260457 ] } },
{ "type": "Feature", "properties": { "CNPJ": 50031673000187, "AGENTE": "GISLAINE_BOTELHO", "ACAO": "URGENTE_REALIZAR_SEGUNDA_VISITA", "RAZAO_SOCIAL": "PADARIA_E_CONFEITARIA_N_S_DO_BOM_SUCESSO_LTDA", "ENDERECO": "AVENIDADOUTORJORGETIBIRICA_115_CENTRO_PINDAMONHANGABA", "CIDADE": "PINDAMONHANGABA", "LATITUDE": -22.9261727, "LONGITUDE": -45.4620506, "BASE": "URGENTE_" }, "geometry": { "type": "Point", "coordinates": [ -45.4620506, -22.9261727 ] } },
{ "type": "Feature", "properties": { "CNPJ": 12105657000100, "AGENTE": "GISLAINE_BOTELHO", "ACAO": "URGENTE_REALIZAR_SEGUNDA_VISITA", "RAZAO_SOCIAL": "MASRI_&_MASRI_CALCADOS_E_CONFECCOES_LTDA", "ENDERECO": "PRACAMONSENHORMARCONDES_186_CENTRO_PINDAMONHANGABA", "CIDADE": "PINDAMONHANGABA", "LATITUDE": -22.92623, "LONGITUDE": -45.4624127, "BASE": "URGENTE_" }, "geometry": { "type": "Point", "coordinates": [ -45.4624127, -22.92623 ] } },
{ "type": "Feature", "properties": { "CNPJ": 11627177000210, "AGENTE": "GISLAINE_BOTELHO", "ACAO": "URGENTE_REALIZAR_SEGUNDA_VISITA", "RAZAO_SOCIAL": "CENTRO_DE_FORMACAO_DE_CONDUTORES_HORIZONTE_LTDA", "ENDERECO": "RUADOUTORGREGORIOCOSTA_94_CENTRO_PINDAMONHANGABA", "CIDADE": "PINDAMONHANGABA", "LATITUDE": -22.9263602, "LONGITUDE": -45.4597545, "BASE": "URGENTE_" }, "geometry": { "type": "Point", "coordinates": [ -45.4597545, -22.9263602 ] } },
{ "type": "Feature", "properties": { "CNPJ": 9311701000116, "AGENTE": "GISLAINE_BOTELHO", "ACAO": "URGENTE_REALIZAR_SEGUNDA_VISITA", "RAZAO_SOCIAL": "LUCIANA_DA_SILVA_CORREARD_VEIGA", "ENDERECO": "RUADOUTORGUSTAVODEGODOY_36_CENTRO_PINDAMONHANGABA", "CIDADE": "PINDAMONHANGABA", "LATITUDE": -22.9264697, "LONGITUDE": -45.4624783, "BASE": "URGENTE_" }, "geometry": { "type": "Point", "coordinates": [ -45.4624783, -22.9264697 ] } },
{ "type": "Feature", "properties": { "CNPJ": 52253034000191, "AGENTE": "GISLAINE_BOTELHO", "ACAO": "URGENTE_REALIZAR_SEGUNDA_VISITA", "RAZAO_SOCIAL": "JOAO_GABRIEL_LOURENCO_SERVICOS_E_TRANSPORTES_LTDA", "ENDERECO": "RUADOUTORGUSTAVODEGODOY_27_CENTRO_PINDAMONHANGABA", "CIDADE": "PINDAMONHANGABA", "LATITUDE": -22.926545, "LONGITUDE": -45.4623667, "BASE": "URGENTE_" }, "geometry": { "type": "Point", "coordinates": [ -45.4623667, -22.926545 ] } },
{ "type": "Feature", "properties": { "CNPJ": 782848000110, "AGENTE": "GISLAINE_BOTELHO", "ACAO": "URGENTE_REALIZAR_SEGUNDA_VISITA", "RAZAO_SOCIAL": "ONOFRE_PEREIRA_-_POSTO_DE_MOLAS_CIDADE_NOVA", "ENDERECO": "RUATREMEMBE_64_CIDADENOVA_PINDAMONHANGABA", "CIDADE": "PINDAMONHANGABA", "LATITUDE": -22.94232, "LONGITUDE": -45.4124555, "BASE": "URGENTE_" }, "geometry": { "type": "Point", "coordinates": [ -45.4124555, -22.94232 ] } },
{ "type": "Feature", "properties": { "CNPJ": 27666622000100, "AGENTE": "GISLAINE_BOTELHO", "ACAO": "URGENTE_REALIZAR_SEGUNDA_VISITA", "RAZAO_SOCIAL": "ANA_CAROLINA_DOS_SANTOS_DE_CARVALHO_TEIXEIRA_-_A_D_C_MECANICA_DIESEL", "ENDERECO": "AVENIDASAOPAULO_650_CIDADENOVA_PINDAMONHANGABA", "CIDADE": "PINDAMONHANGABA", "LATITUDE": -22.9438399, "LONGITUDE": -45.4051772, "BASE": "URGENTE_" }, "geometry": { "type": "Point", "coordinates": [ -45.4051772, -22.9438399 ] } },
{ "type": "Feature", "properties": { "CNPJ": 24109961000105, "AGENTE": "GISLAINE_BOTELHO", "ACAO": "URGENTE_REALIZAR_SEGUNDA_VISITA", "RAZAO_SOCIAL": "ANA_PAULA_DE_OLIVEIRA_FISIOTERAPIA_-_COLUNA_BLINDADA", "ENDERECO": "AVENIDASAOPAULO_482_CIDADENOVA_PINDAMONHANGABA", "CIDADE": "PINDAMONHANGABA", "LATITUDE": -22.9442767, "LONGITUDE": -45.4069709, "BASE": "URGENTE_" }, "geometry": { "type": "Point", "coordinates": [ -45.4069709, -22.9442767 ] } },
{ "type": "Feature", "properties": { "CNPJ": 54976585000109, "AGENTE": "GISLAINE_BOTELHO", "ACAO": "URGENTE_REALIZAR_SEGUNDA_VISITA", "RAZAO_SOCIAL": "PDM_MANUTENCAO_MECANICA_LTDA_-_P_D_M_MANUTENCAO", "ENDERECO": "AVENIDAMANOELCESARRIBEIRO_4105_CIDADENOVA_PINDAMONHANGABA", "CIDADE": "PINDAMONHANGABA", "LATITUDE": -22.94572, "LONGITUDE": -45.4116511, "BASE": "URGENTE_" }, "geometry": { "type": "Point", "coordinates": [ -45.4116511, -22.94572 ] } },
{ "type": "Feature", "properties": { "CNPJ": 47657052000107, "AGENTE": "GISLAINE_BOTELHO", "ACAO": "REALIZAR_SEGUNDA_VISITA", "RAZAO_SOCIAL": "47.657.052_FERNANDO_SAVIO_MIRANDA_BROCA_JUNIOR_-_VASSOURAS_VITORIA", "ENDERECO": "RUADOUTORFONTESJUNIOR_340_MARIAAUREA_PINDAMONHANGABA", "CIDADE": "PINDAMONHANGABA", "LATITUDE": -22.934938, "LONGITUDE": -45.4645932, "BASE": "ATENDIDOS" }, "geometry": { "type": "Point", "coordinates": [ -45.4645932, -22.934938 ] } },
{ "type": "Feature", "properties": { "CNPJ": 35985260000148, "AGENTE": "GISLAINE_BOTELHO", "ACAO": "REALIZAR_SEGUNDA_VISITA", "RAZAO_SOCIAL": "C._R._DE_A._OLIVEIRA_MANUTENCAO_INDUSTRIAL_LTDA_-_TORMEC", "ENDERECO": "RUAQUIRIRIM_52_CIDADENOVA_PINDAMONHANGABA", "CIDADE": "PINDAMONHANGABA", "LATITUDE": -22.9414791, "LONGITUDE": -45.4110994, "BASE": "ATENDIDOS" }, "geometry": { "type": "Point", "coordinates": [ -45.4110994, -22.9414791 ] } },
{ "type": "Feature", "properties": { "CNPJ": 6881736000100, "AGENTE": "GISLAINE_BOTELHO", "ACAO": "REALIZAR_SEGUNDA_VISITA", "RAZAO_SOCIAL": "APARECIDA_CRISTIANE_VESTUARIO_LTDA", "ENDERECO": "RUADOUTORGUSTAVODEGODOY_64_VILANAIR_PINDAMONHANGABA", "CIDADE": "PINDAMONHANGABA", "LATITUDE": -22.9270359, "LONGITUDE": -45.46202, "BASE": "ATENDIDOS" }, "geometry": { "type": "Point", "coordinates": [ -45.46202, -22.9270359 ] } },
{ "type": "Feature", "properties": { "CNPJ": 41953538000106, "AGENTE": "GISLAINE_BOTELHO", "ACAO": "REALIZAR_SEGUNDA_VISITA", "RAZAO_SOCIAL": "DUOFIT_SAUDE_E_DESEMPENHO_LTDA_-_DUOFIT", "ENDERECO": "AVENIDAFORTUNATOMOREIRA_141_CENTRO_PINDAMONHANGABA", "CIDADE": "PINDAMONHANGABA", "LATITUDE": -22.927958, "LONGITUDE": -45.4581018, "BASE": "ATENDIDOS" }, "geometry": { "type": "Point", "coordinates": [ -45.4581018, -22.927958 ] } },
{ "type": "Feature", "properties": { "CNPJ": 11190911000145, "AGENTE": "GISLAINE_BOTELHO", "ACAO": "REALIZAR_SEGUNDA_VISITA", "RAZAO_SOCIAL": "EBENEZER", "ENDERECO": "RUA_ABEL_JOSE_DE_CAMPOS_157_MOREIRA_CESAR_PINDAMONHANGABA_BRASIL", "CIDADE": "PINDAMONHANGABA", "LATITUDE": -22.914867, "LONGITUDE": -45.3605023, "BASE": "ATENDIDOS" }, "geometry": { "type": "Point", "coordinates": [ -45.3605023, -22.914867 ] } },
{ "type": "Feature", "properties": { "CNPJ": 45915175000167, "AGENTE": "GISLAINE_BOTELHO", "ACAO": "REALIZAR_SEGUNDA_VISITA", "RAZAO_SOCIAL": "OLIVEIRA_MACHADO_CAFETERIA_LTDA", "ENDERECO": "RUADEZDEJULHO_87_CENTRO_PINDAMONHANGABA", "CIDADE": "PINDAMONHANGABA", "LATITUDE": -22.9257534, "LONGITUDE": -45.4611601, "BASE": "ATENDIDOS" }, "geometry": { "type": "Point", "coordinates": [ -45.4611601, -22.9257534 ] } },
{ "type": "Feature", "properties": { "CNPJ": 3972325000124, "AGENTE": "GISLAINE_BOTELHO", "ACAO": "REALIZAR_SEGUNDA_VISITA", "RAZAO_SOCIAL": "CIMAR_SERVICOS_GERAIS_LTDA", "ENDERECO": "AVENIDANOSSASENHORADOPERPETUOSOCORRO_1920_NOSSASENHORADOPERPETUOSOCORRO_GUARATINGUETA", "CIDADE": "GUARATINGUETA", "LATITUDE": -22.9447714, "LONGITUDE": -45.4750894, "BASE": "ATENDIDOS" }, "geometry": { "type": "Point", "coordinates": [ -45.4750894, -22.9447714 ] } },
{ "type": "Feature", "properties": { "CNPJ": 59007189000197, "AGENTE": "GISLAINE_BOTELHO", "ACAO": "REALIZAR_SEGUNDA_VISITA", "RAZAO_SOCIAL": "LAVILLA_PIZZARIA_E_PETISCARIA_LTDA_-_LAVILLA", "ENDERECO": "RUAGUILHERMENICOLETTI_1199_VILASAOBENEDITO_PINDAMONHANGABA", "CIDADE": "PINDAMONHANGABA", "LATITUDE": -22.8907482, "LONGITUDE": -45.3891417, "BASE": "ATENDIDOS" }, "geometry": { "type": "Point", "coordinates": [ -45.3891417, -22.8907482 ] } },
{ "type": "Feature", "properties": { "CNPJ": 49466530000119, "AGENTE": "GISLAINE_BOTELHO", "ACAO": "REALIZAR_SEGUNDA_VISITA", "RAZAO_SOCIAL": "NEW_IMOB'S_-_SOLUCOES_IMOBILIARIAS_LTDA_-_NOBRE_IMOVEIS", "ENDERECO": "RUAEUGENIOSIQUEIRASALGADO_25_CENTRO_PINDAMONHANGABA", "CIDADE": "PINDAMONHANGABA", "LATITUDE": -22.9228719, "LONGITUDE": -45.4597206, "BASE": "ATENDIDOS" }, "geometry": { "type": "Point", "coordinates": [ -45.4597206, -22.9228719 ] } },
{ "type": "Feature", "properties": { "CNPJ": 59151606000170, "AGENTE": "GISLAINE_BOTELHO", "ACAO": "REALIZAR_SEGUNDA_VISITA", "RAZAO_SOCIAL": "BCS_CREDITOS_E_FINANCIAMENTOS_LTDA_-_B_S_CRED", "ENDERECO": "PRACADESEMBARGADOREDUARDODECAMPOSMAIA_16_BOSQUEDAPRINCESA_PINDAMONHANGABA", "CIDADE": "PINDAMONHANGABA", "LATITUDE": -22.9233954, "LONGITUDE": -45.4609054, "BASE": "ATENDIDOS" }, "geometry": { "type": "Point", "coordinates": [ -45.4609054, -22.9233954 ] } },
{ "type": "Feature", "properties": { "CNPJ": 43378443000123, "AGENTE": "GISLAINE_BOTELHO", "ACAO": "REALIZAR_SEGUNDA_VISITA", "RAZAO_SOCIAL": "OMEGA_NUTRITION_LTDA_-_OMEGA_SUPLEMENTOS", "ENDERECO": "RUAPRUDENTEDEMORAES_244_CENTRO_PINDAMONHANGABA", "CIDADE": "PINDAMONHANGABA", "LATITUDE": -22.9235388, "LONGITUDE": -45.4598537, "BASE": "ATENDIDOS" }, "geometry": { "type": "Point", "coordinates": [ -45.4598537, -22.9235388 ] } },
{ "type": "Feature", "properties": { "CNPJ": 45342744000122, "AGENTE": "GISLAINE_BOTELHO", "ACAO": "REALIZAR_SEGUNDA_VISITA", "RAZAO_SOCIAL": "LUCAS_PERILLO_DE_CASTRO_MORAES_34170525809_-_RENOVA_TOP", "ENDERECO": "RUAGENERALJULIOSALGADO_684_SANTANA_PINDAMONHANGABA", "CIDADE": "PINDAMONHANGABA", "LATITUDE": -22.9262917, "LONGITUDE": -45.4528717, "BASE": "ATENDIDOS" }, "geometry": { "type": "Point", "coordinates": [ -45.4528717, -22.9262917 ] } },
{ "type": "Feature", "properties": { "CNPJ": 52591960000177, "AGENTE": "GISLAINE_BOTELHO", "ACAO": "REALIZAR_SEGUNDA_VISITA", "RAZAO_SOCIAL": "52.591.960_EZILDA_HELIETE_DE_SOUZA_-_L_&_E_CALCADOS", "ENDERECO": "RUADOUTORRUBIAOJUNIOR_277_CENTRO_PINDAMONHANGABA", "CIDADE": "PINDAMONHANGABA", "LATITUDE": -22.9272403, "LONGITUDE": -45.4622987, "BASE": "ATENDIDOS" }, "geometry": { "type": "Point", "coordinates": [ -45.4622987, -22.9272403 ] } },
{ "type": "Feature", "properties": { "CNPJ": 41870042000160, "AGENTE": "GISLAINE_BOTELHO", "ACAO": "REALIZAR_SEGUNDA_VISITA", "RAZAO_SOCIAL": "JAQUELINE_IZIDORO_DA_SILVA_SOARES_SANTOS_DE_ASSIS_43461560880_-_MALHARIA_KARISMA", "ENDERECO": "AVENIDAFORTUNATOMOREIRA_237_CENTRO_PINDAMONHANGABA", "CIDADE": "PINDAMONHANGABA", "LATITUDE": -22.9279161, "LONGITUDE": -45.457244, "BASE": "ATENDIDOS" }, "geometry": { "type": "Point", "coordinates": [ -45.457244, -22.9279161 ] } },
{ "type": "Feature", "properties": { "CNPJ": 54089994000193, "AGENTE": "GISLAINE_BOTELHO", "ACAO": "REALIZAR_SEGUNDA_VISITA", "RAZAO_SOCIAL": "JL_CHOCOLATES_HOLANDA_COMERCIO_VAREJISTA_LTDA_-_CHOCOLATES_HOLANDA", "ENDERECO": "RUAMAJORJOSEDOSSANTOSMOREIRA_423_CENTRO_PINDAMONHANGABA", "CIDADE": "PINDAMONHANGABA", "LATITUDE": -22.9307297, "LONGITUDE": -45.4598668, "BASE": "ATENDIDOS" }, "geometry": { "type": "Point", "coordinates": [ -45.4598668, -22.9307297 ] } },
{ "type": "Feature", "properties": { "CNPJ": 7884328000167, "AGENTE": "GISLAINE_BOTELHO", "ACAO": "REALIZAR_SEGUNDA_VISITA", "RAZAO_SOCIAL": "RIBEIRO_&_RIBEIRO_AUTOMOVEIS_LTDA_-_WAR_VEICULOS", "ENDERECO": "RUADOUTORFREDERICOMACHADO_498_PARQUESAOBENEDITO_PINDAMONHANGABA", "CIDADE": "PINDAMONHANGABA", "LATITUDE": -22.9322471, "LONGITUDE": -45.4595213, "BASE": "ATENDIDOS" }, "geometry": { "type": "Point", "coordinates": [ -45.4595213, -22.9322471 ] } },
{ "type": "Feature", "properties": { "CNPJ": 47597424000149, "AGENTE": "GISLAINE_BOTELHO", "ACAO": "REALIZAR_SEGUNDA_VISITA", "RAZAO_SOCIAL": "BROTHERS_TRAINING_STORE_LTDA_-_BROTHERS_TRAINING", "ENDERECO": "RUADOUTORLAERTEMACHADOGUIMARAES_164_SAOBENEDITO_PINDAMONHANGABA", "CIDADE": "PINDAMONHANGABA", "LATITUDE": -22.9326769, "LONGITUDE": -45.4604251, "BASE": "ATENDIDOS" }, "geometry": { "type": "Point", "coordinates": [ -45.4604251, -22.9326769 ] } },
{ "type": "Feature", "properties": { "CNPJ": 27088344000150, "AGENTE": "GISLAINE_BOTELHO", "ACAO": "REALIZAR_SEGUNDA_VISITA", "RAZAO_SOCIAL": "MARCELO_LOIOLA_MULATO_-_ILUMINE", "ENDERECO": "AVENIDAALBUQUERQUELINS_530_JARDIMROSELY_PINDAMONHANGABA", "CIDADE": "PINDAMONHANGABA", "LATITUDE": -22.9336881, "LONGITUDE": -45.4603247, "BASE": "ATENDIDOS" }, "geometry": { "type": "Point", "coordinates": [ -45.4603247, -22.9336881 ] } },
{ "type": "Feature", "properties": { "CNPJ": 39922644000172, "AGENTE": "GISLAINE_BOTELHO", "ACAO": "REALIZAR_SEGUNDA_VISITA", "RAZAO_SOCIAL": "ANDREIA_CRISTINA_ABREU_DA_CUNHA_17110973816_-_BAR_DA_ANDREIA", "ENDERECO": "RUARODRIGOLOBATO_144_ALTODOCARDOSO_PINDAMONHANGABA", "CIDADE": "PINDAMONHANGABA", "LATITUDE": -22.9340885, "LONGITUDE": -45.4634518, "BASE": "ATENDIDOS" }, "geometry": { "type": "Point", "coordinates": [ -45.4634518, -22.9340885 ] } },
{ "type": "Feature", "properties": { "CNPJ": 48083394000115, "AGENTE": "GISLAINE_BOTELHO", "ACAO": "REALIZAR_SEGUNDA_VISITA", "RAZAO_SOCIAL": "PINDA_COMERCIO_DE_BATERIAS_LTDA_-_BATERIAS_PINDA", "ENDERECO": "RUADOUTORFONTESJUNIOR_233_MARIAAUREA_PINDAMONHANGABA", "CIDADE": "PINDAMONHANGABA", "LATITUDE": -22.9343748, "LONGITUDE": -45.4637387, "BASE": "ATENDIDOS" }, "geometry": { "type": "Point", "coordinates": [ -45.4637387, -22.9343748 ] } },
{ "type": "Feature", "properties": { "CNPJ": 22950049000148, "AGENTE": "GISLAINE_BOTELHO", "ACAO": "REALIZAR_SEGUNDA_VISITA", "RAZAO_SOCIAL": "FABIANO_CESAR_CARVALHO_32268588823_-_BARBEARIA_DO_GIGANTE", "ENDERECO": "RUADOUTORFONTESJUNIOR_334_MARIAAUREA_PINDAMONHANGABA", "CIDADE": "PINDAMONHANGABA", "LATITUDE": -22.9348883, "LONGITUDE": -45.4645591, "BASE": "ATENDIDOS" }, "geometry": { "type": "Point", "coordinates": [ -45.4645591, -22.9348883 ] } },
{ "type": "Feature", "properties": { "CNPJ": 30640511000139, "AGENTE": "GISLAINE_BOTELHO", "ACAO": "REALIZAR_SEGUNDA_VISITA", "RAZAO_SOCIAL": "30.640.511_MARCOS_JOSE_ANTONIO_-_M_J_A_CONSERTO_DE_VEICULOS", "ENDERECO": "TRAVESSABARAODOAMAZONAS_56_ALTODOCARDOSO_PINDAMONHANGABA", "CIDADE": "PINDAMONHANGABA", "LATITUDE": -22.9349134, "LONGITUDE": -45.4636249, "BASE": "ATENDIDOS" }, "geometry": { "type": "Point", "coordinates": [ -45.4636249, -22.9349134 ] } },
{ "type": "Feature", "properties": { "CNPJ": 60191999000125, "AGENTE": "GISLAINE_BOTELHO", "ACAO": "REALIZAR_SEGUNDA_VISITA", "RAZAO_SOCIAL": "RC_FERRAGENS_ACO_ARMADO_LTDA_-_R_C_FERRAGENS", "ENDERECO": "AVENIDABENEDITORIBEIRODACUNHA_63_JARDIMROSELY_PINDAMONHANGABA", "CIDADE": "PINDAMONHANGABA", "LATITUDE": -22.935158, "LONGITUDE": -45.4615526, "BASE": "ATENDIDOS" }, "geometry": { "type": "Point", "coordinates": [ -45.4615526, -22.935158 ] } },
{ "type": "Feature", "properties": { "CNPJ": 14877719000110, "AGENTE": "GISLAINE_BOTELHO", "ACAO": "REALIZAR_SEGUNDA_VISITA", "RAZAO_SOCIAL": "MADEIREIRA_IDEAL_LTDA_-_MADEIRAS_IDEAL", "ENDERECO": "AVENIDABENEDITORIBEIRODACUNHA_97_JARDIMROSELY_PINDAMONHANGABA", "CIDADE": "PINDAMONHANGABA", "LATITUDE": -22.9353295, "LONGITUDE": -45.4610606, "BASE": "ATENDIDOS" }, "geometry": { "type": "Point", "coordinates": [ -45.4610606, -22.9353295 ] } },
{ "type": "Feature", "properties": { "CNPJ": 7519371000395, "AGENTE": "GISLAINE_BOTELHO", "ACAO": "REALIZAR_SEGUNDA_VISITA", "RAZAO_SOCIAL": "B._T._LUBRIFICANTES_LTDA._-_CASA_DO_OLEO", "ENDERECO": "AVENIDABENEDITORIBEIRODACUNHA_115_JARDIMROSELY_PINDAMONHANGABA", "CIDADE": "PINDAMONHANGABA", "LATITUDE": -22.9353433, "LONGITUDE": -45.460925, "BASE": "ATENDIDOS" }, "geometry": { "type": "Point", "coordinates": [ -45.460925, -22.9353433 ] } },
{ "type": "Feature", "properties": { "CNPJ": 14636756000136, "AGENTE": "GISLAINE_BOTELHO", "ACAO": "REALIZAR_SEGUNDA_VISITA", "RAZAO_SOCIAL": "MARIA_LUCINEIDE_OKINO_12783462877_-_NEIDDE_FANTASIAS", "ENDERECO": "AVENIDADOUTORFRANCISCOLESSAJUNIOR_871_CHACARAGALEGA_PINDAMONHANGABA", "CIDADE": "PINDAMONHANGABA", "LATITUDE": -22.9357341, "LONGITUDE": -45.4677017, "BASE": "ATENDIDOS" }, "geometry": { "type": "Point", "coordinates": [ -45.4677017, -22.9357341 ] } },
{ "type": "Feature", "properties": { "CNPJ": 47162345000105, "AGENTE": "GISLAINE_BOTELHO", "ACAO": "REALIZAR_SEGUNDA_VISITA", "RAZAO_SOCIAL": "N._M._G._FERREIRA_LATICINIO_-_N_F_LATICINOS", "ENDERECO": "AVENIDAALBUQUERQUELINS_815_JARDIMROSELY_PINDAMONHANGABA", "CIDADE": "PINDAMONHANGABA", "LATITUDE": -22.936115, "LONGITUDE": -45.4598683, "BASE": "ATENDIDOS" }, "geometry": { "type": "Point", "coordinates": [ -45.4598683, -22.936115 ] } },
{ "type": "Feature", "properties": { "CNPJ": 47947748000160, "AGENTE": "GISLAINE_BOTELHO", "ACAO": "REALIZAR_SEGUNDA_VISITA", "RAZAO_SOCIAL": "VANESSA_CRISTINA_MOREIRA_DE_OLIVEIRA_37100591864_-_VANESSA_MOREIRA", "ENDERECO": "AVENIDANOSSASENHORADOBOMSUCESSO_1282_ALTODOCARDOSO_PINDAMONHANGABA", "CIDADE": "PINDAMONHANGABA", "LATITUDE": -22.9365996, "LONGITUDE": -45.4621142, "BASE": "ATENDIDOS" }, "geometry": { "type": "Point", "coordinates": [ -45.4621142, -22.9365996 ] } },
{ "type": "Feature", "properties": { "CNPJ": 69112803000134, "AGENTE": "GISLAINE_BOTELHO", "ACAO": "REALIZAR_SEGUNDA_VISITA", "RAZAO_SOCIAL": "JOSE_HERNANDES_LOBATO_-_HERNANDES_AUTOMOVEIS", "ENDERECO": "AVENIDANOSSASENHORADOBOMSUCESSO_1355_ALTODOCARDOSO_PINDAMONHANGABA", "CIDADE": "PINDAMONHANGABA", "LATITUDE": -22.9372861, "LONGITUDE": -45.4618916, "BASE": "ATENDIDOS" }, "geometry": { "type": "Point", "coordinates": [ -45.4618916, -22.9372861 ] } },
{ "type": "Feature", "properties": { "CNPJ": 12074037000143, "AGENTE": "GISLAINE_BOTELHO", "ACAO": "REALIZAR_SEGUNDA_VISITA", "RAZAO_SOCIAL": "JOAO_C._RIBEIRO_-_CAIO_AUTO_ELETRICA", "ENDERECO": "RUADOUTORFREDERICOMACHADO_1237_SAOBENEDITO_PINDAMONHANGABA", "CIDADE": "PINDAMONHANGABA", "LATITUDE": -22.9375167, "LONGITUDE": -45.458725, "BASE": "ATENDIDOS" }, "geometry": { "type": "Point", "coordinates": [ -45.458725, -22.9375167 ] } },
{ "type": "Feature", "properties": { "CNPJ": 23653939000150, "AGENTE": "GISLAINE_BOTELHO", "ACAO": "REALIZAR_SEGUNDA_VISITA", "RAZAO_SOCIAL": "WANDA_AUXILIADORA_SOARES_16272879814_-_ARTE__BELEZA", "ENDERECO": "AVENIDAALBUQUERQUELINS_970_SAOBENEDITO_PINDAMONHANGABA", "CIDADE": "PINDAMONHANGABA", "LATITUDE": -22.9377962, "LONGITUDE": -45.4599483, "BASE": "ATENDIDOS" }, "geometry": { "type": "Point", "coordinates": [ -45.4599483, -22.9377962 ] } },
{ "type": "Feature", "properties": { "CNPJ": 361019000163, "AGENTE": "GISLAINE_BOTELHO", "ACAO": "REALIZAR_SEGUNDA_VISITA", "RAZAO_SOCIAL": "C_R_DA_COSTA_FERRAGENS_-_TICO_FERRAGENS", "ENDERECO": "RUACELESTE_61_JARDIMROSELY_PINDAMONHANGABA", "CIDADE": "PINDAMONHANGABA", "LATITUDE": -22.9379807, "LONGITUDE": -45.4598907, "BASE": "ATENDIDOS" }, "geometry": { "type": "Point", "coordinates": [ -45.4598907, -22.9379807 ] } },
{ "type": "Feature", "properties": { "CNPJ": 24748110000102, "AGENTE": "GISLAINE_BOTELHO", "ACAO": "REALIZAR_SEGUNDA_VISITA", "RAZAO_SOCIAL": "ADRIEL_MARCOS_DE_LIMA_15969034819_-_AUTO_MADRI", "ENDERECO": "RUADOUTORMANOELIGNACIOMARCONDESROMEIRO_691_VILARICA_PINDAMONHANGABA", "CIDADE": "PINDAMONHANGABA", "LATITUDE": -22.941705, "LONGITUDE": -45.4621783, "BASE": "ATENDIDOS" }, "geometry": { "type": "Point", "coordinates": [ -45.4621783, -22.941705 ] } },
{ "type": "Feature", "properties": { "CNPJ": 19839726000140, "AGENTE": "GISLAINE_BOTELHO", "ACAO": "REALIZAR_SEGUNDA_VISITA", "RAZAO_SOCIAL": "19.839.726_TATIANA_GOMES_MATSUMOTO_DE_TOLEDO_-_TATIANA_MATSUMOTO", "ENDERECO": "RUAPAPAJOAOXXIII_371_ALTODOCARDOSO_PINDAMONHANGABA", "CIDADE": "PINDAMONHANGABA", "LATITUDE": -22.9440274, "LONGITUDE": -45.4642126, "BASE": "ATENDIDOS" }, "geometry": { "type": "Point", "coordinates": [ -45.4642126, -22.9440274 ] } },
{ "type": "Feature", "properties": { "CNPJ": 49595680000122, "AGENTE": "GISLAINE_BOTELHO", "ACAO": "REALIZAR_SEGUNDA_VISITA", "RAZAO_SOCIAL": "PIZZARIA_&_PETISCARIA_GAUCHINHO_LTDA_-_PIZZARIA_E_PETISCARARIA_GAUCHINHO", "ENDERECO": "AVENIDASAOPAULO_385_CIDADENOVA_PINDAMONHANGABA", "CIDADE": "PINDAMONHANGABA", "LATITUDE": -22.9441631, "LONGITUDE": -45.4076814, "BASE": "ATENDIDOS" }, "geometry": { "type": "Point", "coordinates": [ -45.4076814, -22.9441631 ] } },
{ "type": "Feature", "properties": { "CNPJ": 57774806000154, "AGENTE": "GISLAINE_BOTELHO", "ACAO": "REALIZAR_SEGUNDA_VISITA", "RAZAO_SOCIAL": "57.774.806_ANDREW_FUENTES_DA_SILVA_-_MANU_STORE", "ENDERECO": "AVENIDARIODEJANEIRO_875_CIDADENOVA_PINDAMONHANGABA", "CIDADE": "PINDAMONHANGABA", "LATITUDE": -22.9476369, "LONGITUDE": -45.4073596, "BASE": "ATENDIDOS" }, "geometry": { "type": "Point", "coordinates": [ -45.4073596, -22.9476369 ] } },
{ "type": "Feature", "properties": { "CNPJ": 12607825000158, "AGENTE": "GISLAINE_BOTELHO", "ACAO": "REALIZAR_SEGUNDA_VISITA", "RAZAO_SOCIAL": "12.607.825_PAULO_MARCELO_GONCALVES_-_P_M_G_MARCENARIA", "ENDERECO": "AVENIDAANTONIOPINHEIROJUNIOR_1669_JARDIMCRISTINA_PINDAMONHANGABA", "CIDADE": "PINDAMONHANGABA", "LATITUDE": -22.949558, "LONGITUDE": -45.4543136, "BASE": "ATENDIDOS" }, "geometry": { "type": "Point", "coordinates": [ -45.4543136, -22.949558 ] } },
{ "type": "Feature", "properties": { "CNPJ": 46762581000108, "AGENTE": "GISLAINE_BOTELHO", "ACAO": "REALIZAR_SEGUNDA_VISITA", "RAZAO_SOCIAL": "M&G_AUTO_CENTER_LTDA_-_M_G_AUTO_CENTER", "ENDERECO": "RUAJAPAO_330_PARQUEDASNACOES_PINDAMONHANGABA", "CIDADE": "PINDAMONHANGABA", "LATITUDE": -22.9512753, "LONGITUDE": -45.4652875, "BASE": "ATENDIDOS" }, "geometry": { "type": "Point", "coordinates": [ -45.4652875, -22.9512753 ] } },
{ "type": "Feature", "properties": { "CNPJ": 30426356000152, "AGENTE": "GISLAINE_BOTELHO", "ACAO": "REALIZAR_SEGUNDA_VISITA", "RAZAO_SOCIAL": "MANUCELL", "ENDERECO": "AVENIDA_RIO_DE_JANEIRO_521_CIDADE_NOVA_PINDAMONHANGABA_BRASIL", "CIDADE": "PINDAMONHANGABA", "LATITUDE": -22.9453777, "LONGITUDE": -45.408155, "BASE": "ATENDIDOS" }, "geometry": { "type": "Point", "coordinates": [ -45.408155, -22.9453777 ] } },
{ "type": "Feature", "properties": { "CNPJ": 8753316000166, "AGENTE": "GISLAINE_BOTELHO", "ACAO": "REALIZAR_SEGUNDA_VISITA", "RAZAO_SOCIAL": "A_C_T_ACOMODACAO_DE_CARGA", "ENDERECO": "AVENIDA_PROF_MANOEL_CESAR_RIBEIRO_4095_CIDADE_NOVA_PINDAMONHANGABA_BRASIL", "CIDADE": "PINDAMONHANGABA", "LATITUDE": -22.9456627, "LONGITUDE": -45.4118079, "BASE": "ATENDIDOS" }, "geometry": { "type": "Point", "coordinates": [ -45.4118079, -22.9456627 ] } },
{ "type": "Feature", "properties": { "CNPJ": 30212764000101, "AGENTE": "GISLAINE_BOTELHO", "ACAO": "REALIZAR_SEGUNDA_VISITA", "RAZAO_SOCIAL": "J_J_TRUCK_DIESEL", "ENDERECO": "AVENIDA_PROFESSOR_MANOEL_CESAR_RIBEIRO_4617_CIDADE_NOVA_PINDAMONHANGABA_BRASIL", "CIDADE": "PINDAMONHANGABA", "LATITUDE": -22.948061, "LONGITUDE": -45.4084614, "BASE": "ATENDIDOS" }, "geometry": { "type": "Point", "coordinates": [ -45.4084614, -22.948061 ] } },
{ "type": "Feature", "properties": { "CNPJ": 97531723000159, "AGENTE": "GISLAINE_BOTELHO", "ACAO": "REALIZAR_SEGUNDA_VISITA", "RAZAO_SOCIAL": "JAGUAR_SERVICOS_E_AUTO_MECANICA", "ENDERECO": "AVENIDA_MANOEL_CESAR_RIBEIRO_4753_IPIRANGA_PINDAMONHANGABA_BRASIL", "CIDADE": "PINDAMONHANGABA", "LATITUDE": -22.9491983, "LONGITUDE": -45.4075867, "BASE": "ATENDIDOS" }, "geometry": { "type": "Point", "coordinates": [ -45.4075867, -22.9491983 ] } },
{ "type": "Feature", "properties": { "CNPJ": 61197211000150, "AGENTE": "GISLAINE_BOTELHO", "ACAO": "REALIZAR_SEGUNDA_VISITA", "RAZAO_SOCIAL": "R_M_PECAS_DIESEL", "ENDERECO": "AVENIDA_RIO_DE_JANEIRO_942_CIDADE_NOVA_PINDAMONHANGABA_BRASIL", "CIDADE": "PINDAMONHANGABA", "LATITUDE": -22.9489173, "LONGITUDE": -45.4072731, "BASE": "ATENDIDOS" }, "geometry": { "type": "Point", "coordinates": [ -45.4072731, -22.9489173 ] } },
{ "type": "Feature", "properties": { "CNPJ": 60016178000152, "AGENTE": "GISLAINE_BOTELHO", "ACAO": "REALIZAR_SEGUNDA_VISITA", "RAZAO_SOCIAL": "JESUS_ABENCOA_ASSADOS", "ENDERECO": "RUA_ABEL_JOSE_DE_CAMPOS_80_MOREIRA_CESAR_PINDAMONHANGABA_BRASIL", "CIDADE": "PINDAMONHANGABA", "LATITUDE": -22.91416, "LONGITUDE": -45.3613, "BASE": "ATENDIDOS" }, "geometry": { "type": "Point", "coordinates": [ -45.3613, -22.91416 ] } },
{ "type": "Feature", "properties": { "CNPJ": 28403005000184, "AGENTE": "GISLAINE_BOTELHO", "ACAO": "REALIZAR_SEGUNDA_VISITA", "RAZAO_SOCIAL": "BAR_DA_SILVIA", "ENDERECO": "RUA_OSWALDO_DE_OLIVEIRA_CORNETTI_579_JARDIM_PADRE_RODOLFO_JARDIM_PADRE_RODOLFO_BRASIL", "CIDADE": "JARDIM_PADRE_RODOLFO", "LATITUDE": -22.9237104, "LONGITUDE": -45.3648009, "BASE": "ATENDIDOS" }, "geometry": { "type": "Point", "coordinates": [ -45.3648009, -22.9237104 ] } },
{ "type": "Feature", "properties": { "CNPJ": 11190911000145, "AGENTE": "GISLAINE_BOTELHO", "ACAO": "REALIZAR_SEGUNDA_VISITA", "RAZAO_SOCIAL": "MARIA_APARECIDA_L_ARRUDA_TRANSPORTES", "ENDERECO": "RUA_ABEL_JOSE_DE_CAMPOS_157_MOREIRA_CESAR_PINDAMONHANGABA_BRASIL", "CIDADE": "PINDAMONHANGABA", "LATITUDE": -22.914867, "LONGITUDE": -45.3605023, "BASE": "POTENCIAL" }, "geometry": { "type": "Point", "coordinates": [ -45.3605023, -22.914867 ] } },
{ "type": "Feature", "properties": { "CNPJ": 14200946000106, "AGENTE": "GISLAINE_BOTELHO", "ACAO": "REALIZAR_SEGUNDA_VISITA", "RAZAO_SOCIAL": "SIQUEIRA_&_CABRAL_LTDA", "ENDERECO": "RUA_BICUDO_LEME_128_CENTRO_PINDAMONHANGABA_BRASIL", "CIDADE": "PINDAMONHANGABA", "LATITUDE": -22.9237903, "LONGITUDE": -45.4635455, "BASE": "POTENCIAL" }, "geometry": { "type": "Point", "coordinates": [ -45.4635455, -22.9237903 ] } },
{ "type": "Feature", "properties": { "CNPJ": 6881736000100, "AGENTE": "GISLAINE_BOTELHO", "ACAO": "REALIZAR_SEGUNDA_VISITA", "RAZAO_SOCIAL": "APARECIDA_CRISTIANE_VESTUARIO_LTDA", "ENDERECO": "RUA_DOUTOR_GUSTAVO_DE_GODOY_64_CENTRO_PINDAMONHANGABA_BRASIL", "CIDADE": "PINDAMONHANGABA", "LATITUDE": -22.9264068, "LONGITUDE": -45.4628289, "BASE": "POTENCIAL" }, "geometry": { "type": "Point", "coordinates": [ -45.4628289, -22.9264068 ] } }
]
}
