{
"type": "FeatureCollection",
"name": "GISLAINE_BOTELHO",
"crs": { "type": "name", "properties": { "name": "urn:ogc:def:crs:OGC:1.3:CRS84" } },
"xy_coordinate_resolution": 1e-15,
"features": [
{ "type": "Feature", "properties": { "CNPJ": 47657052000107, "AGENTE": "GISLAINE_BOTELHO", "ACAO": "REALIZAR_SEGUNDA_VISITA", "RAZAO_SOCIAL": "47.657.052_FERNANDO_SAVIO_MIRANDA_BROCA_JUNIOR_-_VASSOURAS_VITORIA", "ENDERECO": "RUADOUTORFONTESJUNIOR_340_MARIAAUREA_PINDAMONHANGABA", "CIDADE": "PINDAMONHANGABA", "LATITUDE": -22.934938, "LONGITUDE": -45.4645932, "LINK": "#N/D" }, "geometry": { "type": "Point", "coordinates": [ -45.4645932, -22.934938 ] } },
{ "type": "Feature", "properties": { "CNPJ": 35985260000148, "AGENTE": "GISLAINE_BOTELHO", "ACAO": "REALIZAR_SEGUNDA_VISITA", "RAZAO_SOCIAL": "C._R._DE_A._OLIVEIRA_MANUTENCAO_INDUSTRIAL_LTDA_-_TORMEC", "ENDERECO": "RUAQUIRIRIM_52_CIDADENOVA_PINDAMONHANGABA", "CIDADE": "PINDAMONHANGABA", "LATITUDE": -22.9414791, "LONGITUDE": -45.4110994, "LINK": "#N/D" }, "geometry": { "type": "Point", "coordinates": [ -45.4110994, -22.9414791 ] } },
{ "type": "Feature", "properties": { "CNPJ": 41953538000106, "AGENTE": "GISLAINE_BOTELHO", "ACAO": "REALIZAR_SEGUNDA_VISITA", "RAZAO_SOCIAL": "DUOFIT_SAUDE_E_DESEMPENHO_LTDA_-_DUOFIT", "ENDERECO": "AVENIDAFORTUNATOMOREIRA_141_CENTRO_PINDAMONHANGABA", "CIDADE": "PINDAMONHANGABA", "LATITUDE": -22.927958, "LONGITUDE": -45.4581018, "LINK": "#N/D" }, "geometry": { "type": "Point", "coordinates": [ -45.4581018, -22.927958 ] } },
{ "type": "Feature", "properties": { "CNPJ": 59007189000197, "AGENTE": "GISLAINE_BOTELHO", "ACAO": "REALIZAR_SEGUNDA_VISITA", "RAZAO_SOCIAL": "LAVILLA_PIZZARIA_E_PETISCARIA_LTDA_-_LAVILLA", "ENDERECO": "RUAGUILHERMENICOLETTI_1199_VILASAOBENEDITO_PINDAMONHANGABA", "CIDADE": "PINDAMONHANGABA", "LATITUDE": -22.8907482, "LONGITUDE": -45.3891417, "LINK": "#N/D" }, "geometry": { "type": "Point", "coordinates": [ -45.3891417, -22.8907482 ] } },
{ "type": "Feature", "properties": { "CNPJ": 49466530000119, "AGENTE": "GISLAINE_BOTELHO", "ACAO": "REALIZAR_SEGUNDA_VISITA", "RAZAO_SOCIAL": "NEW_IMOB'S_-_SOLUCOES_IMOBILIARIAS_LTDA_-_NOBRE_IMOVEIS", "ENDERECO": "RUAEUGENIOSIQUEIRASALGADO_25_CENTRO_PINDAMONHANGABA", "CIDADE": "PINDAMONHANGABA", "LATITUDE": -22.9228719, "LONGITUDE": -45.4597206, "LINK": "#N/D" }, "geometry": { "type": "Point", "coordinates": [ -45.4597206, -22.9228719 ] } },
{ "type": "Feature", "properties": { "CNPJ": 59151606000170, "AGENTE": "GISLAINE_BOTELHO", "ACAO": "REALIZAR_SEGUNDA_VISITA", "RAZAO_SOCIAL": "BCS_CREDITOS_E_FINANCIAMENTOS_LTDA_-_B_S_CRED", "ENDERECO": "PRACADESEMBARGADOREDUARDODECAMPOSMAIA_16_BOSQUEDAPRINCESA_PINDAMONHANGABA", "CIDADE": "PINDAMONHANGABA", "LATITUDE": -22.9233954, "LONGITUDE": -45.4609054, "LINK": "#N/D" }, "geometry": { "type": "Point", "coordinates": [ -45.4609054, -22.9233954 ] } },
{ "type": "Feature", "properties": { "CNPJ": 43378443000123, "AGENTE": "GISLAINE_BOTELHO", "ACAO": "REALIZAR_SEGUNDA_VISITA", "RAZAO_SOCIAL": "OMEGA_NUTRITION_LTDA_-_OMEGA_SUPLEMENTOS", "ENDERECO": "RUAPRUDENTEDEMORAES_244_CENTRO_PINDAMONHANGABA", "CIDADE": "PINDAMONHANGABA", "LATITUDE": -22.9235388, "LONGITUDE": -45.4598537, "LINK": "#N/D" }, "geometry": { "type": "Point", "coordinates": [ -45.4598537, -22.9235388 ] } },
{ "type": "Feature", "properties": { "CNPJ": 45342744000122, "AGENTE": "GISLAINE_BOTELHO", "ACAO": "REALIZAR_SEGUNDA_VISITA", "RAZAO_SOCIAL": "LUCAS_PERILLO_DE_CASTRO_MORAES_34170525809_-_RENOVA_TOP", "ENDERECO": "RUAGENERALJULIOSALGADO_684_SANTANA_PINDAMONHANGABA", "CIDADE": "PINDAMONHANGABA", "LATITUDE": -22.9262917, "LONGITUDE": -45.4528717, "LINK": "#N/D" }, "geometry": { "type": "Point", "coordinates": [ -45.4528717, -22.9262917 ] } },
{ "type": "Feature", "properties": { "CNPJ": 52591960000177, "AGENTE": "GISLAINE_BOTELHO", "ACAO": "REALIZAR_SEGUNDA_VISITA", "RAZAO_SOCIAL": "52.591.960_EZILDA_HELIETE_DE_SOUZA_-_L_&_E_CALCADOS", "ENDERECO": "RUADOUTORRUBIAOJUNIOR_277_CENTRO_PINDAMONHANGABA", "CIDADE": "PINDAMONHANGABA", "LATITUDE": -22.9272403, "LONGITUDE": -45.4622987, "LINK": "#N/D" }, "geometry": { "type": "Point", "coordinates": [ -45.4622987, -22.9272403 ] } },
{ "type": "Feature", "properties": { "CNPJ": 41870042000160, "AGENTE": "GISLAINE_BOTELHO", "ACAO": "REALIZAR_SEGUNDA_VISITA", "RAZAO_SOCIAL": "JAQUELINE_IZIDORO_DA_SILVA_SOARES_SANTOS_DE_ASSIS_43461560880_-_MALHARIA_KARISMA", "ENDERECO": "AVENIDAFORTUNATOMOREIRA_237_CENTRO_PINDAMONHANGABA", "CIDADE": "PINDAMONHANGABA", "LATITUDE": -22.9279161, "LONGITUDE": -45.457244, "LINK": "#N/D" }, "geometry": { "type": "Point", "coordinates": [ -45.457244, -22.9279161 ] } },
{ "type": "Feature", "properties": { "CNPJ": 54089994000193, "AGENTE": "GISLAINE_BOTELHO", "ACAO": "REALIZAR_SEGUNDA_VISITA", "RAZAO_SOCIAL": "JL_CHOCOLATES_HOLANDA_COMERCIO_VAREJISTA_LTDA_-_CHOCOLATES_HOLANDA", "ENDERECO": "RUAMAJORJOSEDOSSANTOSMOREIRA_423_CENTRO_PINDAMONHANGABA", "CIDADE": "PINDAMONHANGABA", "LATITUDE": -22.9307297, "LONGITUDE": -45.4598668, "LINK": "#N/D" }, "geometry": { "type": "Point", "coordinates": [ -45.4598668, -22.9307297 ] } },
{ "type": "Feature", "properties": { "CNPJ": 7884328000167, "AGENTE": "GISLAINE_BOTELHO", "ACAO": "REALIZAR_SEGUNDA_VISITA", "RAZAO_SOCIAL": "RIBEIRO_&_RIBEIRO_AUTOMOVEIS_LTDA_-_WAR_VEICULOS", "ENDERECO": "RUADOUTORFREDERICOMACHADO_498_PARQUESAOBENEDITO_PINDAMONHANGABA", "CIDADE": "PINDAMONHANGABA", "LATITUDE": -22.9322471, "LONGITUDE": -45.4595213, "LINK": "#N/D" }, "geometry": { "type": "Point", "coordinates": [ -45.4595213, -22.9322471 ] } },
{ "type": "Feature", "properties": { "CNPJ": 47597424000149, "AGENTE": "GISLAINE_BOTELHO", "ACAO": "REALIZAR_SEGUNDA_VISITA", "RAZAO_SOCIAL": "BROTHERS_TRAINING_STORE_LTDA_-_BROTHERS_TRAINING", "ENDERECO": "RUADOUTORLAERTEMACHADOGUIMARAES_164_SAOBENEDITO_PINDAMONHANGABA", "CIDADE": "PINDAMONHANGABA", "LATITUDE": -22.9326769, "LONGITUDE": -45.4604251, "LINK": "#N/D" }, "geometry": { "type": "Point", "coordinates": [ -45.4604251, -22.9326769 ] } },
{ "type": "Feature", "properties": { "CNPJ": 27088344000150, "AGENTE": "GISLAINE_BOTELHO", "ACAO": "REALIZAR_SEGUNDA_VISITA", "RAZAO_SOCIAL": "MARCELO_LOIOLA_MULATO_-_ILUMINE", "ENDERECO": "AVENIDAALBUQUERQUELINS_530_JARDIMROSELY_PINDAMONHANGABA", "CIDADE": "PINDAMONHANGABA", "LATITUDE": -22.9336881, "LONGITUDE": -45.4603247, "LINK": "#N/D" }, "geometry": { "type": "Point", "coordinates": [ -45.4603247, -22.9336881 ] } },
{ "type": "Feature", "properties": { "CNPJ": 39922644000172, "AGENTE": "GISLAINE_BOTELHO", "ACAO": "REALIZAR_SEGUNDA_VISITA", "RAZAO_SOCIAL": "ANDREIA_CRISTINA_ABREU_DA_CUNHA_17110973816_-_BAR_DA_ANDREIA", "ENDERECO": "RUARODRIGOLOBATO_144_ALTODOCARDOSO_PINDAMONHANGABA", "CIDADE": "PINDAMONHANGABA", "LATITUDE": -22.9340885, "LONGITUDE": -45.4634518, "LINK": "#N/D" }, "geometry": { "type": "Point", "coordinates": [ -45.4634518, -22.9340885 ] } },
{ "type": "Feature", "properties": { "CNPJ": 48083394000115, "AGENTE": "GISLAINE_BOTELHO", "ACAO": "REALIZAR_SEGUNDA_VISITA", "RAZAO_SOCIAL": "PINDA_COMERCIO_DE_BATERIAS_LTDA_-_BATERIAS_PINDA", "ENDERECO": "RUADOUTORFONTESJUNIOR_233_MARIAAUREA_PINDAMONHANGABA", "CIDADE": "PINDAMONHANGABA", "LATITUDE": -22.9343748, "LONGITUDE": -45.4637387, "LINK": "#N/D" }, "geometry": { "type": "Point", "coordinates": [ -45.4637387, -22.9343748 ] } },
{ "type": "Feature", "properties": { "CNPJ": 22950049000148, "AGENTE": "GISLAINE_BOTELHO", "ACAO": "REALIZAR_SEGUNDA_VISITA", "RAZAO_SOCIAL": "FABIANO_CESAR_CARVALHO_32268588823_-_BARBEARIA_DO_GIGANTE", "ENDERECO": "RUADOUTORFONTESJUNIOR_334_MARIAAUREA_PINDAMONHANGABA", "CIDADE": "PINDAMONHANGABA", "LATITUDE": -22.9348883, "LONGITUDE": -45.4645591, "LINK": "#N/D" }, "geometry": { "type": "Point", "coordinates": [ -45.4645591, -22.9348883 ] } },
{ "type": "Feature", "properties": { "CNPJ": 30640511000139, "AGENTE": "GISLAINE_BOTELHO", "ACAO": "REALIZAR_SEGUNDA_VISITA", "RAZAO_SOCIAL": "30.640.511_MARCOS_JOSE_ANTONIO_-_M_J_A_CONSERTO_DE_VEICULOS", "ENDERECO": "TRAVESSABARAODOAMAZONAS_56_ALTODOCARDOSO_PINDAMONHANGABA", "CIDADE": "PINDAMONHANGABA", "LATITUDE": -22.9349134, "LONGITUDE": -45.4636249, "LINK": "#N/D" }, "geometry": { "type": "Point", "coordinates": [ -45.4636249, -22.9349134 ] } },
{ "type": "Feature", "properties": { "CNPJ": 60191999000125, "AGENTE": "GISLAINE_BOTELHO", "ACAO": "REALIZAR_SEGUNDA_VISITA", "RAZAO_SOCIAL": "RC_FERRAGENS_ACO_ARMADO_LTDA_-_R_C_FERRAGENS", "ENDERECO": "AVENIDABENEDITORIBEIRODACUNHA_63_JARDIMROSELY_PINDAMONHANGABA", "CIDADE": "PINDAMONHANGABA", "LATITUDE": -22.935158, "LONGITUDE": -45.4615526, "LINK": "#N/D" }, "geometry": { "type": "Point", "coordinates": [ -45.4615526, -22.935158 ] } },
{ "type": "Feature", "properties": { "CNPJ": 14877719000110, "AGENTE": "GISLAINE_BOTELHO", "ACAO": "REALIZAR_SEGUNDA_VISITA", "RAZAO_SOCIAL": "MADEIREIRA_IDEAL_LTDA_-_MADEIRAS_IDEAL", "ENDERECO": "AVENIDABENEDITORIBEIRODACUNHA_97_JARDIMROSELY_PINDAMONHANGABA", "CIDADE": "PINDAMONHANGABA", "LATITUDE": -22.9353295, "LONGITUDE": -45.4610606, "LINK": "#N/D" }, "geometry": { "type": "Point", "coordinates": [ -45.4610606, -22.9353295 ] } },
{ "type": "Feature", "properties": { "CNPJ": 7519371000395, "AGENTE": "GISLAINE_BOTELHO", "ACAO": "REALIZAR_SEGUNDA_VISITA", "RAZAO_SOCIAL": "B._T._LUBRIFICANTES_LTDA._-_CASA_DO_OLEO", "ENDERECO": "AVENIDABENEDITORIBEIRODACUNHA_115_JARDIMROSELY_PINDAMONHANGABA", "CIDADE": "PINDAMONHANGABA", "LATITUDE": -22.9353433, "LONGITUDE": -45.460925, "LINK": "#N/D" }, "geometry": { "type": "Point", "coordinates": [ -45.460925, -22.9353433 ] } },
{ "type": "Feature", "properties": { "CNPJ": 14636756000136, "AGENTE": "GISLAINE_BOTELHO", "ACAO": "REALIZAR_SEGUNDA_VISITA", "RAZAO_SOCIAL": "MARIA_LUCINEIDE_OKINO_12783462877_-_NEIDDE_FANTASIAS", "ENDERECO": "AVENIDADOUTORFRANCISCOLESSAJUNIOR_871_CHACARAGALEGA_PINDAMONHANGABA", "CIDADE": "PINDAMONHANGABA", "LATITUDE": -22.9357341, "LONGITUDE": -45.4677017, "LINK": "#N/D" }, "geometry": { "type": "Point", "coordinates": [ -45.4677017, -22.9357341 ] } },
{ "type": "Feature", "properties": { "CNPJ": 47162345000105, "AGENTE": "GISLAINE_BOTELHO", "ACAO": "REALIZAR_SEGUNDA_VISITA", "RAZAO_SOCIAL": "N._M._G._FERREIRA_LATICINIO_-_N_F_LATICINOS", "ENDERECO": "AVENIDAALBUQUERQUELINS_815_JARDIMROSELY_PINDAMONHANGABA", "CIDADE": "PINDAMONHANGABA", "LATITUDE": -22.936115, "LONGITUDE": -45.4598683, "LINK": "#N/D" }, "geometry": { "type": "Point", "coordinates": [ -45.4598683, -22.936115 ] } },
{ "type": "Feature", "properties": { "CNPJ": 47947748000160, "AGENTE": "GISLAINE_BOTELHO", "ACAO": "REALIZAR_SEGUNDA_VISITA", "RAZAO_SOCIAL": "VANESSA_CRISTINA_MOREIRA_DE_OLIVEIRA_37100591864_-_VANESSA_MOREIRA", "ENDERECO": "AVENIDANOSSASENHORADOBOMSUCESSO_1282_ALTODOCARDOSO_PINDAMONHANGABA", "CIDADE": "PINDAMONHANGABA", "LATITUDE": -22.9365996, "LONGITUDE": -45.4621142, "LINK": "#N/D" }, "geometry": { "type": "Point", "coordinates": [ -45.4621142, -22.9365996 ] } },
{ "type": "Feature", "properties": { "CNPJ": 69112803000134, "AGENTE": "GISLAINE_BOTELHO", "ACAO": "REALIZAR_SEGUNDA_VISITA", "RAZAO_SOCIAL": "JOSE_HERNANDES_LOBATO_-_HERNANDES_AUTOMOVEIS", "ENDERECO": "AVENIDANOSSASENHORADOBOMSUCESSO_1355_ALTODOCARDOSO_PINDAMONHANGABA", "CIDADE": "PINDAMONHANGABA", "LATITUDE": -22.9372861, "LONGITUDE": -45.4618916, "LINK": "#N/D" }, "geometry": { "type": "Point", "coordinates": [ -45.4618916, -22.9372861 ] } },
{ "type": "Feature", "properties": { "CNPJ": 12074037000143, "AGENTE": "GISLAINE_BOTELHO", "ACAO": "REALIZAR_SEGUNDA_VISITA", "RAZAO_SOCIAL": "JOAO_C._RIBEIRO_-_CAIO_AUTO_ELETRICA", "ENDERECO": "RUADOUTORFREDERICOMACHADO_1237_SAOBENEDITO_PINDAMONHANGABA", "CIDADE": "PINDAMONHANGABA", "LATITUDE": -22.9375167, "LONGITUDE": -45.458725, "LINK": "#N/D" }, "geometry": { "type": "Point", "coordinates": [ -45.458725, -22.9375167 ] } },
{ "type": "Feature", "properties": { "CNPJ": 23653939000150, "AGENTE": "GISLAINE_BOTELHO", "ACAO": "REALIZAR_SEGUNDA_VISITA", "RAZAO_SOCIAL": "WANDA_AUXILIADORA_SOARES_16272879814_-_ARTE__BELEZA", "ENDERECO": "AVENIDAALBUQUERQUELINS_970_SAOBENEDITO_PINDAMONHANGABA", "CIDADE": "PINDAMONHANGABA", "LATITUDE": -22.9377962, "LONGITUDE": -45.4599483, "LINK": "#N/D" }, "geometry": { "type": "Point", "coordinates": [ -45.4599483, -22.9377962 ] } },
{ "type": "Feature", "properties": { "CNPJ": 361019000163, "AGENTE": "GISLAINE_BOTELHO", "ACAO": "REALIZAR_SEGUNDA_VISITA", "RAZAO_SOCIAL": "C_R_DA_COSTA_FERRAGENS_-_TICO_FERRAGENS", "ENDERECO": "RUACELESTE_61_JARDIMROSELY_PINDAMONHANGABA", "CIDADE": "PINDAMONHANGABA", "LATITUDE": -22.9379807, "LONGITUDE": -45.4598907, "LINK": "#N/D" }, "geometry": { "type": "Point", "coordinates": [ -45.4598907, -22.9379807 ] } },
{ "type": "Feature", "properties": { "CNPJ": 24748110000102, "AGENTE": "GISLAINE_BOTELHO", "ACAO": "REALIZAR_SEGUNDA_VISITA", "RAZAO_SOCIAL": "ADRIEL_MARCOS_DE_LIMA_15969034819_-_AUTO_MADRI", "ENDERECO": "RUADOUTORMANOELIGNACIOMARCONDESROMEIRO_691_VILARICA_PINDAMONHANGABA", "CIDADE": "PINDAMONHANGABA", "LATITUDE": -22.941705, "LONGITUDE": -45.4621783, "LINK": "#N/D" }, "geometry": { "type": "Point", "coordinates": [ -45.4621783, -22.941705 ] } },
{ "type": "Feature", "properties": { "CNPJ": 19839726000140, "AGENTE": "GISLAINE_BOTELHO", "ACAO": "REALIZAR_SEGUNDA_VISITA", "RAZAO_SOCIAL": "19.839.726_TATIANA_GOMES_MATSUMOTO_DE_TOLEDO_-_TATIANA_MATSUMOTO", "ENDERECO": "RUAPAPAJOAOXXIII_371_ALTODOCARDOSO_PINDAMONHANGABA", "CIDADE": "PINDAMONHANGABA", "LATITUDE": -22.9440274, "LONGITUDE": -45.4642126, "LINK": "#N/D" }, "geometry": { "type": "Point", "coordinates": [ -45.4642126, -22.9440274 ] } },
{ "type": "Feature", "properties": { "CNPJ": 49595680000122, "AGENTE": "GISLAINE_BOTELHO", "ACAO": "REALIZAR_SEGUNDA_VISITA", "RAZAO_SOCIAL": "PIZZARIA_&_PETISCARIA_GAUCHINHO_LTDA_-_PIZZARIA_E_PETISCARARIA_GAUCHINHO", "ENDERECO": "AVENIDASAOPAULO_385_CIDADENOVA_PINDAMONHANGABA", "CIDADE": "PINDAMONHANGABA", "LATITUDE": -22.9441631, "LONGITUDE": -45.4076814, "LINK": "#N/D" }, "geometry": { "type": "Point", "coordinates": [ -45.4076814, -22.9441631 ] } },
{ "type": "Feature", "properties": { "CNPJ": 57774806000154, "AGENTE": "GISLAINE_BOTELHO", "ACAO": "REALIZAR_SEGUNDA_VISITA", "RAZAO_SOCIAL": "57.774.806_ANDREW_FUENTES_DA_SILVA_-_MANU_STORE", "ENDERECO": "AVENIDARIODEJANEIRO_875_CIDADENOVA_PINDAMONHANGABA", "CIDADE": "PINDAMONHANGABA", "LATITUDE": -22.9476369, "LONGITUDE": -45.4073596, "LINK": "#N/D" }, "geometry": { "type": "Point", "coordinates": [ -45.4073596, -22.9476369 ] } },
{ "type": "Feature", "properties": { "CNPJ": 12607825000158, "AGENTE": "GISLAINE_BOTELHO", "ACAO": "REALIZAR_SEGUNDA_VISITA", "RAZAO_SOCIAL": "12.607.825_PAULO_MARCELO_GONCALVES_-_P_M_G_MARCENARIA", "ENDERECO": "AVENIDAANTONIOPINHEIROJUNIOR_1669_JARDIMCRISTINA_PINDAMONHANGABA", "CIDADE": "PINDAMONHANGABA", "LATITUDE": -22.949558, "LONGITUDE": -45.4543136, "LINK": "#N/D" }, "geometry": { "type": "Point", "coordinates": [ -45.4543136, -22.949558 ] } },
{ "type": "Feature", "properties": { "CNPJ": 46762581000108, "AGENTE": "GISLAINE_BOTELHO", "ACAO": "REALIZAR_SEGUNDA_VISITA", "RAZAO_SOCIAL": "M&G_AUTO_CENTER_LTDA_-_M_G_AUTO_CENTER", "ENDERECO": "RUAJAPAO_330_PARQUEDASNACOES_PINDAMONHANGABA", "CIDADE": "PINDAMONHANGABA", "LATITUDE": -22.9512753, "LONGITUDE": -45.4652875, "LINK": "#N/D" }, "geometry": { "type": "Point", "coordinates": [ -45.4652875, -22.9512753 ] } },
{ "type": "Feature", "properties": { "CNPJ": 43959961000130, "AGENTE": "GISLAINE_BOTELHO", "ACAO": "URGENTE_REALIZAR_PRIMEIRA_VISITA", "RAZAO_SOCIAL": "BRUNA_NOGUTTI_RIBAS", "ENDERECO": "RUA_DEPUTADO_CLARO_CESAR_72_CENTRO_PINDAMONHANGABA_BRASIL", "CIDADE": "PINDAMONHANGABA", "LATITUDE": -22.9234367, "LONGITUDE": -45.4623, "LINK": "#N/D" }, "geometry": { "type": "Point", "coordinates": [ -45.4623, -22.9234367 ] } },
{ "type": "Feature", "properties": { "CNPJ": 38203003000103, "AGENTE": "GISLAINE_BOTELHO", "ACAO": "URGENTE_REALIZAR_PRIMEIRA_VISITA", "RAZAO_SOCIAL": "CAROLINA_MATHIAS_DE_GODOY", "ENDERECO": "RUA_CORONEL_FRANCISCO_BICUDO_DE_MELLO_118_CENTRO_PINDAMONHANGABA_BRASIL", "CIDADE": "PINDAMONHANGABA", "LATITUDE": -22.925839, "LONGITUDE": -45.4650969, "LINK": "#N/D" }, "geometry": { "type": "Point", "coordinates": [ -45.4650969, -22.925839 ] } },
{ "type": "Feature", "properties": { "CNPJ": 7051409000186, "AGENTE": "GISLAINE_BOTELHO", "ACAO": "URGENTE_REALIZAR_PRIMEIRA_VISITA", "RAZAO_SOCIAL": "INACIO_DOS_SANTOS_NETO_JEANS", "ENDERECO": "RUA_DOUTOR_GUSTAVO_DE_GODOY_80_CENTRO_PINDAMONHANGABA_BRASIL", "CIDADE": "PINDAMONHANGABA", "LATITUDE": -22.9263369, "LONGITUDE": -45.4629451, "LINK": "#N/D" }, "geometry": { "type": "Point", "coordinates": [ -45.4629451, -22.9263369 ] } },
{ "type": "Feature", "properties": { "CNPJ": 22168893000111, "AGENTE": "GISLAINE_BOTELHO", "ACAO": "URGENTE_REALIZAR_PRIMEIRA_VISITA", "RAZAO_SOCIAL": "UYARA_SEGUROS_-_ADMINISTRADORA_E_CORRETORA_DE_SEGUROS_LTDA.", "ENDERECO": "AVENIDA_NOSSA_SENHORA_DO_BOM_SUCESSO_898_ALTO_DO_CARDOSO_PINDAMONHANGABA_BRASIL", "CIDADE": "PINDAMONHANGABA", "LATITUDE": -22.9330954, "LONGITUDE": -45.462173, "LINK": "#N/D" }, "geometry": { "type": "Point", "coordinates": [ -45.462173, -22.9330954 ] } },
{ "type": "Feature", "properties": { "CNPJ": 9441497000158, "AGENTE": "GISLAINE_BOTELHO", "ACAO": "URGENTE_REALIZAR_PRIMEIRA_VISITA", "RAZAO_SOCIAL": "VANDO_GUERREIRO_SANTOS", "ENDERECO": "RUAPRUDENTEDEMORAES_100_CENTRO_QUELUZ", "CIDADE": "QUELUZ", "LATITUDE": -22.5393391, "LONGITUDE": -44.7736735, "LINK": "#N/D" }, "geometry": { "type": "Point", "coordinates": [ -44.7736735, -22.5393391 ] } },
{ "type": "Feature", "properties": { "CNPJ": 49217543000154, "AGENTE": "GISLAINE_BOTELHO", "ACAO": "URGENTE_REALIZAR_PRIMEIRA_VISITA", "RAZAO_SOCIAL": "JN_PRODUTOS_NATURAIS_LTDA", "ENDERECO": "RUADOUTOROSCARDEALMEIDA_7_CENTRO_QUELUZ", "CIDADE": "QUELUZ", "LATITUDE": -22.5404283, "LONGITUDE": -44.7730117, "LINK": "#N/D" }, "geometry": { "type": "Point", "coordinates": [ -44.7730117, -22.5404283 ] } },
{ "type": "Feature", "properties": { "CNPJ": 43928086000120, "AGENTE": "GISLAINE_BOTELHO", "ACAO": "URGENTE_REALIZAR_PRIMEIRA_VISITA", "RAZAO_SOCIAL": "ANA_FLAVIA_MORADEI_DE_SIQUEIRA", "ENDERECO": "PRACAMARECHALFLORIANOPIEXOTO_26_CENTRO_QUELUZ", "CIDADE": "QUELUZ", "LATITUDE": -22.5404685, "LONGITUDE": -44.7725684, "LINK": "#N/D" }, "geometry": { "type": "Point", "coordinates": [ -44.7725684, -22.5404685 ] } },
{ "type": "Feature", "properties": { "CNPJ": 20215460000144, "AGENTE": "GISLAINE_BOTELHO", "ACAO": "URGENTE_REALIZAR_PRIMEIRA_VISITA", "RAZAO_SOCIAL": "FABIO_DA_SILVA_DE_PAIVA", "ENDERECO": "RUACORONELMANOELHORTA_141_CENTRO_LAVRINHAS", "CIDADE": "LAVRINHAS", "LATITUDE": -22.5670768, "LONGITUDE": -44.9068049, "LINK": "#N/D" }, "geometry": { "type": "Point", "coordinates": [ -44.9068049, -22.5670768 ] } },
{ "type": "Feature", "properties": { "CNPJ": 2452953000116, "AGENTE": "GISLAINE_BOTELHO", "ACAO": "URGENTE_REALIZAR_PRIMEIRA_VISITA", "RAZAO_SOCIAL": "SEBASTIAO_TAVARES_FILHO_-_AREIAS", "ENDERECO": "AVENIDASIQUEIRACAMPOS_225_CENTRO_AREIAS", "CIDADE": "AREIAS", "LATITUDE": -22.5809184, "LONGITUDE": -44.6945526, "LINK": "#N/D" }, "geometry": { "type": "Point", "coordinates": [ -44.6945526, -22.5809184 ] } },
{ "type": "Feature", "properties": { "CNPJ": 45339527000183, "AGENTE": "GISLAINE_BOTELHO", "ACAO": "URGENTE_REALIZAR_PRIMEIRA_VISITA", "RAZAO_SOCIAL": "JOHELI_STORE_RACOES_E_MATERIAIS_PARA_CONSTRUCAO_LTDA", "ENDERECO": "RUACOMENDADORSAMPAIO_259_CENTRO_AREIAS", "CIDADE": "AREIAS", "LATITUDE": -22.5810184, "LONGITUDE": -44.6942441, "LINK": "#N/D" }, "geometry": { "type": "Point", "coordinates": [ -44.6942441, -22.5810184 ] } },
{ "type": "Feature", "properties": { "CNPJ": 27105850000100, "AGENTE": "GISLAINE_BOTELHO", "ACAO": "URGENTE_REALIZAR_PRIMEIRA_VISITA", "RAZAO_SOCIAL": "ADRIANO_JOSE_RODRIGUES", "ENDERECO": "RUAQUINZEDENOVEMBRO_109_CENTRO_AREIAS", "CIDADE": "AREIAS", "LATITUDE": -22.5810365, "LONGITUDE": -44.698346, "LINK": "#N/D" }, "geometry": { "type": "Point", "coordinates": [ -44.698346, -22.5810365 ] } },
{ "type": "Feature", "properties": { "CNPJ": 18383637000170, "AGENTE": "GISLAINE_BOTELHO", "ACAO": "URGENTE_REALIZAR_PRIMEIRA_VISITA", "RAZAO_SOCIAL": "CARLOS_EDUARDO_DE_SOUZA_CARDOSO", "ENDERECO": "AVENIDASIQUEIRACAMPOS_341_CENTRO_AREIAS", "CIDADE": "AREIAS", "LATITUDE": -22.5813203, "LONGITUDE": -44.6936419, "LINK": "#N/D" }, "geometry": { "type": "Point", "coordinates": [ -44.6936419, -22.5813203 ] } },
{ "type": "Feature", "properties": { "CNPJ": 46435342000135, "AGENTE": "GISLAINE_BOTELHO", "ACAO": "URGENTE_REALIZAR_PRIMEIRA_VISITA", "RAZAO_SOCIAL": "SOUZA_E_RODRIGUES_LOJA_DE_VARIEDADES_LTDA", "ENDERECO": "AVENIDASIQUEIRACAMPOS_480_CENTRO_AREIAS", "CIDADE": "AREIAS", "LATITUDE": -22.5813772, "LONGITUDE": -44.6922301, "LINK": "#N/D" }, "geometry": { "type": "Point", "coordinates": [ -44.6922301, -22.5813772 ] } },
{ "type": "Feature", "properties": { "CNPJ": 62846829000167, "AGENTE": "GISLAINE_BOTELHO", "ACAO": "URGENTE_REALIZAR_PRIMEIRA_VISITA", "RAZAO_SOCIAL": "ANA_MASAKO_USSUHI", "ENDERECO": "RUADOPIQUETE_67_CENTRO_PIQUETE", "CIDADE": "PIQUETE", "LATITUDE": -22.6083967, "LONGITUDE": -45.18465, "LINK": "#N/D" }, "geometry": { "type": "Point", "coordinates": [ -45.18465, -22.6083967 ] } },
{ "type": "Feature", "properties": { "CNPJ": 8870582000179, "AGENTE": "GISLAINE_BOTELHO", "ACAO": "URGENTE_REALIZAR_PRIMEIRA_VISITA", "RAZAO_SOCIAL": "DAYANE_LOURENCO_DA_SILVA", "ENDERECO": "RUADOPIQUETE_6_CENTRO_PIQUETE", "CIDADE": "PIQUETE", "LATITUDE": -22.60866, "LONGITUDE": -45.183485, "LINK": "#N/D" }, "geometry": { "type": "Point", "coordinates": [ -45.183485, -22.60866 ] } },
{ "type": "Feature", "properties": { "CNPJ": 50384730000101, "AGENTE": "GISLAINE_BOTELHO", "ACAO": "URGENTE_REALIZAR_PRIMEIRA_VISITA", "RAZAO_SOCIAL": "JULIANO_JOSE_DA_SILA_&_CIA_LTDA", "ENDERECO": "PRACADABANDEIRA_94_CENTRO_PIQUETE", "CIDADE": "PIQUETE", "LATITUDE": -22.6088133, "LONGITUDE": -45.183655, "LINK": "#N/D" }, "geometry": { "type": "Point", "coordinates": [ -45.183655, -22.6088133 ] } },
{ "type": "Feature", "properties": { "CNPJ": 29268154000140, "AGENTE": "GISLAINE_BOTELHO", "ACAO": "URGENTE_REALIZAR_PRIMEIRA_VISITA", "RAZAO_SOCIAL": "DEBORA_A.C.P._SANTOS", "ENDERECO": "RUACOMENDADORCUSTODIO_78_CENTRO_PIQUETE", "CIDADE": "PIQUETE", "LATITUDE": -22.6092498, "LONGITUDE": -45.1844315, "LINK": "#N/D" }, "geometry": { "type": "Point", "coordinates": [ -45.1844315, -22.6092498 ] } },
{ "type": "Feature", "properties": { "CNPJ": 1253267000153, "AGENTE": "GISLAINE_BOTELHO", "ACAO": "URGENTE_REALIZAR_PRIMEIRA_VISITA", "RAZAO_SOCIAL": "CARLOS_JOSE_DOS_SANTOS_EMBALAGENS", "ENDERECO": "RUAMAJORCARLOSRIBEIRO_31_CENTRO_PIQUETE", "CIDADE": "PIQUETE", "LATITUDE": -22.6151833, "LONGITUDE": -45.1777033, "LINK": "#N/D" }, "geometry": { "type": "Point", "coordinates": [ -45.1777033, -22.6151833 ] } },
{ "type": "Feature", "properties": { "CNPJ": 1137466000104, "AGENTE": "GISLAINE_BOTELHO", "ACAO": "URGENTE_REALIZAR_PRIMEIRA_VISITA", "RAZAO_SOCIAL": "ARTHUR_RODRIGUES_DOS_SANTOS_NETO", "ENDERECO": "AVENIDAGOVERNADORCARVALHOPINTO_30_CENTRO_SILVEIRAS", "CIDADE": "SILVEIRAS", "LATITUDE": -22.6591495, "LONGITUDE": -44.851616, "LINK": "#N/D" }, "geometry": { "type": "Point", "coordinates": [ -44.851616, -22.6591495 ] } },
{ "type": "Feature", "properties": { "CNPJ": 23200969000101, "AGENTE": "GISLAINE_BOTELHO", "ACAO": "URGENTE_REALIZAR_PRIMEIRA_VISITA", "RAZAO_SOCIAL": "ALISON_DA_SILVA_CRUZ", "ENDERECO": "AVENIDAGOVERNADORCARVALHOPINTO_290_CENTRO_SILVEIRAS", "CIDADE": "SILVEIRAS", "LATITUDE": -22.661622, "LONGITUDE": -44.8506573, "LINK": "#N/D" }, "geometry": { "type": "Point", "coordinates": [ -44.8506573, -22.661622 ] } },
{ "type": "Feature", "properties": { "CNPJ": 34346774000190, "AGENTE": "GISLAINE_BOTELHO", "ACAO": "URGENTE_REALIZAR_PRIMEIRA_VISITA", "RAZAO_SOCIAL": "TAIS_RODRIGUES_RIBEIRO", "ENDERECO": "RUAMAESTROJOAOBATISTAJULIAO_33_CENTRO_SILVEIRAS", "CIDADE": "SILVEIRAS", "LATITUDE": -22.6661056, "LONGITUDE": -44.8515367, "LINK": "#N/D" }, "geometry": { "type": "Point", "coordinates": [ -44.8515367, -22.6661056 ] } },
{ "type": "Feature", "properties": { "CNPJ": 3423413000177, "AGENTE": "GISLAINE_BOTELHO", "ACAO": "URGENTE_REALIZAR_PRIMEIRA_VISITA", "RAZAO_SOCIAL": "SANDRA_REGINA_BELEM_ALVES_DE_ABREU", "ENDERECO": "AVENIDATHEODORICOCAVALCANTEDESOUZA_444_JARDIMBOAVISTA_PINDAMONHANGABA", "CIDADE": "PINDAMONHANGABA", "LATITUDE": -22.9169689, "LONGITUDE": -45.4706773, "LINK": "#N/D" }, "geometry": { "type": "Point", "coordinates": [ -45.4706773, -22.9169689 ] } },
{ "type": "Feature", "properties": { "CNPJ": 8249165000103, "AGENTE": "GISLAINE_BOTELHO", "ACAO": "URGENTE_REALIZAR_PRIMEIRA_VISITA", "RAZAO_SOCIAL": "ADRIANA_MEDEIROS_MONTEIRO_REBELLO", "ENDERECO": "LADEIRABARAODEPINDAMONHANGABA_87_BOSQUEDAPRINCESA_PINDAMONHANGABA", "CIDADE": "PINDAMONHANGABA", "LATITUDE": -22.9219785, "LONGITUDE": -45.4623362, "LINK": "#N/D" }, "geometry": { "type": "Point", "coordinates": [ -45.4623362, -22.9219785 ] } },
{ "type": "Feature", "properties": { "CNPJ": 42242590000109, "AGENTE": "GISLAINE_BOTELHO", "ACAO": "URGENTE_REALIZAR_PRIMEIRA_VISITA", "RAZAO_SOCIAL": "CLINICA_VETERINARIA_E_PET_SHOP_PINDA_LTDA", "ENDERECO": "RUABICUDOLEME_45_CENTRO_PINDAMONHANGABA", "CIDADE": "PINDAMONHANGABA", "LATITUDE": -22.9238902, "LONGITUDE": -45.4627117, "LINK": "#N/D" }, "geometry": { "type": "Point", "coordinates": [ -45.4627117, -22.9238902 ] } },
{ "type": "Feature", "properties": { "CNPJ": 49024561000110, "AGENTE": "GISLAINE_BOTELHO", "ACAO": "URGENTE_REALIZAR_PRIMEIRA_VISITA", "RAZAO_SOCIAL": "WEVERTON_LUIZ_AREZO_DA_SILVA", "ENDERECO": "RUADEPUTADOCLAROCESAR_233_CENTRO_PINDAMONHANGABA", "CIDADE": "PINDAMONHANGABA", "LATITUDE": -22.9248014, "LONGITUDE": -45.4620393, "LINK": "#N/D" }, "geometry": { "type": "Point", "coordinates": [ -45.4620393, -22.9248014 ] } },
{ "type": "Feature", "properties": { "CNPJ": 23388744000120, "AGENTE": "GISLAINE_BOTELHO", "ACAO": "URGENTE_REALIZAR_PRIMEIRA_VISITA", "RAZAO_SOCIAL": "SILAS_EVANDRO_DOS_SANTOS_&_CIA.LTDA", "ENDERECO": "RUADEPUTADOCLAROCESAR_240_CENTRO_PINDAMONHANGABA", "CIDADE": "PINDAMONHANGABA", "LATITUDE": -22.9248563, "LONGITUDE": -45.4621702, "LINK": "#N/D" }, "geometry": { "type": "Point", "coordinates": [ -45.4621702, -22.9248563 ] } },
{ "type": "Feature", "properties": { "CNPJ": 73119927000623, "AGENTE": "GISLAINE_BOTELHO", "ACAO": "URGENTE_REALIZAR_PRIMEIRA_VISITA", "RAZAO_SOCIAL": "PRO_-_PHARMACOS_FARMACIA_LTDA", "ENDERECO": "RUADEPUTADOCLAROCESAR_243_CENTRO_PINDAMONHANGABA", "CIDADE": "PINDAMONHANGABA", "LATITUDE": -22.9249822, "LONGITUDE": -45.4620519, "LINK": "#N/D" }, "geometry": { "type": "Point", "coordinates": [ -45.4620519, -22.9249822 ] } },
{ "type": "Feature", "properties": { "CNPJ": 4491358000115, "AGENTE": "GISLAINE_BOTELHO", "ACAO": "URGENTE_REALIZAR_PRIMEIRA_VISITA", "RAZAO_SOCIAL": "CAMILARI_COLCHOES_LTDA", "ENDERECO": "PRACAMONSENHORMARCONDES_8_CENTRO_PINDAMONHANGABA", "CIDADE": "PINDAMONHANGABA", "LATITUDE": -22.9250518, "LONGITUDE": -45.462616, "LINK": "#N/D" }, "geometry": { "type": "Point", "coordinates": [ -45.462616, -22.9250518 ] } },
{ "type": "Feature", "properties": { "CNPJ": 20414529000169, "AGENTE": "GISLAINE_BOTELHO", "ACAO": "URGENTE_REALIZAR_PRIMEIRA_VISITA", "RAZAO_SOCIAL": "KPF_ENGENHARIA_E_PERICIA_LTDA", "ENDERECO": "RUADOUTORMATHEUSROMEIRO_143_CENTRO_PINDAMONHANGABA", "CIDADE": "PINDAMONHANGABA", "LATITUDE": -22.92607, "LONGITUDE": -45.4653683, "LINK": "#N/D" }, "geometry": { "type": "Point", "coordinates": [ -45.4653683, -22.92607 ] } },
{ "type": "Feature", "properties": { "CNPJ": 36081187000142, "AGENTE": "GISLAINE_BOTELHO", "ACAO": "URGENTE_REALIZAR_PRIMEIRA_VISITA", "RAZAO_SOCIAL": "GABRIEL_RAMOS_FERREIRA", "ENDERECO": "RUADOUTORGUSTAVODEGODOY_506_VILANAIR_PINDAMONHANGABA", "CIDADE": "PINDAMONHANGABA", "LATITUDE": -22.9261144, "LONGITUDE": -45.467286, "LINK": "#N/D" }, "geometry": { "type": "Point", "coordinates": [ -45.467286, -22.9261144 ] } },
{ "type": "Feature", "properties": { "CNPJ": 10218530000164, "AGENTE": "GISLAINE_BOTELHO", "ACAO": "URGENTE_REALIZAR_PRIMEIRA_VISITA", "RAZAO_SOCIAL": "KARLA_CESAR_CAMPOS", "ENDERECO": "RUADOUTORGUSTAVODEGODOY_450_VILANAIR_PINDAMONHANGABA", "CIDADE": "PINDAMONHANGABA", "LATITUDE": -22.9262517, "LONGITUDE": -45.46623, "LINK": "#N/D" }, "geometry": { "type": "Point", "coordinates": [ -45.46623, -22.9262517 ] } },
{ "type": "Feature", "properties": { "CNPJ": 32841077000261, "AGENTE": "GISLAINE_BOTELHO", "ACAO": "URGENTE_REALIZAR_PRIMEIRA_VISITA", "RAZAO_SOCIAL": "J._S._DOMINGOS_FILHO_VESTUARIO_E_ACESSORIOS", "ENDERECO": "RUADOSEXPEDICIONARIOS_147_CENTRO_PINDAMONHANGABA", "CIDADE": "PINDAMONHANGABA", "LATITUDE": -22.9263459, "LONGITUDE": -45.4605143, "LINK": "#N/D" }, "geometry": { "type": "Point", "coordinates": [ -45.4605143, -22.9263459 ] } },
{ "type": "Feature", "properties": { "CNPJ": 35569124000177, "AGENTE": "GISLAINE_BOTELHO", "ACAO": "URGENTE_REALIZAR_PRIMEIRA_VISITA", "RAZAO_SOCIAL": "LUCIA_MARIA_BRAZ", "ENDERECO": "RUADOUTORGUSTAVODEGODOY_299_CENTRO_PINDAMONHANGABA", "CIDADE": "PINDAMONHANGABA", "LATITUDE": -22.9264235, "LONGITUDE": -45.4650712, "LINK": "#N/D" }, "geometry": { "type": "Point", "coordinates": [ -45.4650712, -22.9264235 ] } },
{ "type": "Feature", "properties": { "CNPJ": 39831728000109, "AGENTE": "GISLAINE_BOTELHO", "ACAO": "URGENTE_REALIZAR_PRIMEIRA_VISITA", "RAZAO_SOCIAL": "OTICA_DOUTOR_GUSTAVO_DE_GODOY_LTDA", "ENDERECO": "RUADOUTORGUSTAVODEGODOY_49_CENTRO_PINDAMONHANGABA", "CIDADE": "PINDAMONHANGABA", "LATITUDE": -22.9264347, "LONGITUDE": -45.4626349, "LINK": "#N/D" }, "geometry": { "type": "Point", "coordinates": [ -45.4626349, -22.9264347 ] } },
{ "type": "Feature", "properties": { "CNPJ": 8432371000154, "AGENTE": "GISLAINE_BOTELHO", "ACAO": "URGENTE_REALIZAR_PRIMEIRA_VISITA", "RAZAO_SOCIAL": "SILVIA_HELENA_RODRIGUES_DA_SILVA", "ENDERECO": "RUACAPITAOJOSEMARTINIANOVIEIRAFERRAZ_186_CENTRO_PINDAMONHANGABA", "CIDADE": "PINDAMONHANGABA", "LATITUDE": -22.9267682, "LONGITUDE": -45.4629004, "LINK": "#N/D" }, "geometry": { "type": "Point", "coordinates": [ -45.4629004, -22.9267682 ] } },
{ "type": "Feature", "properties": { "CNPJ": 60423175000133, "AGENTE": "GISLAINE_BOTELHO", "ACAO": "URGENTE_REALIZAR_PRIMEIRA_VISITA", "RAZAO_SOCIAL": "EUNICE_DOS_SANTOS_COMERCIO_DE_RACOES", "ENDERECO": "RUACAPITAOJOSEMARTINIANOVIEIRAFERRAZ_186_CENTRO_PINDAMONHANGABA", "CIDADE": "PINDAMONHANGABA", "LATITUDE": -22.9268034, "LONGITUDE": -45.4631524, "LINK": "#N/D" }, "geometry": { "type": "Point", "coordinates": [ -45.4631524, -22.9268034 ] } },
{ "type": "Feature", "properties": { "CNPJ": 4467129000165, "AGENTE": "GISLAINE_BOTELHO", "ACAO": "URGENTE_REALIZAR_PRIMEIRA_VISITA", "RAZAO_SOCIAL": "FERRAGENS_CAVALCANTE_DE_SOUZA_LTDA", "ENDERECO": "RUACAPITAOJOSEMARTINIANOVIEIRAFERRAZ_159_CENTRO_PINDAMONHANGABA", "CIDADE": "PINDAMONHANGABA", "LATITUDE": -22.9270359, "LONGITUDE": -45.46202, "LINK": "#N/D" }, "geometry": { "type": "Point", "coordinates": [ -45.46202, -22.9270359 ] } },
{ "type": "Feature", "properties": { "CNPJ": 38152127000107, "AGENTE": "GISLAINE_BOTELHO", "ACAO": "URGENTE_REALIZAR_PRIMEIRA_VISITA", "RAZAO_SOCIAL": "ROYALE_MATERIAIS_&_PROJETOS_ELETRICOS_LTDA", "ENDERECO": "RUADOUTORGREGORIOCOSTA_220_CENTRO_PINDAMONHANGABA", "CIDADE": "PINDAMONHANGABA", "LATITUDE": -22.9278634, "LONGITUDE": -45.459371, "LINK": "#N/D" }, "geometry": { "type": "Point", "coordinates": [ -45.459371, -22.9278634 ] } },
{ "type": "Feature", "properties": { "CNPJ": 4242169000109, "AGENTE": "GISLAINE_BOTELHO", "ACAO": "URGENTE_REALIZAR_PRIMEIRA_VISITA", "RAZAO_SOCIAL": "DENTAL_PINDA_LTDA", "ENDERECO": "RUADOSEXPEDICIONARIOS_475_CENTRO_PINDAMONHANGABA", "CIDADE": "PINDAMONHANGABA", "LATITUDE": -22.9281392, "LONGITUDE": -45.458488, "LINK": "#N/D" }, "geometry": { "type": "Point", "coordinates": [ -45.458488, -22.9281392 ] } },
{ "type": "Feature", "properties": { "CNPJ": 18123138000143, "AGENTE": "GISLAINE_BOTELHO", "ACAO": "URGENTE_REALIZAR_PRIMEIRA_VISITA", "RAZAO_SOCIAL": "MARCIA_REGINA_COSTA_NUNES_ACOUGUE", "ENDERECO": "RUACAPITAOJOSEMARTINIANOVIEIRAFERRAZ_279_CENTRO_PINDAMONHANGABA", "CIDADE": "PINDAMONHANGABA", "LATITUDE": -22.9283517, "LONGITUDE": -45.46269, "LINK": "#N/D" }, "geometry": { "type": "Point", "coordinates": [ -45.46269, -22.9283517 ] } },
{ "type": "Feature", "properties": { "CNPJ": 48400527000130, "AGENTE": "GISLAINE_BOTELHO", "ACAO": "URGENTE_REALIZAR_PRIMEIRA_VISITA", "RAZAO_SOCIAL": "SEIJI_NAGAOKA", "ENDERECO": "RUADOSSAGRADOSCORACOES_1186_JARDIMSANTALUZIA_PINDAMONHANGABA", "CIDADE": "PINDAMONHANGABA", "LATITUDE": -22.9304498, "LONGITUDE": -45.4487432, "LINK": "#N/D" }, "geometry": { "type": "Point", "coordinates": [ -45.4487432, -22.9304498 ] } },
{ "type": "Feature", "properties": { "CNPJ": 2804069000101, "AGENTE": "GISLAINE_BOTELHO", "ACAO": "URGENTE_REALIZAR_PRIMEIRA_VISITA", "RAZAO_SOCIAL": "MAURICIO_SAKIHAMA", "ENDERECO": "RUAMAJORJOSEDOSSANTOSMOREIRA_1000_VILABOURGHESE_PINDAMONHANGABA", "CIDADE": "PINDAMONHANGABA", "LATITUDE": -22.9307547, "LONGITUDE": -45.4543104, "LINK": "#N/D" }, "geometry": { "type": "Point", "coordinates": [ -45.4543104, -22.9307547 ] } },
{ "type": "Feature", "properties": { "CNPJ": 7811209000184, "AGENTE": "GISLAINE_BOTELHO", "ACAO": "URGENTE_REALIZAR_PRIMEIRA_VISITA", "RAZAO_SOCIAL": "JOCIMARA_DA_SILVA_LIVRAMENTO_LIMA", "ENDERECO": "RUAMAJORJOSEDOSSANTOSMOREIRA_775_VILABOURGHESE_PINDAMONHANGABA", "CIDADE": "PINDAMONHANGABA", "LATITUDE": -22.9309613, "LONGITUDE": -45.4546536, "LINK": "#N/D" }, "geometry": { "type": "Point", "coordinates": [ -45.4546536, -22.9309613 ] } },
{ "type": "Feature", "properties": { "CNPJ": 8032928000160, "AGENTE": "GISLAINE_BOTELHO", "ACAO": "URGENTE_REALIZAR_PRIMEIRA_VISITA", "RAZAO_SOCIAL": "GUILHERME_KOBBAZ_DARRIGO_&_CIA_LTDA", "ENDERECO": "RUAMAJORJOSEDOSSANTOSMOREIRA_690_VILABOURGHESE_PINDAMONHANGABA", "CIDADE": "PINDAMONHANGABA", "LATITUDE": -22.9309878, "LONGITUDE": -45.4572116, "LINK": "#N/D" }, "geometry": { "type": "Point", "coordinates": [ -45.4572116, -22.9309878 ] } },
{ "type": "Feature", "properties": { "CNPJ": 30466811000143, "AGENTE": "GISLAINE_BOTELHO", "ACAO": "URGENTE_REALIZAR_PRIMEIRA_VISITA", "RAZAO_SOCIAL": "RAFAEL_CLARO_LTDA", "ENDERECO": "RUADOUTORCAMPOSSALLES_549_CHACARADAGALEGA_PINDAMONHANGABA", "CIDADE": "PINDAMONHANGABA", "LATITUDE": -22.9314001, "LONGITUDE": -45.46313, "LINK": "#N/D" }, "geometry": { "type": "Point", "coordinates": [ -45.46313, -22.9314001 ] } },
{ "type": "Feature", "properties": { "CNPJ": 26425907000196, "AGENTE": "GISLAINE_BOTELHO", "ACAO": "URGENTE_REALIZAR_PRIMEIRA_VISITA", "RAZAO_SOCIAL": "INTEGRACAO_-_CLINICA_DE_SAUDE_LTDA", "ENDERECO": "RUAOSWALDOCRUZ_75_PARQUESAOBENEDITO_PINDAMONHANGABA", "CIDADE": "PINDAMONHANGABA", "LATITUDE": -22.9314438, "LONGITUDE": -45.4574006, "LINK": "#N/D" }, "geometry": { "type": "Point", "coordinates": [ -45.4574006, -22.9314438 ] } },
{ "type": "Feature", "properties": { "CNPJ": 54452628000157, "AGENTE": "GISLAINE_BOTELHO", "ACAO": "URGENTE_REALIZAR_PRIMEIRA_VISITA", "RAZAO_SOCIAL": "CENTERPRINT_GRAFICA_LTDA", "ENDERECO": "RUADOUTORLAERTEMACHADOGUIMARAES_878_VILABOURGHESE_PINDAMONHANGABA", "CIDADE": "PINDAMONHANGABA", "LATITUDE": -22.9325678, "LONGITUDE": -45.454205, "LINK": "#N/D" }, "geometry": { "type": "Point", "coordinates": [ -45.454205, -22.9325678 ] } },
{ "type": "Feature", "properties": { "CNPJ": 41294809000150, "AGENTE": "GISLAINE_BOTELHO", "ACAO": "URGENTE_REALIZAR_PRIMEIRA_VISITA", "RAZAO_SOCIAL": "ANTONIO_FLAVIO_PEREIRA_DE_OLIVEIRA_E_SILVA", "ENDERECO": "PRACADOUTOREMILIORIBAS_3_CHACARADAGALEGA_PINDAMONHANGABA", "CIDADE": "PINDAMONHANGABA", "LATITUDE": -22.9327526, "LONGITUDE": -45.462202, "LINK": "#N/D" }, "geometry": { "type": "Point", "coordinates": [ -45.462202, -22.9327526 ] } },
{ "type": "Feature", "properties": { "CNPJ": 40703911000108, "AGENTE": "GISLAINE_BOTELHO", "ACAO": "URGENTE_REALIZAR_PRIMEIRA_VISITA", "RAZAO_SOCIAL": "TR_FARMA_LTDA", "ENDERECO": "RUACAPITAOVITORIOBASSO_685_PARQUESAOBENEDITO_PINDAMONHANGABA", "CIDADE": "PINDAMONHANGABA", "LATITUDE": -22.9343004, "LONGITUDE": -45.4553505, "LINK": "#N/D" }, "geometry": { "type": "Point", "coordinates": [ -45.4553505, -22.9343004 ] } },
{ "type": "Feature", "properties": { "CNPJ": 7456977000167, "AGENTE": "GISLAINE_BOTELHO", "ACAO": "URGENTE_REALIZAR_PRIMEIRA_VISITA", "RAZAO_SOCIAL": "VALDIR_MITSUO_HIGA_ME", "ENDERECO": "RUACAPITAOVITORIOBASSO_491_PARQUESAODOMINGOS_PINDAMONHANGABA", "CIDADE": "PINDAMONHANGABA", "LATITUDE": -22.9343817, "LONGITUDE": -45.4572783, "LINK": "#N/D" }, "geometry": { "type": "Point", "coordinates": [ -45.4572783, -22.9343817 ] } },
{ "type": "Feature", "properties": { "CNPJ": 74395195000152, "AGENTE": "GISLAINE_BOTELHO", "ACAO": "URGENTE_REALIZAR_PRIMEIRA_VISITA", "RAZAO_SOCIAL": "JOSE_CLAUDIO_DE_GODOI_PINDA", "ENDERECO": "RUACAPITAOVITORIOBASSO_578_PARQUESAODOMINGOS_PINDAMONHANGABA", "CIDADE": "PINDAMONHANGABA", "LATITUDE": -22.9344758, "LONGITUDE": -45.4564585, "LINK": "#N/D" }, "geometry": { "type": "Point", "coordinates": [ -45.4564585, -22.9344758 ] } },
{ "type": "Feature", "properties": { "CNPJ": 9332296000112, "AGENTE": "GISLAINE_BOTELHO", "ACAO": "URGENTE_REALIZAR_PRIMEIRA_VISITA", "RAZAO_SOCIAL": "MOTO_GT_DO_VALE_LTDA", "ENDERECO": "RUACAPITAOVITORIOBASSO_809_PARQUESAOBENEDITO_PINDAMONHANGABA", "CIDADE": "PINDAMONHANGABA", "LATITUDE": -22.9348024, "LONGITUDE": -45.4542429, "LINK": "#N/D" }, "geometry": { "type": "Point", "coordinates": [ -45.4542429, -22.9348024 ] } },
{ "type": "Feature", "properties": { "CNPJ": 59772719000193, "AGENTE": "GISLAINE_BOTELHO", "ACAO": "URGENTE_REALIZAR_PRIMEIRA_VISITA", "RAZAO_SOCIAL": "EXCLUSIVA_INDUSTRIA_DE_TINTAS_E_TEXTURAS_LTDA", "ENDERECO": "AVENIDAPROFESSORMANOELCESARRIBEIRO_4045_IPIRANGA_PINDAMONHANGABA", "CIDADE": "PINDAMONHANGABA", "LATITUDE": -22.9453433, "LONGITUDE": -45.4122967, "LINK": "#N/D" }, "geometry": { "type": "Point", "coordinates": [ -45.4122967, -22.9453433 ] } },
{ "type": "Feature", "properties": { "CNPJ": 7684980000138, "AGENTE": "GISLAINE_BOTELHO", "ACAO": "URGENTE_REALIZAR_PRIMEIRA_VISITA", "RAZAO_SOCIAL": "RS_COMERCIO_E_MANUTENCAO_DE_MAQUINAS_INDUSTRIAIS_LTDA", "ENDERECO": "AVENIDAPROFESSORMANOELCESARRIBEIRO_4301_CIDADENOVA_PINDAMONHANGABA", "CIDADE": "PINDAMONHANGABA", "LATITUDE": -22.9467654, "LONGITUDE": -45.4101281, "LINK": "#N/D" }, "geometry": { "type": "Point", "coordinates": [ -45.4101281, -22.9467654 ] } },
{ "type": "Feature", "properties": { "CNPJ": 34836303000160, "AGENTE": "GISLAINE_BOTELHO", "ACAO": "URGENTE_REALIZAR_PRIMEIRA_VISITA", "RAZAO_SOCIAL": "J_&_H_ROUPAS_E_ACESSORIOS_LTDA", "ENDERECO": "RUADOUTORCASEMIRODAROCHA_83_CENTRO_CUNHA", "CIDADE": "CUNHA", "LATITUDE": -23.0735129, "LONGITUDE": -44.9599447, "LINK": "#N/D" }, "geometry": { "type": "Point", "coordinates": [ -44.9599447, -23.0735129 ] } },
{ "type": "Feature", "properties": { "CNPJ": 1831147000196, "AGENTE": "GISLAINE_BOTELHO", "ACAO": "URGENTE_REALIZAR_PRIMEIRA_VISITA", "RAZAO_SOCIAL": "MARLENE_DE_ARAUJO_DOS_REIS", "ENDERECO": "RUAMAJORSANTANA_51_CENTRO_CUNHA", "CIDADE": "CUNHA", "LATITUDE": -23.0737902, "LONGITUDE": -44.9593488, "LINK": "#N/D" }, "geometry": { "type": "Point", "coordinates": [ -44.9593488, -23.0737902 ] } },
{ "type": "Feature", "properties": { "CNPJ": 44227383000100, "AGENTE": "GISLAINE_BOTELHO", "ACAO": "URGENTE_REALIZAR_PRIMEIRA_VISITA", "RAZAO_SOCIAL": "RHIAD_MOVEIS_CUNHENSE_LTDA", "ENDERECO": "ALAMEDAFRANCISCODACUNHAMENEZES_1066_FALCAO_CUNHA", "CIDADE": "CUNHA", "LATITUDE": -23.0649485, "LONGITUDE": -44.9603891, "LINK": "#N/D" }, "geometry": { "type": "Point", "coordinates": [ -44.9603891, -23.0649485 ] } },
{ "type": "Feature", "properties": { "CNPJ": 29955029000109, "AGENTE": "GISLAINE_BOTELHO", "ACAO": "URGENTE_REALIZAR_PRIMEIRA_VISITA", "RAZAO_SOCIAL": "E._A._DE_CARVALHO_PERFUMARIA", "ENDERECO": "RUADOUTORCASEMIRODAROCHA_16_CENTRO_CUNHA", "CIDADE": "CUNHA", "LATITUDE": -23.07414, "LONGITUDE": -44.9597373, "LINK": "#N/D" }, "geometry": { "type": "Point", "coordinates": [ -44.9597373, -23.07414 ] } },
{ "type": "Feature", "properties": { "CNPJ": 53770495000102, "AGENTE": "GISLAINE_BOTELHO", "ACAO": "URGENTE_REALIZAR_PRIMEIRA_VISITA", "RAZAO_SOCIAL": "SAUDE_EM_GRANEL_COMERCIO_DE_PRODUTOS_NATURAIS_LTDA", "ENDERECO": "RUADOUTORCASEMIRODAROCHA_16_CENTRO_CUNHA", "CIDADE": "CUNHA", "LATITUDE": -23.07414, "LONGITUDE": -44.9597373, "LINK": "#N/D" }, "geometry": { "type": "Point", "coordinates": [ -44.9597373, -23.07414 ] } },
{ "type": "Feature", "properties": { "CNPJ": 53924076000170, "AGENTE": "GISLAINE_BOTELHO", "ACAO": "URGENTE_REALIZAR_PRIMEIRA_VISITA", "RAZAO_SOCIAL": "INTERDIALOGOS_TRANSFORMACAO_PLURAL_LTDA", "ENDERECO": "RUAFRANCISCOGLICERIO_83_VILANAIR_PINDAMONHANGABA", "CIDADE": "PINDAMONHANGABA", "LATITUDE": -22.9255713, "LONGITUDE": -45.4673804, "LINK": "#N/D" }, "geometry": { "type": "Point", "coordinates": [ -45.4673804, -22.9255713 ] } },
{ "type": "Feature", "properties": { "CNPJ": 10218672000121, "AGENTE": "GISLAINE_BOTELHO", "ACAO": "URGENTE_REALIZAR_PRIMEIRA_VISITA", "RAZAO_SOCIAL": "SUPERMERCADO_IRMAOS_LOURENCO_COMERCIO_DE_ALIMENTOS_LTDA", "ENDERECO": "RUADOUTORMATHEUSROMEIRO_160_CENTRO_PINDAMONHANGABA", "CIDADE": "PINDAMONHANGABA", "LATITUDE": -22.9262385, "LONGITUDE": -45.4657096, "LINK": "#N/D" }, "geometry": { "type": "Point", "coordinates": [ -45.4657096, -22.9262385 ] } },
{ "type": "Feature", "properties": { "CNPJ": 27194027000119, "AGENTE": "GISLAINE_BOTELHO", "ACAO": "URGENTE_REALIZAR_PRIMEIRA_VISITA", "RAZAO_SOCIAL": "PAIM_ODONTOLOGIA_LTDA", "ENDERECO": "RUADOUTORGUSTAVODEGODOY_280_CENTRO_PINDAMONHANGABA", "CIDADE": "PINDAMONHANGABA", "LATITUDE": -22.926349, "LONGITUDE": -45.4649209, "LINK": "#N/D" }, "geometry": { "type": "Point", "coordinates": [ -45.4649209, -22.926349 ] } },
{ "type": "Feature", "properties": { "CNPJ": 6244625000185, "AGENTE": "GISLAINE_BOTELHO", "ACAO": "URGENTE_REALIZAR_PRIMEIRA_VISITA", "RAZAO_SOCIAL": "MARIKO_ROBERTA_TASHIKAWA_DA_SILVA", "ENDERECO": "RUACONEGOTOBIAS_367_CENTRO_PINDAMONHANGABA", "CIDADE": "PINDAMONHANGABA", "LATITUDE": -22.9266446, "LONGITUDE": -45.4557594, "LINK": "#N/D" }, "geometry": { "type": "Point", "coordinates": [ -45.4557594, -22.9266446 ] } },
{ "type": "Feature", "properties": { "CNPJ": 40084947000142, "AGENTE": "GISLAINE_BOTELHO", "ACAO": "URGENTE_REALIZAR_PRIMEIRA_VISITA", "RAZAO_SOCIAL": "L_R_DA_SILVA_LTDA", "ENDERECO": "RUADOUTORCAMPOSSALLES_24_CENTRO_PINDAMONHANGABA", "CIDADE": "PINDAMONHANGABA", "LATITUDE": -22.9267357, "LONGITUDE": -45.4634504, "LINK": "#N/D" }, "geometry": { "type": "Point", "coordinates": [ -45.4634504, -22.9267357 ] } },
{ "type": "Feature", "properties": { "CNPJ": 3304259000114, "AGENTE": "GISLAINE_BOTELHO", "ACAO": "URGENTE_REALIZAR_PRIMEIRA_VISITA", "RAZAO_SOCIAL": "PEIXARIA_IKEDA_LTDA", "ENDERECO": "RUACAPITAOJOSEMARTINIANOVIEIRAFERRAZ_186_CENTRO_PINDAMONHANGABA", "CIDADE": "PINDAMONHANGABA", "LATITUDE": -22.9269157, "LONGITUDE": -45.4628912, "LINK": "#N/D" }, "geometry": { "type": "Point", "coordinates": [ -45.4628912, -22.9269157 ] } },
{ "type": "Feature", "properties": { "CNPJ": 44251638000170, "AGENTE": "GISLAINE_BOTELHO", "ACAO": "URGENTE_REALIZAR_PRIMEIRA_VISITA", "RAZAO_SOCIAL": "SOCIEDADE_COMERCIAL_PEREIRA_E_DE_MIGUEL_LTDA", "ENDERECO": "RUADOUTORGUSTAVOADOLFORAMOSMELLO_52_CHACARADAGALEGA_PINDAMONHANGABA", "CIDADE": "PINDAMONHANGABA", "LATITUDE": -22.9314774, "LONGITUDE": -45.4625119, "LINK": "#N/D" }, "geometry": { "type": "Point", "coordinates": [ -45.4625119, -22.9314774 ] } },
{ "type": "Feature", "properties": { "CNPJ": 11709882000185, "AGENTE": "GISLAINE_BOTELHO", "ACAO": "URGENTE_REALIZAR_PRIMEIRA_VISITA", "RAZAO_SOCIAL": "VICTORIO_CLINICA_INTEGRADA_LTDA", "ENDERECO": "RUADONACARMELITAGAMAROMEIRO_95_PARQUESAOBENEDITO_PINDAMONHANGABA", "CIDADE": "PINDAMONHANGABA", "LATITUDE": -22.9316139, "LONGITUDE": -45.4559384, "LINK": "#N/D" }, "geometry": { "type": "Point", "coordinates": [ -45.4559384, -22.9316139 ] } },
{ "type": "Feature", "properties": { "CNPJ": 6935745000129, "AGENTE": "GISLAINE_BOTELHO", "ACAO": "URGENTE_REALIZAR_PRIMEIRA_VISITA", "RAZAO_SOCIAL": "CELSO_RIBEIRO_CAVALCANTE_DE_SOUZA", "ENDERECO": "RUADOUTORCAMPOSSALLES_340_CENTRO_PINDAMONHANGABA", "CIDADE": "PINDAMONHANGABA", "LATITUDE": -22.93237, "LONGITUDE": -45.4627767, "LINK": "#N/D" }, "geometry": { "type": "Point", "coordinates": [ -45.4627767, -22.93237 ] } },
{ "type": "Feature", "properties": { "CNPJ": 40492470000134, "AGENTE": "GISLAINE_BOTELHO", "ACAO": "URGENTE_REALIZAR_PRIMEIRA_VISITA", "RAZAO_SOCIAL": "STENIO_DE_ANDRADE_FUNILARIA_LTDA", "ENDERECO": "AVENIDAABELCORREAGUIMARAES_600_VILARICA_PINDAMONHANGABA", "CIDADE": "PINDAMONHANGABA", "LATITUDE": -22.9334542, "LONGITUDE": -45.4706189, "LINK": "#N/D" }, "geometry": { "type": "Point", "coordinates": [ -45.4706189, -22.9334542 ] } },
{ "type": "Feature", "properties": { "CNPJ": 43278609000130, "AGENTE": "GISLAINE_BOTELHO", "ACAO": "URGENTE_REALIZAR_PRIMEIRA_VISITA", "RAZAO_SOCIAL": "GU_COMERCIO_DE_TINTAS_LTDA", "ENDERECO": "RUADOUTORFONTESJUNIOR_580_ALTODOCARDOSO_PINDAMONHANGABA", "CIDADE": "PINDAMONHANGABA", "LATITUDE": -22.9364263, "LONGITUDE": -45.4662427, "LINK": "#N/D" }, "geometry": { "type": "Point", "coordinates": [ -45.4662427, -22.9364263 ] } },
{ "type": "Feature", "properties": { "CNPJ": 52593614000128, "AGENTE": "GISLAINE_BOTELHO", "ACAO": "URGENTE_REALIZAR_PRIMEIRA_VISITA", "RAZAO_SOCIAL": "MVA_AUTOS_E_EMPREENDIMENTOS_LTDA", "ENDERECO": "RUADOUTORFONTESJUNIOR_750_ALTODOCARDOSO_PINDAMONHANGABA", "CIDADE": "PINDAMONHANGABA", "LATITUDE": -22.9373275, "LONGITUDE": -45.4676232, "LINK": "#N/D" }, "geometry": { "type": "Point", "coordinates": [ -45.4676232, -22.9373275 ] } },
{ "type": "Feature", "properties": { "CNPJ": 3692086000159, "AGENTE": "GISLAINE_BOTELHO", "ACAO": "URGENTE_REALIZAR_PRIMEIRA_VISITA", "RAZAO_SOCIAL": "JOSE_REOLON_FILHO_MATERIAIS_PARA_CONSTRUCAO_LTDA", "ENDERECO": "RUAMANOELIGNACIOMARCONDESROMEIRO_1285_VILARICA_PINDAMONHANGABA", "CIDADE": "PINDAMONHANGABA", "LATITUDE": -22.9391332, "LONGITUDE": -45.4816952, "LINK": "#N/D" }, "geometry": { "type": "Point", "coordinates": [ -45.4816952, -22.9391332 ] } },
{ "type": "Feature", "properties": { "CNPJ": 39484980000180, "AGENTE": "GISLAINE_BOTELHO", "ACAO": "URGENTE_REALIZAR_PRIMEIRA_VISITA", "RAZAO_SOCIAL": "ROBSON_MONTEIRO_FERREIRA_DA_SILVA", "ENDERECO": "AVENIDAABELCORREAGUIMARAES_2037_VILARICA_PINDAMONHANGABA", "CIDADE": "PINDAMONHANGABA", "LATITUDE": -22.94044, "LONGITUDE": -45.4825233, "LINK": "#N/D" }, "geometry": { "type": "Point", "coordinates": [ -45.4825233, -22.94044 ] } },
{ "type": "Feature", "properties": { "CNPJ": 45343366000100, "AGENTE": "GISLAINE_BOTELHO", "ACAO": "URGENTE_REALIZAR_PRIMEIRA_VISITA", "RAZAO_SOCIAL": "CHARLES_APARECIDO_ZANDONA_LTDA", "ENDERECO": "AVENIDANOSSASENHORADOPERPETUOSOCORRO_1450_NOSSASENHORADOPERPETUOSOCORRO_GUARATINGUETA", "CIDADE": "GUARATINGUETA", "LATITUDE": -22.9424346, "LONGITUDE": -45.4717998, "LINK": "#N/D" }, "geometry": { "type": "Point", "coordinates": [ -45.4717998, -22.9424346 ] } },
{ "type": "Feature", "properties": { "CNPJ": 49043258000164, "AGENTE": "GISLAINE_BOTELHO", "ACAO": "URGENTE_REALIZAR_PRIMEIRA_VISITA", "RAZAO_SOCIAL": "EVALDO_BORGES_DOS_SANTOS", "ENDERECO": "AVENIDANOSSASENHORADOPERPETUOSOCORRO_1701_NOSSASENHORADOPERPETUOSOCORRO_PINDAMONHANGABA", "CIDADE": "PINDAMONHANGABA", "LATITUDE": -22.943571, "LONGITUDE": -45.4727873, "LINK": "#N/D" }, "geometry": { "type": "Point", "coordinates": [ -45.4727873, -22.943571 ] } },
{ "type": "Feature", "properties": { "CNPJ": 8415643000108, "AGENTE": "GISLAINE_BOTELHO", "ACAO": "URGENTE_REALIZAR_PRIMEIRA_VISITA", "RAZAO_SOCIAL": "BELITA_CAMARGO_CABRAL", "ENDERECO": "AVENIDANOSSASENHORADOPERPETUOSOCORRO_1685_NOSSASENHORADOPERPETUOSOCORRO_PINDAMONHANGABA", "CIDADE": "PINDAMONHANGABA", "LATITUDE": -22.9454896, "LONGITUDE": -45.4753508, "LINK": "#N/D" }, "geometry": { "type": "Point", "coordinates": [ -45.4753508, -22.9454896 ] } },
{ "type": "Feature", "properties": { "CNPJ": 60485774000181, "AGENTE": "GISLAINE_BOTELHO", "ACAO": "URGENTE_REALIZAR_PRIMEIRA_VISITA", "RAZAO_SOCIAL": "MGF_EMBELEZAMENTO__ESTETICA_E_CUIDADO_ANIMAL_LTDA", "ENDERECO": "AVENIDANOSSASENHORADOPERPETUOSOCORRO_2018_NOSSASENHORADOPERPETUOSOCORRO_PINDAMONHANGABA", "CIDADE": "PINDAMONHANGABA", "LATITUDE": -22.945598, "LONGITUDE": -45.476004, "LINK": "#N/D" }, "geometry": { "type": "Point", "coordinates": [ -45.476004, -22.945598 ] } },
{ "type": "Feature", "properties": { "CNPJ": 37230680000140, "AGENTE": "GISLAINE_BOTELHO", "ACAO": "URGENTE_REALIZAR_PRIMEIRA_VISITA", "RAZAO_SOCIAL": "E_._DE_LIMA_FRANCISCO", "ENDERECO": "RODOVIAAMADORBUENODAVEIGA_2100_NOSSASENHORADOPERPETUOSOCORRO_PINDAMONHANGABA", "CIDADE": "PINDAMONHANGABA", "LATITUDE": -22.9482974, "LONGITUDE": -45.478397, "LINK": "#N/D" }, "geometry": { "type": "Point", "coordinates": [ -45.478397, -22.9482974 ] } },
{ "type": "Feature", "properties": { "CNPJ": 4830676000163, "AGENTE": "GISLAINE_BOTELHO", "ACAO": "URGENTE_REALIZAR_PRIMEIRA_VISITA", "RAZAO_SOCIAL": "METALURGICA_L_C_LTDA", "ENDERECO": "RUASANTABRANCA_50_CIDADENOVA_PINDAMONHANGABA", "CIDADE": "PINDAMONHANGABA", "LATITUDE": -22.9506383, "LONGITUDE": -45.407675, "LINK": "#N/D" }, "geometry": { "type": "Point", "coordinates": [ -45.407675, -22.9506383 ] } },
{ "type": "Feature", "properties": { "CNPJ": 7400932000170, "AGENTE": "GISLAINE_BOTELHO", "ACAO": "URGENTE_REALIZAR_PRIMEIRA_VISITA", "RAZAO_SOCIAL": "MARTINS_E_COELHO_COMERCIO_DE_RECICLAVEIS_LTDA", "ENDERECO": "RUASANTABRANCA_100_CIDADENOVA_PINDAMONHANGABA", "CIDADE": "PINDAMONHANGABA", "LATITUDE": -22.951585, "LONGITUDE": -45.4074783, "LINK": "#N/D" }, "geometry": { "type": "Point", "coordinates": [ -45.4074783, -22.951585 ] } },
{ "type": "Feature", "properties": { "CNPJ": 54518999000194, "AGENTE": "GISLAINE_BOTELHO", "ACAO": "URGENTE_REALIZAR_PRIMEIRA_VISITA", "RAZAO_SOCIAL": "AGUIAR_&_GUIAR_FORMACAO_PROFISSIONAL_LTDA", "ENDERECO": "RUABICUDOLEME_40_CENTRO_PINDAMONHANGABA", "CIDADE": "PINDAMONHANGABA", "LATITUDE": -22.9237383, "LONGITUDE": -45.4627167, "LINK": "#N/D" }, "geometry": { "type": "Point", "coordinates": [ -45.4627167, -22.9237383 ] } },
{ "type": "Feature", "properties": { "CNPJ": 5265278000104, "AGENTE": "GISLAINE_BOTELHO", "ACAO": "URGENTE_REALIZAR_PRIMEIRA_VISITA", "RAZAO_SOCIAL": "ANA_PAULA_CESAR_MATHIAS_FINGER", "ENDERECO": "RUADEPUTADOCLAROCESAR_174_CENTRO_PINDAMONHANGABA", "CIDADE": "PINDAMONHANGABA", "LATITUDE": -22.9242972, "LONGITUDE": -45.4623125, "LINK": "#N/D" }, "geometry": { "type": "Point", "coordinates": [ -45.4623125, -22.9242972 ] } },
{ "type": "Feature", "properties": { "CNPJ": 49804290000115, "AGENTE": "GISLAINE_BOTELHO", "ACAO": "URGENTE_REALIZAR_PRIMEIRA_VISITA", "RAZAO_SOCIAL": "CODIGO_G_MODA_PLUS_III_LTDA", "ENDERECO": "RUADEPUTADOCLAROCESAR_187_CENTRO_PINDAMONHANGABA", "CIDADE": "PINDAMONHANGABA", "LATITUDE": -22.9244102, "LONGITUDE": -45.4621521, "LINK": "#N/D" }, "geometry": { "type": "Point", "coordinates": [ -45.4621521, -22.9244102 ] } },
{ "type": "Feature", "properties": { "CNPJ": 58396665000146, "AGENTE": "GISLAINE_BOTELHO", "ACAO": "URGENTE_REALIZAR_PRIMEIRA_VISITA", "RAZAO_SOCIAL": "OTICAS_SOUZA_MORETTO_LTDA", "ENDERECO": "RUADEPUTADOCLAROCESAR_215_CENTRO_PINDAMONHANGABA", "CIDADE": "PINDAMONHANGABA", "LATITUDE": -22.9247117, "LONGITUDE": -45.4621233, "LINK": "#N/D" }, "geometry": { "type": "Point", "coordinates": [ -45.4621233, -22.9247117 ] } },
{ "type": "Feature", "properties": { "CNPJ": 5691366000500, "AGENTE": "GISLAINE_BOTELHO", "ACAO": "URGENTE_REALIZAR_PRIMEIRA_VISITA", "RAZAO_SOCIAL": "EDVALDO_COSTA_DE_LIMA_LTDA", "ENDERECO": "RUADOSANDRADAS_222_CENTRO_PINDAMONHANGABA", "CIDADE": "PINDAMONHANGABA", "LATITUDE": -22.9251045, "LONGITUDE": -45.4619574, "LINK": "#N/D" }, "geometry": { "type": "Point", "coordinates": [ -45.4619574, -22.9251045 ] } },
{ "type": "Feature", "properties": { "CNPJ": 47738046000176, "AGENTE": "GISLAINE_BOTELHO", "ACAO": "URGENTE_REALIZAR_PRIMEIRA_VISITA", "RAZAO_SOCIAL": "TAYLANA_VANUSA_APARECIDA_DE_CAMPOS", "ENDERECO": "RUADOSANDRADAS_213_CENTRO_PINDAMONHANGABA", "CIDADE": "PINDAMONHANGABA", "LATITUDE": -22.9251375, "LONGITUDE": -45.4618542, "LINK": "#N/D" }, "geometry": { "type": "Point", "coordinates": [ -45.4618542, -22.9251375 ] } },
{ "type": "Feature", "properties": { "CNPJ": 48727787000114, "AGENTE": "GISLAINE_BOTELHO", "ACAO": "URGENTE_REALIZAR_PRIMEIRA_VISITA", "RAZAO_SOCIAL": "PINAFFI_&_GUEIROS_RESTAURANTE_LTDA", "ENDERECO": "RUADOSANDRADAS_204_CENTRO_PINDAMONHANGABA", "CIDADE": "PINDAMONHANGABA", "LATITUDE": -22.9251586, "LONGITUDE": -45.4616651, "LINK": "#N/D" }, "geometry": { "type": "Point", "coordinates": [ -45.4616651, -22.9251586 ] } },
{ "type": "Feature", "properties": { "CNPJ": 51974924000120, "AGENTE": "GISLAINE_BOTELHO", "ACAO": "URGENTE_REALIZAR_PRIMEIRA_VISITA", "RAZAO_SOCIAL": "CENTRAL_DE_BIJUTERIAS_PINDAMONHANGABA_LTDA", "ENDERECO": "RUADEZDEJULHO_25_CENTRO_PINDAMONHANGABA", "CIDADE": "PINDAMONHANGABA", "LATITUDE": -22.9257721, "LONGITUDE": -45.4617949, "LINK": "#N/D" }, "geometry": { "type": "Point", "coordinates": [ -45.4617949, -22.9257721 ] } },
{ "type": "Feature", "properties": { "CNPJ": 43679657000210, "AGENTE": "GISLAINE_BOTELHO", "ACAO": "URGENTE_REALIZAR_PRIMEIRA_VISITA", "RAZAO_SOCIAL": "BRENO_A._GARCIA_SALGADO", "ENDERECO": "RUAPRUDENTEDEMORAES_363_CENTRO_PINDAMONHANGABA", "CIDADE": "PINDAMONHANGABA", "LATITUDE": -22.9234096, "LONGITUDE": -45.4586488, "LINK": "#N/D" }, "geometry": { "type": "Point", "coordinates": [ -45.4586488, -22.9234096 ] } },
{ "type": "Feature", "properties": { "CNPJ": 18727076000189, "AGENTE": "GISLAINE_BOTELHO", "ACAO": "URGENTE_REALIZAR_PRIMEIRA_VISITA", "RAZAO_SOCIAL": "MARCIA_MELO_VESTUARIO_LTDA.", "ENDERECO": "RUADEPUTADOCLAROCESAR_70_CENTRO_PINDAMONHANGABA", "CIDADE": "PINDAMONHANGABA", "LATITUDE": -22.9234229, "LONGITUDE": -45.4622606, "LINK": "#N/D" }, "geometry": { "type": "Point", "coordinates": [ -45.4622606, -22.9234229 ] } },
{ "type": "Feature", "properties": { "CNPJ": 17036604000190, "AGENTE": "GISLAINE_BOTELHO", "ACAO": "URGENTE_REALIZAR_PRIMEIRA_VISITA", "RAZAO_SOCIAL": "ACP_CALCADOS_PINDA_LTDA", "ENDERECO": "RUABICUDOLEME_25_CENTRO_PINDAMONHANGABA", "CIDADE": "PINDAMONHANGABA", "LATITUDE": -22.9238782, "LONGITUDE": -45.4624268, "LINK": "#N/D" }, "geometry": { "type": "Point", "coordinates": [ -45.4624268, -22.9238782 ] } },
{ "type": "Feature", "properties": { "CNPJ": 32077445000328, "AGENTE": "GISLAINE_BOTELHO", "ACAO": "URGENTE_REALIZAR_PRIMEIRA_VISITA", "RAZAO_SOCIAL": "MAYARA_LEME_GOMES", "ENDERECO": "TRAVESSAMARQUESDOHERVAL_60_CENTRO_PINDAMONHANGABA", "CIDADE": "PINDAMONHANGABA", "LATITUDE": -22.9243956, "LONGITUDE": -45.4634701, "LINK": "#N/D" }, "geometry": { "type": "Point", "coordinates": [ -45.4634701, -22.9243956 ] } },
{ "type": "Feature", "properties": { "CNPJ": 5669647000124, "AGENTE": "GISLAINE_BOTELHO", "ACAO": "URGENTE_REALIZAR_PRIMEIRA_VISITA", "RAZAO_SOCIAL": "N._I._L._DE_ALMEIDA_CONFECCOES", "ENDERECO": "AVENIDACORONELFERNANDOPRESTES_265_CENTRO_PINDAMONHANGABA", "CIDADE": "PINDAMONHANGABA", "LATITUDE": -22.92606, "LONGITUDE": -45.4608083, "LINK": "#N/D" }, "geometry": { "type": "Point", "coordinates": [ -45.4608083, -22.92606 ] } },
{ "type": "Feature", "properties": { "CNPJ": 54688911000182, "AGENTE": "GISLAINE_BOTELHO", "ACAO": "URGENTE_REALIZAR_PRIMEIRA_VISITA", "RAZAO_SOCIAL": "MICHELE_LEHPAMER_COQUETTI", "ENDERECO": "AVENIDADOUTORJORGETIBIRICA_531_CHACARADAGALEGA_PINDAMONHANGABA", "CIDADE": "PINDAMONHANGABA", "LATITUDE": -22.9298729, "LONGITUDE": -45.4621624, "LINK": "#N/D" }, "geometry": { "type": "Point", "coordinates": [ -45.4621624, -22.9298729 ] } },
{ "type": "Feature", "properties": { "CNPJ": 54190226000121, "AGENTE": "GISLAINE_BOTELHO", "ACAO": "URGENTE_REALIZAR_PRIMEIRA_VISITA", "RAZAO_SOCIAL": "LVS_SISTEMA_CONTRA_INCENDIO_LTDA", "ENDERECO": "AVENIDADOUTORJORGETIBIRICA_596_CHACARADAGALEGA_PINDAMONHANGABA", "CIDADE": "PINDAMONHANGABA", "LATITUDE": -22.930505, "LONGITUDE": -45.4621982, "LINK": "#N/D" }, "geometry": { "type": "Point", "coordinates": [ -45.4621982, -22.930505 ] } },
{ "type": "Feature", "properties": { "CNPJ": 10623885000210, "AGENTE": "GISLAINE_BOTELHO", "ACAO": "URGENTE_REALIZAR_PRIMEIRA_VISITA", "RAZAO_SOCIAL": "CLEAN'S_ODONTOLOGIA_LTDA", "ENDERECO": "AVENIDADOUTORJORGETIBIRICA_713_CHACARADAGALEGA_PINDAMONHANGABA", "CIDADE": "PINDAMONHANGABA", "LATITUDE": -22.9315751, "LONGITUDE": -45.4620252, "LINK": "#N/D" }, "geometry": { "type": "Point", "coordinates": [ -45.4620252, -22.9315751 ] } },
{ "type": "Feature", "properties": { "CNPJ": 40889516000153, "AGENTE": "GISLAINE_BOTELHO", "ACAO": "URGENTE_REALIZAR_SEGUNDA_VISITA", "RAZAO_SOCIAL": "ICEGEL_SABORES_GELADOS_LTDA", "ENDERECO": "RUADEZDEJULHO_35_CENTRO_PINDAMONHANGABA", "CIDADE": "PINDAMONHANGABA", "LATITUDE": -22.9257452, "LONGITUDE": -45.4616815, "LINK": "#N/D" }, "geometry": { "type": "Point", "coordinates": [ -45.4616815, -22.9257452 ] } },
{ "type": "Feature", "properties": { "CNPJ": 37011743000177, "AGENTE": "GISLAINE_BOTELHO", "ACAO": "URGENTE_REALIZAR_SEGUNDA_VISITA", "RAZAO_SOCIAL": "CASA_DE_ARMARINHOS_OLIVEIRA_LTDA", "ENDERECO": "PRACAMONSENHORMARCONDES_112_CENTRO_PINDAMONHANGABA", "CIDADE": "PINDAMONHANGABA", "LATITUDE": -22.9260073, "LONGITUDE": -45.4628377, "LINK": "#N/D" }, "geometry": { "type": "Point", "coordinates": [ -45.4628377, -22.9260073 ] } },
{ "type": "Feature", "properties": { "CNPJ": 54553994000100, "AGENTE": "GISLAINE_BOTELHO", "ACAO": "URGENTE_REALIZAR_SEGUNDA_VISITA", "RAZAO_SOCIAL": "VISTA_BELA_HOTEL_LTDA", "ENDERECO": "AVENIDADOUTORJORGETIBIRICA_103_CENTRO_PINDAMONHANGABA", "CIDADE": "PINDAMONHANGABA", "LATITUDE": -22.9260457, "LONGITUDE": -45.4620161, "LINK": "#N/D" }, "geometry": { "type": "Point", "coordinates": [ -45.4620161, -22.9260457 ] } },
{ "type": "Feature", "properties": { "CNPJ": 50031673000187, "AGENTE": "GISLAINE_BOTELHO", "ACAO": "URGENTE_REALIZAR_SEGUNDA_VISITA", "RAZAO_SOCIAL": "PADARIA_E_CONFEITARIA_N_S_DO_BOM_SUCESSO_LTDA", "ENDERECO": "AVENIDADOUTORJORGETIBIRICA_115_CENTRO_PINDAMONHANGABA", "CIDADE": "PINDAMONHANGABA", "LATITUDE": -22.9261727, "LONGITUDE": -45.4620506, "LINK": "#N/D" }, "geometry": { "type": "Point", "coordinates": [ -45.4620506, -22.9261727 ] } },
{ "type": "Feature", "properties": { "CNPJ": 11627177000210, "AGENTE": "GISLAINE_BOTELHO", "ACAO": "URGENTE_REALIZAR_SEGUNDA_VISITA", "RAZAO_SOCIAL": "CENTRO_DE_FORMACAO_DE_CONDUTORES_HORIZONTE_LTDA", "ENDERECO": "RUADOUTORGREGORIOCOSTA_94_CENTRO_PINDAMONHANGABA", "CIDADE": "PINDAMONHANGABA", "LATITUDE": -22.9263602, "LONGITUDE": -45.4597545, "LINK": "#N/D" }, "geometry": { "type": "Point", "coordinates": [ -45.4597545, -22.9263602 ] } },
{ "type": "Feature", "properties": { "CNPJ": 9311701000116, "AGENTE": "GISLAINE_BOTELHO", "ACAO": "URGENTE_REALIZAR_SEGUNDA_VISITA", "RAZAO_SOCIAL": "LUCIANA_DA_SILVA_CORREARD_VEIGA", "ENDERECO": "RUADOUTORGUSTAVODEGODOY_36_CENTRO_PINDAMONHANGABA", "CIDADE": "PINDAMONHANGABA", "LATITUDE": -22.9264697, "LONGITUDE": -45.4624783, "LINK": "#N/D" }, "geometry": { "type": "Point", "coordinates": [ -45.4624783, -22.9264697 ] } },
{ "type": "Feature", "properties": { "CNPJ": 52253034000191, "AGENTE": "GISLAINE_BOTELHO", "ACAO": "URGENTE_REALIZAR_SEGUNDA_VISITA", "RAZAO_SOCIAL": "JOAO_GABRIEL_LOURENCO_SERVICOS_E_TRANSPORTES_LTDA", "ENDERECO": "RUADOUTORGUSTAVODEGODOY_27_CENTRO_PINDAMONHANGABA", "CIDADE": "PINDAMONHANGABA", "LATITUDE": -22.926545, "LONGITUDE": -45.4623667, "LINK": "#N/D" }, "geometry": { "type": "Point", "coordinates": [ -45.4623667, -22.926545 ] } },
{ "type": "Feature", "properties": { "CNPJ": 782848000110, "AGENTE": "GISLAINE_BOTELHO", "ACAO": "URGENTE_REALIZAR_SEGUNDA_VISITA", "RAZAO_SOCIAL": "ONOFRE_PEREIRA_-_POSTO_DE_MOLAS_CIDADE_NOVA", "ENDERECO": "RUATREMEMBE_64_CIDADENOVA_PINDAMONHANGABA", "CIDADE": "PINDAMONHANGABA", "LATITUDE": -22.94232, "LONGITUDE": -45.4124555, "LINK": "#N/D" }, "geometry": { "type": "Point", "coordinates": [ -45.4124555, -22.94232 ] } },
{ "type": "Feature", "properties": { "CNPJ": 27666622000100, "AGENTE": "GISLAINE_BOTELHO", "ACAO": "URGENTE_REALIZAR_SEGUNDA_VISITA", "RAZAO_SOCIAL": "ANA_CAROLINA_DOS_SANTOS_DE_CARVALHO_TEIXEIRA_-_A_D_C_MECANICA_DIESEL", "ENDERECO": "AVENIDASAOPAULO_650_CIDADENOVA_PINDAMONHANGABA", "CIDADE": "PINDAMONHANGABA", "LATITUDE": -22.9438399, "LONGITUDE": -45.4051772, "LINK": "#N/D" }, "geometry": { "type": "Point", "coordinates": [ -45.4051772, -22.9438399 ] } },
{ "type": "Feature", "properties": { "CNPJ": 24109961000105, "AGENTE": "GISLAINE_BOTELHO", "ACAO": "URGENTE_REALIZAR_SEGUNDA_VISITA", "RAZAO_SOCIAL": "ANA_PAULA_DE_OLIVEIRA_FISIOTERAPIA_-_COLUNA_BLINDADA", "ENDERECO": "AVENIDASAOPAULO_482_CIDADENOVA_PINDAMONHANGABA", "CIDADE": "PINDAMONHANGABA", "LATITUDE": -22.9442767, "LONGITUDE": -45.4069709, "LINK": "#N/D" }, "geometry": { "type": "Point", "coordinates": [ -45.4069709, -22.9442767 ] } },
{ "type": "Feature", "properties": { "CNPJ": 54976585000109, "AGENTE": "GISLAINE_BOTELHO", "ACAO": "URGENTE_REALIZAR_SEGUNDA_VISITA", "RAZAO_SOCIAL": "PDM_MANUTENCAO_MECANICA_LTDA_-_P_D_M_MANUTENCAO", "ENDERECO": "AVENIDAMANOELCESARRIBEIRO_4105_CIDADENOVA_PINDAMONHANGABA", "CIDADE": "PINDAMONHANGABA", "LATITUDE": -22.94572, "LONGITUDE": -45.4116511, "LINK": "#N/D" }, "geometry": { "type": "Point", "coordinates": [ -45.4116511, -22.94572 ] } },
{ "type": "Feature", "properties": { "CNPJ": 6881736000100, "AGENTE": "GISLAINE_BOTELHO", "ACAO": "REALIZAR_SEGUNDA_VISITA", "RAZAO_SOCIAL": "APARECIDA_CRISTIANE_VESTUARIO_LTDA", "ENDERECO": "RUADOUTORGUSTAVODEGODOY_64_VILANAIR_PINDAMONHANGABA", "CIDADE": "PINDAMONHANGABA", "LATITUDE": -22.9270359, "LONGITUDE": -45.46202, "LINK": "#N/D" }, "geometry": { "type": "Point", "coordinates": [ -45.46202, -22.9270359 ] } },
{ "type": "Feature", "properties": { "CNPJ": 3972325000124, "AGENTE": "GISLAINE_BOTELHO", "ACAO": "REALIZAR_SEGUNDA_VISITA", "RAZAO_SOCIAL": "CIMAR_SERVICOS_GERAIS_LTDA", "ENDERECO": "AVENIDANOSSASENHORADOPERPETUOSOCORRO_1920_NOSSASENHORADOPERPETUOSOCORRO_GUARATINGUETA", "CIDADE": "GUARATINGUETA", "LATITUDE": -22.9447714, "LONGITUDE": -45.4750894, "LINK": "#N/D" }, "geometry": { "type": "Point", "coordinates": [ -45.4750894, -22.9447714 ] } },
{ "type": "Feature", "properties": { "CNPJ": 14200946000106, "AGENTE": "GISLAINE_BOTELHO", "ACAO": "REALIZAR_SEGUNDA_VISITA", "RAZAO_SOCIAL": "SIQUEIRA_&_CABRAL_LTDA", "ENDERECO": "RUA_BICUDO_LEME_128_CENTRO_PINDAMONHANGABA_BRASIL", "CIDADE": "PINDAMONHANGABA", "LATITUDE": -22.9237903, "LONGITUDE": -45.4635455, "LINK": "#N/D" }, "geometry": { "type": "Point", "coordinates": [ -45.4635455, -22.9237903 ] } },
{ "type": "Feature", "properties": { "CNPJ": 6881736000100, "AGENTE": "GISLAINE_BOTELHO", "ACAO": "REALIZAR_SEGUNDA_VISITA", "RAZAO_SOCIAL": "APARECIDA_CRISTIANE_VESTUARIO_LTDA", "ENDERECO": "RUA_DOUTOR_GUSTAVO_DE_GODOY_64_CENTRO_PINDAMONHANGABA_BRASIL", "CIDADE": "PINDAMONHANGABA", "LATITUDE": -22.9264068, "LONGITUDE": -45.4628289, "LINK": "#N/D" }, "geometry": { "type": "Point", "coordinates": [ -45.4628289, -22.9264068 ] } },
{ "type": "Feature", "properties": { "CNPJ": 48472373000191, "AGENTE": "GISLAINE_BOTELHO", "ACAO": "REALIZAR_PRIMEIRA_VISITA_POTENCIAL", "RAZAO_SOCIAL": "THATIANA_DA_SILVA_ATHAYDE_COSTA", "ENDERECO": "AVENIDA_JOSE_MONTEIRO_ROMAO_780_RESIDENCIAL_MANTIQUEIRA_PINDAMONHANGABA_BRASIL", "CIDADE": "PINDAMONHANGABA", "LATITUDE": -22.886716, "LONGITUDE": -45.367385, "LINK": "#N/D" }, "geometry": { "type": "Point", "coordinates": [ -45.367385, -22.886716 ] } },
{ "type": "Feature", "properties": { "CNPJ": 30591674000179, "AGENTE": "GISLAINE_BOTELHO", "ACAO": "REALIZAR_PRIMEIRA_VISITA_POTENCIAL", "RAZAO_SOCIAL": "WAGNER_RIBEIRO_DA_SILVA", "ENDERECO": "RUA_DOUTOR_ANGELO_PAZ_DA_SILVA_83_RESIDENCIAL_MANTIQUEIRA_PINDAMONHANGABA_BRASIL", "CIDADE": "PINDAMONHANGABA", "LATITUDE": -22.8893287, "LONGITUDE": -45.3653012, "LINK": "#N/D" }, "geometry": { "type": "Point", "coordinates": [ -45.3653012, -22.8893287 ] } },
{ "type": "Feature", "properties": { "CNPJ": 32039739000101, "AGENTE": "GISLAINE_BOTELHO", "ACAO": "REALIZAR_PRIMEIRA_VISITA_POTENCIAL", "RAZAO_SOCIAL": "FRANCINE_DA_COSTA_E_SILVA_FARIA", "ENDERECO": "RUA_JOSSEI_TODA_456_RESIDENCIAL_MANTIQUEIRA_PINDAMONHANGABA_BRASIL", "CIDADE": "PINDAMONHANGABA", "LATITUDE": -22.89012, "LONGITUDE": -45.3674028, "LINK": "#N/D" }, "geometry": { "type": "Point", "coordinates": [ -45.3674028, -22.89012 ] } },
{ "type": "Feature", "properties": { "CNPJ": 49246411000150, "AGENTE": "GISLAINE_BOTELHO", "ACAO": "REALIZAR_PRIMEIRA_VISITA_POTENCIAL", "RAZAO_SOCIAL": "LUCY_PRINTES_MANTOVANELLI", "ENDERECO": "RUA_PROJETADA_232_FEITAL_PINDAMONHANGABA_BRASIL", "CIDADE": "PINDAMONHANGABA", "LATITUDE": -22.9411093, "LONGITUDE": -45.3936128, "LINK": "#N/D" }, "geometry": { "type": "Point", "coordinates": [ -45.3936128, -22.9411093 ] } },
{ "type": "Feature", "properties": { "CNPJ": 23088235000182, "AGENTE": "GISLAINE_BOTELHO", "ACAO": "REALIZAR_PRIMEIRA_VISITA_POTENCIAL", "RAZAO_SOCIAL": "JEFFERSON_WILLIAM_DINIZ_LEAL", "ENDERECO": "RUA_CACAPAVA_290_CIDADE_NOVA_PINDAMONHANGABA_BRASIL", "CIDADE": "PINDAMONHANGABA", "LATITUDE": -22.9465053, "LONGITUDE": -45.4051087, "LINK": "#N/D" }, "geometry": { "type": "Point", "coordinates": [ -45.4051087, -22.9465053 ] } },
{ "type": "Feature", "properties": { "CNPJ": 44803627000156, "AGENTE": "GISLAINE_BOTELHO", "ACAO": "REALIZAR_PRIMEIRA_VISITA_POTENCIAL", "RAZAO_SOCIAL": "FERNANDA_APARECIDA_JESUS_DE_OLIVEIRA", "ENDERECO": "RUA_BENEDICTA_SOURATY_HINZ_298_RESIDENCIAL_LIBERDADE_(MOREIRA_CESAR)_PINDAMONHANGABA_BRASIL", "CIDADE": "PINDAMONHANGABA", "LATITUDE": -22.9038327, "LONGITUDE": -45.3768588, "LINK": "#N/D" }, "geometry": { "type": "Point", "coordinates": [ -45.3768588, -22.9038327 ] } },
{ "type": "Feature", "properties": { "CNPJ": 10916998000122, "AGENTE": "GISLAINE_BOTELHO", "ACAO": "REALIZAR_PRIMEIRA_VISITA_POTENCIAL", "RAZAO_SOCIAL": "10.916.998_RAPHAEL_RAMOS_MOURA", "ENDERECO": "RUA_SETE_DE_SETEMBRO_49_CENTRO_PIEDADE_BRASIL", "CIDADE": "PIEDADE", "LATITUDE": -22.8981941, "LONGITUDE": -45.3678432, "LINK": "#N/D" }, "geometry": { "type": "Point", "coordinates": [ -45.3678432, -22.8981941 ] } },
{ "type": "Feature", "properties": { "CNPJ": 20871342000194, "AGENTE": "GISLAINE_BOTELHO", "ACAO": "REALIZAR_PRIMEIRA_VISITA_POTENCIAL", "RAZAO_SOCIAL": "MARISA_APARECIDA_PAIXAO_DA_SILVA", "ENDERECO": "RUA_JAIR_DE_LIMA_208_LOTEAMENTO_SANTA_CLARA_PINDAMONHANGABA_BRASIL", "CIDADE": "PINDAMONHANGABA", "LATITUDE": -22.9134785, "LONGITUDE": -45.4482592, "LINK": "#N/D" }, "geometry": { "type": "Point", "coordinates": [ -45.4482592, -22.9134785 ] } },
{ "type": "Feature", "properties": { "CNPJ": 21239556000105, "AGENTE": "GISLAINE_BOTELHO", "ACAO": "REALIZAR_PRIMEIRA_VISITA_POTENCIAL", "RAZAO_SOCIAL": "DANIELA_PAULA_DE_JESUS", "ENDERECO": "RUA_MANOEL_CEMBRANELLI_468_CHACARA_DA_GALEGA_PINDAMONHANGABA_BRASIL", "CIDADE": "PINDAMONHANGABA", "LATITUDE": -22.9157016, "LONGITUDE": -45.4431988, "LINK": "#N/D" }, "geometry": { "type": "Point", "coordinates": [ -45.4431988, -22.9157016 ] } },
{ "type": "Feature", "properties": { "CNPJ": 2481181000140, "AGENTE": "GISLAINE_BOTELHO", "ACAO": "REALIZAR_PRIMEIRA_VISITA_POTENCIAL", "RAZAO_SOCIAL": "ARAZO_COMERCIO_E_SERVICO_AUTOMOTIVO_LTDA", "ENDERECO": "RUA_ARMANDO_GOFFI_75_LOTEAMENTO_RESIDENCIAL_ANDRADE_PINDAMONHANGABA_BRASIL", "CIDADE": "PINDAMONHANGABA", "LATITUDE": -22.9175409, "LONGITUDE": -45.4459668, "LINK": "#N/D" }, "geometry": { "type": "Point", "coordinates": [ -45.4459668, -22.9175409 ] } },
{ "type": "Feature", "properties": { "CNPJ": 17942054000179, "AGENTE": "GISLAINE_BOTELHO", "ACAO": "REALIZAR_PRIMEIRA_VISITA_POTENCIAL", "RAZAO_SOCIAL": "VERA_LUCIA_EMIDIO_FRITSCH", "ENDERECO": "AVENIDA_MONSENHOR_JOAO_JOSE_DE_AZEVEDO_351_CRISPIM_PINDAMONHANGABA_BRASIL", "CIDADE": "PINDAMONHANGABA", "LATITUDE": -22.9184351, "LONGITUDE": -45.453332, "LINK": "#N/D" }, "geometry": { "type": "Point", "coordinates": [ -45.453332, -22.9184351 ] } },
{ "type": "Feature", "properties": { "CNPJ": 26706816000129, "AGENTE": "GISLAINE_BOTELHO", "ACAO": "REALIZAR_PRIMEIRA_VISITA_POTENCIAL", "RAZAO_SOCIAL": "LUCIA_NAREZI_MONTEIRO", "ENDERECO": "RUA_DOUTOR_EUGENIO_FORTES_COELHO_408_BOSQUE_DA_PRINCESA_PINDAMONHANGABA_BRASIL", "CIDADE": "PINDAMONHANGABA", "LATITUDE": -22.9186559, "LONGITUDE": -45.4582576, "LINK": "#N/D" }, "geometry": { "type": "Point", "coordinates": [ -45.4582576, -22.9186559 ] } },
{ "type": "Feature", "properties": { "CNPJ": 27658803000194, "AGENTE": "GISLAINE_BOTELHO", "ACAO": "REALIZAR_PRIMEIRA_VISITA_POTENCIAL", "RAZAO_SOCIAL": "VALERIA_CRISTINA_DOS_SANTOS_ROLIM", "ENDERECO": "AVENIDA_MONSENHOR_JOAO_JOSE_DE_AZEVEDO_0_CRISPIM_PINDAMONHANGABA_BRASIL", "CIDADE": "PINDAMONHANGABA", "LATITUDE": -22.9192808, "LONGITUDE": -45.4544598, "LINK": "#N/D" }, "geometry": { "type": "Point", "coordinates": [ -45.4544598, -22.9192808 ] } },
{ "type": "Feature", "properties": { "CNPJ": 27897576000150, "AGENTE": "GISLAINE_BOTELHO", "ACAO": "REALIZAR_PRIMEIRA_VISITA_POTENCIAL", "RAZAO_SOCIAL": "JULIO_CESAR_ESPINOZA_VIDAL", "ENDERECO": "RUA_SENADOR_DINO_BUENO_490_BOSQUE_DA_PRINCESA_PINDAMONHANGABA_BRASIL", "CIDADE": "PINDAMONHANGABA", "LATITUDE": -22.921014, "LONGITUDE": -45.4578456, "LINK": "#N/D" }, "geometry": { "type": "Point", "coordinates": [ -45.4578456, -22.921014 ] } },
{ "type": "Feature", "properties": { "CNPJ": 43392690000184, "AGENTE": "GISLAINE_BOTELHO", "ACAO": "REALIZAR_PRIMEIRA_VISITA_POTENCIAL", "RAZAO_SOCIAL": "JOYCE_NEVES_RITA", "ENDERECO": "RUA_DONA_REGINA_MIHICH_MACHADO_66_CRISPIM_PINDAMONHANGABA_BRASIL", "CIDADE": "PINDAMONHANGABA", "LATITUDE": -22.9212884, "LONGITUDE": -45.4538773, "LINK": "#N/D" }, "geometry": { "type": "Point", "coordinates": [ -45.4538773, -22.9212884 ] } },
{ "type": "Feature", "properties": { "CNPJ": 33737385000123, "AGENTE": "GISLAINE_BOTELHO", "ACAO": "REALIZAR_PRIMEIRA_VISITA_POTENCIAL", "RAZAO_SOCIAL": "PEREZ_&_BERGONZONI_COMERCIO_E_COMUNICACAO_VISUAL_LTDA", "ENDERECO": "RUA_CORONEL_JOSE_FRANCISCO_397_CENTRO_PINDAMONHANGABA_BRASIL", "CIDADE": "PINDAMONHANGABA", "LATITUDE": -22.9218045, "LONGITUDE": -45.4581687, "LINK": "#N/D" }, "geometry": { "type": "Point", "coordinates": [ -45.4581687, -22.9218045 ] } },
{ "type": "Feature", "properties": { "CNPJ": 56067620000100, "AGENTE": "GISLAINE_BOTELHO", "ACAO": "REALIZAR_PRIMEIRA_VISITA_POTENCIAL", "RAZAO_SOCIAL": "NITYANANDA_CAMPELLO", "ENDERECO": "RUA_SANTA_MARIA_MAZARELLO_26_TABAU_PINDAMONHANGABA_BRASIL", "CIDADE": "PINDAMONHANGABA", "LATITUDE": -22.9230566, "LONGITUDE": -45.4517377, "LINK": "#N/D" }, "geometry": { "type": "Point", "coordinates": [ -45.4517377, -22.9230566 ] } },
{ "type": "Feature", "properties": { "CNPJ": 22855729000182, "AGENTE": "GISLAINE_BOTELHO", "ACAO": "REALIZAR_PRIMEIRA_VISITA_POTENCIAL", "RAZAO_SOCIAL": "IMOBILIARIA_GUERRERO_-_LTDA", "ENDERECO": "RUA_PRUDENTE_DE_MORAES_425_CENTRO_PINDAMONHANGABA_BRASIL", "CIDADE": "PINDAMONHANGABA", "LATITUDE": -22.9233086, "LONGITUDE": -45.4582554, "LINK": "#N/D" }, "geometry": { "type": "Point", "coordinates": [ -45.4582554, -22.9233086 ] } },
{ "type": "Feature", "properties": { "CNPJ": 11413410000180, "AGENTE": "GISLAINE_BOTELHO", "ACAO": "REALIZAR_PRIMEIRA_VISITA_POTENCIAL", "RAZAO_SOCIAL": "V._T._SOLUCOES_LTDA", "ENDERECO": "AVENIDA_FORTUNATO_MOREIRA_355_TABAU_PINDAMONHANGABA_BRASIL", "CIDADE": "PINDAMONHANGABA", "LATITUDE": -22.9233149, "LONGITUDE": -45.4593898, "LINK": "#N/D" }, "geometry": { "type": "Point", "coordinates": [ -45.4593898, -22.9233149 ] } },
{ "type": "Feature", "properties": { "CNPJ": 42536240000155, "AGENTE": "GISLAINE_BOTELHO", "ACAO": "REALIZAR_PRIMEIRA_VISITA_POTENCIAL", "RAZAO_SOCIAL": "TRILHA_CYCLIST_SPORTS_COMERCIO_DE_ARTIGOS_ESPORTIVOS_LTDA", "ENDERECO": "RUA_PRUDENTE_DE_MORAES_248_CENTRO_PINDAMONHANGABA_BRASIL", "CIDADE": "PINDAMONHANGABA", "LATITUDE": -22.9233155, "LONGITUDE": -45.4595727, "LINK": "#N/D" }, "geometry": { "type": "Point", "coordinates": [ -45.4595727, -22.9233155 ] } },
{ "type": "Feature", "properties": { "CNPJ": 40175984000166, "AGENTE": "GISLAINE_BOTELHO", "ACAO": "REALIZAR_PRIMEIRA_VISITA_POTENCIAL", "RAZAO_SOCIAL": "HIARLA_SAMARA_DE_OLIVEIRA_SOUZA", "ENDERECO": "RUA_PRUDENTE_DE_MORAES_264_CENTRO_PINDAMONHANGABA_BRASIL", "CIDADE": "PINDAMONHANGABA", "LATITUDE": -22.9235336, "LONGITUDE": -45.4595677, "LINK": "#N/D" }, "geometry": { "type": "Point", "coordinates": [ -45.4595677, -22.9235336 ] } },
{ "type": "Feature", "properties": { "CNPJ": 15080390000124, "AGENTE": "GISLAINE_BOTELHO", "ACAO": "REALIZAR_PRIMEIRA_VISITA_POTENCIAL", "RAZAO_SOCIAL": "RENI_GONCALVES_DE_SOUZA", "ENDERECO": "RUA_CORONEL_JOSE_FRANCISCO_-_ATE_219/220_130_CENTRO_PINDAMONHANGABA_BRASIL", "CIDADE": "PINDAMONHANGABA", "LATITUDE": -22.9243162, "LONGITUDE": -45.4576971, "LINK": "#N/D" }, "geometry": { "type": "Point", "coordinates": [ -45.4576971, -22.9243162 ] } },
{ "type": "Feature", "properties": { "CNPJ": 43859986000162, "AGENTE": "GISLAINE_BOTELHO", "ACAO": "REALIZAR_PRIMEIRA_VISITA_POTENCIAL", "RAZAO_SOCIAL": "ELAINE_DE_AMORIM_LEANDRO_SILVA", "ENDERECO": "RUA_UBATUBA_(IPIRANGA)_140_CIDADE_NOVA_PINDAMONHANGABA_BRASIL", "CIDADE": "PINDAMONHANGABA", "LATITUDE": -22.9254144, "LONGITUDE": -45.4597749, "LINK": "#N/D" }, "geometry": { "type": "Point", "coordinates": [ -45.4597749, -22.9254144 ] } },
{ "type": "Feature", "properties": { "CNPJ": 11070527000109, "AGENTE": "GISLAINE_BOTELHO", "ACAO": "REALIZAR_PRIMEIRA_VISITA_POTENCIAL", "RAZAO_SOCIAL": "FABRICIA_GRESPAN_BREDA", "ENDERECO": "RUA_ALEXANDRE_MACHITTI_33_VALE_REDENTOR_2_SAO_JOSE_DO_RIO_PARDO_BRASIL", "CIDADE": "SAO_JOSE_DO_RIO_PARDO", "LATITUDE": -22.9218045, "LONGITUDE": -45.4581687, "LINK": "#N/D" }, "geometry": { "type": "Point", "coordinates": [ -45.4581687, -22.9218045 ] } },
{ "type": "Feature", "properties": { "CNPJ": 11082186000191, "AGENTE": "GISLAINE_BOTELHO", "ACAO": "REALIZAR_PRIMEIRA_VISITA_POTENCIAL", "RAZAO_SOCIAL": "HENRIMARPLAST_COMERCIO_E_PRESTACAO_DE_SERVICOS_DE_EMBALAGENS_LTDA", "ENDERECO": "RUA_TONELERO_1451_VILA_IPOJUCA_SAO_PAULO_BRASIL", "CIDADE": "SAO_PAULO", "LATITUDE": -22.9277573, "LONGITUDE": -45.4559204, "LINK": "#N/D" }, "geometry": { "type": "Point", "coordinates": [ -45.4559204, -22.9277573 ] } },
{ "type": "Feature", "properties": { "CNPJ": 28122096000180, "AGENTE": "GISLAINE_BOTELHO", "ACAO": "REALIZAR_PRIMEIRA_VISITA_POTENCIAL", "RAZAO_SOCIAL": "ELISIE_APARECIDA_QUEIROZ", "ENDERECO": "RUA_GINO_AMADEI_203_RESIDENCIAL_E_COMERCIAL_CIDADE_MORUMBI_PINDAMONHANGABA_BRASIL", "CIDADE": "PINDAMONHANGABA", "LATITUDE": -22.9130422, "LONGITUDE": -45.4269534, "LINK": "#N/D" }, "geometry": { "type": "Point", "coordinates": [ -45.4269534, -22.9130422 ] } },
{ "type": "Feature", "properties": { "CNPJ": 45963217000135, "AGENTE": "GISLAINE_BOTELHO", "ACAO": "REALIZAR_PRIMEIRA_VISITA_POTENCIAL", "RAZAO_SOCIAL": "G.L_DA_SILVA_INSTALACOES_E_MANUTENCOES_ELETRICAS_LTDA", "ENDERECO": "RUA_LECTICIA_BONONCINI_SANTOS_1750_RESIDENCIAL_E_COMERCIAL_CIDADE_MORUMBI_PINDAMONHANGABA_BRASIL", "CIDADE": "PINDAMONHANGABA", "LATITUDE": -22.9142917, "LONGITUDE": -45.425901, "LINK": "#N/D" }, "geometry": { "type": "Point", "coordinates": [ -45.425901, -22.9142917 ] } },
{ "type": "Feature", "properties": { "CNPJ": 39266173000191, "AGENTE": "GISLAINE_BOTELHO", "ACAO": "REALIZAR_PRIMEIRA_VISITA_POTENCIAL", "RAZAO_SOCIAL": "ISAMARA_CRISTINA_VITOR_PEREIRA_DO_AMARAL", "ENDERECO": "RUA_MARIA_BENEDITA_CABRAL_SAN_MARTIN_(CRISPIM)_93_LOTEAMENTO_RESIDENCIAL_ANDRADE_PINDAMONHANGABA_BRASIL", "CIDADE": "PINDAMONHANGABA", "LATITUDE": -22.9152038, "LONGITUDE": -45.4411101, "LINK": "#N/D" }, "geometry": { "type": "Point", "coordinates": [ -45.4411101, -22.9152038 ] } },
{ "type": "Feature", "properties": { "CNPJ": 38385875000121, "AGENTE": "GISLAINE_BOTELHO", "ACAO": "REALIZAR_PRIMEIRA_VISITA_POTENCIAL", "RAZAO_SOCIAL": "PAULO_AUGUSTO_LEAL_BASSANELLI_PEREIRA", "ENDERECO": "AVENIDA_JOAO_AYRTON_BALARIN_26_RESIDENCIAL_PARQUE_DAS_PALMEIRAS_PINDAMONHANGABA_BRASIL", "CIDADE": "PINDAMONHANGABA", "LATITUDE": -22.917331, "LONGITUDE": -45.4286455, "LINK": "#N/D" }, "geometry": { "type": "Point", "coordinates": [ -45.4286455, -22.917331 ] } },
{ "type": "Feature", "properties": { "CNPJ": 54601205000151, "AGENTE": "GISLAINE_BOTELHO", "ACAO": "REALIZAR_PRIMEIRA_VISITA_POTENCIAL", "RAZAO_SOCIAL": "IVA_GOMES_DE_SIQUEIRA", "ENDERECO": "RUA_ISAURA_VIEIRA_DA_FONSECA_397_RESIDENCIAL_PARQUE_DAS_PALMEIRAS_PINDAMONHANGABA_BRASIL", "CIDADE": "PINDAMONHANGABA", "LATITUDE": -22.9201169, "LONGITUDE": -45.4297068, "LINK": "#N/D" }, "geometry": { "type": "Point", "coordinates": [ -45.4297068, -22.9201169 ] } },
{ "type": "Feature", "properties": { "CNPJ": 34682276000119, "AGENTE": "GISLAINE_BOTELHO", "ACAO": "REALIZAR_PRIMEIRA_VISITA_POTENCIAL", "RAZAO_SOCIAL": "DOALCEY_ALBERTO_LACERDA_SILVA", "ENDERECO": "RUA_ARIANO_RODRIGUES_DA_SILVA_51_LOTEAMENTO_RESIDENCIAL_E_COMERCIAL_VILA_SAO_PAULO_PINDAMONHANGABA_BRASIL", "CIDADE": "PINDAMONHANGABA", "LATITUDE": -22.9240722, "LONGITUDE": -45.4308121, "LINK": "#N/D" }, "geometry": { "type": "Point", "coordinates": [ -45.4308121, -22.9240722 ] } },
{ "type": "Feature", "properties": { "CNPJ": 40518121000144, "AGENTE": "GISLAINE_BOTELHO", "ACAO": "REALIZAR_PRIMEIRA_VISITA_POTENCIAL", "RAZAO_SOCIAL": "MARIA_DA_PAZ_MORAIS_DOS_SANTOS", "ENDERECO": "RUA_PROFESSOR_VICENTE_DE_PAULA_SALGADO_863_JARDIM_REGINA_(MOREIRA_CESAR)_PINDAMONHANGABA_BRASIL", "CIDADE": "PINDAMONHANGABA", "LATITUDE": -22.9410452, "LONGITUDE": -45.3709738, "LINK": "#N/D" }, "geometry": { "type": "Point", "coordinates": [ -45.3709738, -22.9410452 ] } },
{ "type": "Feature", "properties": { "CNPJ": 57276893000110, "AGENTE": "GISLAINE_BOTELHO", "ACAO": "REALIZAR_PRIMEIRA_VISITA_POTENCIAL", "RAZAO_SOCIAL": "BRUNA_CRISTINA_DA_CONCEICAO_RAMOS_SILVA", "ENDERECO": "RUA_PROFESSOR_VICENTE_DE_PAULA_SALGADO_952_JARDIM_REGINA_(MOREIRA_CESAR)_PINDAMONHANGABA_BRASIL", "CIDADE": "PINDAMONHANGABA", "LATITUDE": -22.9413084, "LONGITUDE": -45.3707077, "LINK": "#N/D" }, "geometry": { "type": "Point", "coordinates": [ -45.3707077, -22.9413084 ] } },
{ "type": "Feature", "properties": { "CNPJ": 52890671000179, "AGENTE": "GISLAINE_BOTELHO", "ACAO": "REALIZAR_PRIMEIRA_VISITA_POTENCIAL", "RAZAO_SOCIAL": "RAFAELA_MARTINS_DA_SILVA", "ENDERECO": "RUA_QUIRIRIM_48_CIDADE_NOVA_PINDAMONHANGABA_BRASIL", "CIDADE": "PINDAMONHANGABA", "LATITUDE": -22.9417324, "LONGITUDE": -45.4115498, "LINK": "#N/D" }, "geometry": { "type": "Point", "coordinates": [ -45.4115498, -22.9417324 ] } },
{ "type": "Feature", "properties": { "CNPJ": 55016256000189, "AGENTE": "GISLAINE_BOTELHO", "ACAO": "REALIZAR_PRIMEIRA_VISITA_POTENCIAL", "RAZAO_SOCIAL": "HELIANA_SABBADO_MAMEDE_BOSCO", "ENDERECO": "RUA_ROMA_233_JARDIM_ELOYNA_PINDAMONHANGABA_BRASIL", "CIDADE": "PINDAMONHANGABA", "LATITUDE": -22.9475353, "LONGITUDE": -45.4105941, "LINK": "#N/D" }, "geometry": { "type": "Point", "coordinates": [ -45.4105941, -22.9475353 ] } },
{ "type": "Feature", "properties": { "CNPJ": 44841008000156, "AGENTE": "GISLAINE_BOTELHO", "ACAO": "REALIZAR_PRIMEIRA_VISITA_POTENCIAL", "RAZAO_SOCIAL": "LUIZ_RODRIGO_RAMOS_FERREIRA", "ENDERECO": "AVENIDA_DOUTOR_LUIZ_GUSTAVO_RAPOSO_RAMOS_MELLO_202_RESIDENCIAL_E_COMERCIAL_VIVER_MELHOR_PINDAMONHANGABA_PINDAMONHANGABA_BRASIL", "CIDADE": "PINDAMONHANGABA", "LATITUDE": -22.9404979, "LONGITUDE": -45.512977, "LINK": "#N/D" }, "geometry": { "type": "Point", "coordinates": [ -45.512977, -22.9404979 ] } },
{ "type": "Feature", "properties": { "CNPJ": 31550583000158, "AGENTE": "GISLAINE_BOTELHO", "ACAO": "REALIZAR_PRIMEIRA_VISITA_POTENCIAL", "RAZAO_SOCIAL": "JULIANA_CRISTINA_DOS_SANTOS", "ENDERECO": "AVENIDA_DOUTOR_LUIZ_GUSTAVO_RAPOSO_RAMOS_MELLO_440_RESIDENCIAL_E_COMERCIAL_VIVER_MELHOR_PINDAMONHANGABA_PINDAMONHANGABA_BRASIL", "CIDADE": "PINDAMONHANGABA", "LATITUDE": -22.9404979, "LONGITUDE": -45.512977, "LINK": "#N/D" }, "geometry": { "type": "Point", "coordinates": [ -45.512977, -22.9404979 ] } },
{ "type": "Feature", "properties": { "CNPJ": 15193509000175, "AGENTE": "GISLAINE_BOTELHO", "ACAO": "REALIZAR_PRIMEIRA_VISITA_POTENCIAL", "RAZAO_SOCIAL": "ELAINE_CRISTINA_ALVES_PIRES", "ENDERECO": "RUA_JOSE_DE_ASSIS_GOULART_16_CONJUNTO_RESIDENCIAL_ARARETAMA_PINDAMONHANGABA_BRASIL", "CIDADE": "PINDAMONHANGABA", "LATITUDE": -22.944979, "LONGITUDE": -45.5015701, "LINK": "#N/D" }, "geometry": { "type": "Point", "coordinates": [ -45.5015701, -22.944979 ] } },
{ "type": "Feature", "properties": { "CNPJ": 40890944000104, "AGENTE": "GISLAINE_BOTELHO", "ACAO": "REALIZAR_PRIMEIRA_VISITA_POTENCIAL", "RAZAO_SOCIAL": "CRISTIANE_APARECIDA_CAZARI_BRITO", "ENDERECO": "RUA_ARGENTINO_FERREIRA_CARVALHO_128_CONJUNTO_RESIDENCIAL_ARARETAMA_PINDAMONHANGABA_BRASIL", "CIDADE": "PINDAMONHANGABA", "LATITUDE": -22.9458834, "LONGITUDE": -45.5074078, "LINK": "#N/D" }, "geometry": { "type": "Point", "coordinates": [ -45.5074078, -22.9458834 ] } },
{ "type": "Feature", "properties": { "CNPJ": 19752568000197, "AGENTE": "GISLAINE_BOTELHO", "ACAO": "REALIZAR_PRIMEIRA_VISITA_POTENCIAL", "RAZAO_SOCIAL": "EDIVALDO_SANTANA_BRITO", "ENDERECO": "RUA_ARGENTINO_FERREIRA_CARVALHO_128_CONJUNTO_RESIDENCIAL_ARARETAMA_PINDAMONHANGABA_BRASIL", "CIDADE": "PINDAMONHANGABA", "LATITUDE": -22.9458834, "LONGITUDE": -45.5074078, "LINK": "#N/D" }, "geometry": { "type": "Point", "coordinates": [ -45.5074078, -22.9458834 ] } },
{ "type": "Feature", "properties": { "CNPJ": 45367971000102, "AGENTE": "GISLAINE_BOTELHO", "ACAO": "REALIZAR_PRIMEIRA_VISITA_POTENCIAL", "RAZAO_SOCIAL": "LAIS_VITORIA_VOIOLA_SILVA", "ENDERECO": "RUA_MARIA_JOSE_DE_MORAIS_50_CONJUNTO_RESIDENCIAL_ARARETAMA_PINDAMONHANGABA_BRASIL", "CIDADE": "PINDAMONHANGABA", "LATITUDE": -22.946697, "LONGITUDE": -45.5034067, "LINK": "#N/D" }, "geometry": { "type": "Point", "coordinates": [ -45.5034067, -22.946697 ] } },
{ "type": "Feature", "properties": { "CNPJ": 47741858000170, "AGENTE": "GISLAINE_BOTELHO", "ACAO": "REALIZAR_PRIMEIRA_VISITA_POTENCIAL", "RAZAO_SOCIAL": "CAROLINA_APARECIDA_RAMALHO_SANTOS_32565829825", "ENDERECO": "RUA_MARINO_TEIXEIRA_27_CONJUNTO_RESIDENCIAL_ARARETAMA_PINDAMONHANGABA_BRASIL", "CIDADE": "PINDAMONHANGABA", "LATITUDE": -22.9467334, "LONGITUDE": -45.5068822, "LINK": "#N/D" }, "geometry": { "type": "Point", "coordinates": [ -45.5068822, -22.9467334 ] } },
{ "type": "Feature", "properties": { "CNPJ": 21304268000197, "AGENTE": "GISLAINE_BOTELHO", "ACAO": "REALIZAR_PRIMEIRA_VISITA_POTENCIAL", "RAZAO_SOCIAL": "ESAU_DE_OLIVEIRA_DIAS", "ENDERECO": "RUA_JOSE_PERCY_HOMEM_DE_MELLO_69_CONJUNTO_RESIDENCIAL_ARARETAMA_PINDAMONHANGABA_BRASIL", "CIDADE": "PINDAMONHANGABA", "LATITUDE": -22.9473846, "LONGITUDE": -45.5025585, "LINK": "#N/D" }, "geometry": { "type": "Point", "coordinates": [ -45.5025585, -22.9473846 ] } },
{ "type": "Feature", "properties": { "CNPJ": 28696969000168, "AGENTE": "GISLAINE_BOTELHO", "ACAO": "REALIZAR_PRIMEIRA_VISITA_POTENCIAL", "RAZAO_SOCIAL": "CARLOS_ALBERTO_DOS_SANTOS", "ENDERECO": "RUA_JESUS_ANTONIO_DE_MIRANDA_1815_JARDIM_BOA_VISTA_PINDAMONHANGABA_BRASIL", "CIDADE": "PINDAMONHANGABA", "LATITUDE": -22.9167479, "LONGITUDE": -45.4705401, "LINK": "#N/D" }, "geometry": { "type": "Point", "coordinates": [ -45.4705401, -22.9167479 ] } },
{ "type": "Feature", "properties": { "CNPJ": 30471662000100, "AGENTE": "GISLAINE_BOTELHO", "ACAO": "REALIZAR_PRIMEIRA_VISITA_POTENCIAL", "RAZAO_SOCIAL": "MAURO_CAIPIRA_DA_SILVA", "ENDERECO": "ESTRADA_CARLOS_GIACOMO_ANGELO_MASSETTI_413_CRUZ_PEQUENA_PINDAMONHANGABA_BRASIL", "CIDADE": "PINDAMONHANGABA", "LATITUDE": -22.9186916, "LONGITUDE": -45.4704246, "LINK": "#N/D" }, "geometry": { "type": "Point", "coordinates": [ -45.4704246, -22.9186916 ] } },
{ "type": "Feature", "properties": { "CNPJ": 21621745000148, "AGENTE": "GISLAINE_BOTELHO", "ACAO": "REALIZAR_PRIMEIRA_VISITA_POTENCIAL", "RAZAO_SOCIAL": "MATHEUS_WILLIAM_GAMA_SILVA", "ENDERECO": "RUA_DOUTOR_GUSTAVO_DE_GODOY_338_VILA_NAIR_PINDAMONHANGABA_BRASIL", "CIDADE": "PINDAMONHANGABA", "LATITUDE": -22.9229685, "LONGITUDE": -45.4667234, "LINK": "#N/D" }, "geometry": { "type": "Point", "coordinates": [ -45.4667234, -22.9229685 ] } },
{ "type": "Feature", "properties": { "CNPJ": 45725625000159, "AGENTE": "GISLAINE_BOTELHO", "ACAO": "REALIZAR_PRIMEIRA_VISITA_POTENCIAL", "RAZAO_SOCIAL": "MARIA_GABRIELA_AMORIM_DA_SILVA", "ENDERECO": "RUA_DOS_ANDRADAS_85_CENTRO_PINDAMONHANGABA_BRASIL", "CIDADE": "PINDAMONHANGABA", "LATITUDE": -22.9253033, "LONGITUDE": -45.4606496, "LINK": "#N/D" }, "geometry": { "type": "Point", "coordinates": [ -45.4606496, -22.9253033 ] } },
{ "type": "Feature", "properties": { "CNPJ": 8274161000185, "AGENTE": "GISLAINE_BOTELHO", "ACAO": "REALIZAR_PRIMEIRA_VISITA_POTENCIAL", "RAZAO_SOCIAL": "ROGERIO_DA_SILVA_TEBERGA_PAPELARIA", "ENDERECO": "RUA_DOS_EXPEDICIONARIOS_141_CENTRO_PINDAMONHANGABA_BRASIL", "CIDADE": "PINDAMONHANGABA", "LATITUDE": -22.9263083, "LONGITUDE": -45.4606267, "LINK": "#N/D" }, "geometry": { "type": "Point", "coordinates": [ -45.4606267, -22.9263083 ] } },
{ "type": "Feature", "properties": { "CNPJ": 53601391000166, "AGENTE": "GISLAINE_BOTELHO", "ACAO": "REALIZAR_PRIMEIRA_VISITA_POTENCIAL", "RAZAO_SOCIAL": "DEBORAH_MOREIRA_DA_CONCEICAO", "ENDERECO": "RUA_DOUTOR_RENATO_GRANADEIRO_GUIMARAES_63_CENTRO_TAUBATE_BRASIL", "CIDADE": "TAUBATE", "LATITUDE": -22.926945, "LONGITUDE": -45.461555, "LINK": "#N/D" }, "geometry": { "type": "Point", "coordinates": [ -45.461555, -22.926945 ] } },
{ "type": "Feature", "properties": { "CNPJ": 37461998000131, "AGENTE": "GISLAINE_BOTELHO", "ACAO": "REALIZAR_PRIMEIRA_VISITA_POTENCIAL", "RAZAO_SOCIAL": "A_E_C_MECANICA_E_AUTOPECAS_DO_VALE_LTDA", "ENDERECO": "RUA_FERNANDO_RODRIGUES_GARCIA_422_RESIDENCIAL_E_COMERCIAL_CIDADE_JARDIM_PINDAMONHANGABA_BRASIL", "CIDADE": "PINDAMONHANGABA", "LATITUDE": -22.9565509, "LONGITUDE": -45.4911643, "LINK": "#N/D" }, "geometry": { "type": "Point", "coordinates": [ -45.4911643, -22.9565509 ] } },
{ "type": "Feature", "properties": { "CNPJ": 24026763000170, "AGENTE": "GISLAINE_BOTELHO", "ACAO": "REALIZAR_PRIMEIRA_VISITA_POTENCIAL", "RAZAO_SOCIAL": "MARIA_DE_FATIMA_ABRANCHES", "ENDERECO": "AVENIDA_TENENTE-CORONEL_MANOEL_PEREIRA_DOS_SANTOS_278_RESIDENCIAL_E_COMERCIAL_CIDADE_JARDIM_PINDAMONHANGABA_BRASIL", "CIDADE": "PINDAMONHANGABA", "LATITUDE": -22.9582976, "LONGITUDE": -45.4905331, "LINK": "#N/D" }, "geometry": { "type": "Point", "coordinates": [ -45.4905331, -22.9582976 ] } },
{ "type": "Feature", "properties": { "CNPJ": 51641054000177, "AGENTE": "GISLAINE_BOTELHO", "ACAO": "REALIZAR_PRIMEIRA_VISITA_POTENCIAL", "RAZAO_SOCIAL": "VITOR_TADEU_MACHADO", "ENDERECO": "RUA_PEDRO_COSTA_TERCLAVERS_47_JARDIM_PRINCESA_PINDAMONHANGABA_BRASIL", "CIDADE": "PINDAMONHANGABA", "LATITUDE": -22.9588345, "LONGITUDE": -45.4854292, "LINK": "#N/D" }, "geometry": { "type": "Point", "coordinates": [ -45.4854292, -22.9588345 ] } },
{ "type": "Feature", "properties": { "CNPJ": 7513251000119, "AGENTE": "GISLAINE_BOTELHO", "ACAO": "REALIZAR_PRIMEIRA_VISITA_POTENCIAL", "RAZAO_SOCIAL": "L_R_DE_SOUZA_BEBIDA", "ENDERECO": "AVENIDA_KASSATO_MARU_320_CIDADE_JARDIM_PINDAMONHANGABA_BRASIL", "CIDADE": "PINDAMONHANGABA", "LATITUDE": -22.959682, "LONGITUDE": -45.4873405, "LINK": "#N/D" }, "geometry": { "type": "Point", "coordinates": [ -45.4873405, -22.959682 ] } },
{ "type": "Feature", "properties": { "CNPJ": 30641055000141, "AGENTE": "GISLAINE_BOTELHO", "ACAO": "REALIZAR_PRIMEIRA_VISITA_POTENCIAL", "RAZAO_SOCIAL": "SHEILA_DE_JESUS_CASIMIRO_MONTEIRO_DE_BARROS", "ENDERECO": "RUA_MARIA_ADELINA_PAES_ROMAO_66_RESIDENCIAL_E_COMERCIAL_VILA_VERDE_PINDAMONHANGABA_BRASIL", "CIDADE": "PINDAMONHANGABA", "LATITUDE": -22.9577166, "LONGITUDE": -45.4586352, "LINK": "#N/D" }, "geometry": { "type": "Point", "coordinates": [ -45.4586352, -22.9577166 ] } },
{ "type": "Feature", "properties": { "CNPJ": 32025656000155, "AGENTE": "GISLAINE_BOTELHO", "ACAO": "REALIZAR_PRIMEIRA_VISITA_POTENCIAL", "RAZAO_SOCIAL": "MARCIA_HELENA_DA_CONCEICAO_BENTO", "ENDERECO": "RUA_OLAVO_JORGE_117_MOMBACA_PINDAMONHANGABA_BRASIL", "CIDADE": "PINDAMONHANGABA", "LATITUDE": -22.9528884, "LONGITUDE": -45.5034362, "LINK": "#N/D" }, "geometry": { "type": "Point", "coordinates": [ -45.5034362, -22.9528884 ] } },
{ "type": "Feature", "properties": { "CNPJ": 48221726000180, "AGENTE": "GISLAINE_BOTELHO", "ACAO": "REALIZAR_PRIMEIRA_VISITA_POTENCIAL", "RAZAO_SOCIAL": "JOICE_PALOMA_CABRAL_FERRAZ", "ENDERECO": "RUA_BENJAMIN_BITTENCOURT_291_CONJUNTO_RESIDENCIAL_ARARETAMA_PINDAMONHANGABA_BRASIL", "CIDADE": "PINDAMONHANGABA", "LATITUDE": -22.9557034, "LONGITUDE": -45.5018216, "LINK": "#N/D" }, "geometry": { "type": "Point", "coordinates": [ -45.5018216, -22.9557034 ] } },
{ "type": "Feature", "properties": { "CNPJ": 50315352000104, "AGENTE": "GISLAINE_BOTELHO", "ACAO": "REALIZAR_PRIMEIRA_VISITA_POTENCIAL", "RAZAO_SOCIAL": "PAMELA_MACHADO_RIVAU", "ENDERECO": "RUA_FRANCISCO_GONCALVES_31_CONJUNTO_RESIDENCIAL_ARARETAMA_PINDAMONHANGABA_BRASIL", "CIDADE": "PINDAMONHANGABA", "LATITUDE": -22.9567193, "LONGITUDE": -45.5040465, "LINK": "#N/D" }, "geometry": { "type": "Point", "coordinates": [ -45.5040465, -22.9567193 ] } },
{ "type": "Feature", "properties": { "CNPJ": 29296452000144, "AGENTE": "GISLAINE_BOTELHO", "ACAO": "REALIZAR_PRIMEIRA_VISITA_POTENCIAL", "RAZAO_SOCIAL": "RICHARD_ALEXIS_OLIVEROS_CASTRO", "ENDERECO": "RODOVIA_VEREADOR_ABEL_FABRICIO_DIAS_7465_CURUCA_PINDAMONHANGABA_BRASIL", "CIDADE": "PINDAMONHANGABA", "LATITUDE": -22.9084243, "LONGITUDE": -45.4185229, "LINK": "#N/D" }, "geometry": { "type": "Point", "coordinates": [ -45.4185229, -22.9084243 ] } },
{ "type": "Feature", "properties": { "CNPJ": 5874486000100, "AGENTE": "GISLAINE_BOTELHO", "ACAO": "REALIZAR_PRIMEIRA_VISITA_POTENCIAL", "RAZAO_SOCIAL": "VER_ODONTOLOGIA_LTDA", "ENDERECO": "AVENIDA_ALBUQUERQUE_LINS_91_SAO_BENEDITO_PINDAMONHANGABA_BRASIL", "CIDADE": "PINDAMONHANGABA", "LATITUDE": -22.9298044, "LONGITUDE": -45.4602915, "LINK": "#N/D" }, "geometry": { "type": "Point", "coordinates": [ -45.4602915, -22.9298044 ] } },
{ "type": "Feature", "properties": { "CNPJ": 35800409000177, "AGENTE": "GISLAINE_BOTELHO", "ACAO": "REALIZAR_PRIMEIRA_VISITA_POTENCIAL", "RAZAO_SOCIAL": "ZILMAR_CARDOSO_DA_SILVA_SOUSA", "ENDERECO": "RUA_FRANCISCO_JOAQUIM_DE_OLIVEIRA_FILHO_205_RESIDENCIAL_MOMBACA_I_PINDAMONHANGABA_BRASIL", "CIDADE": "PINDAMONHANGABA", "LATITUDE": -22.9300188, "LONGITUDE": -45.4778095, "LINK": "#N/D" }, "geometry": { "type": "Point", "coordinates": [ -45.4778095, -22.9300188 ] } },
{ "type": "Feature", "properties": { "CNPJ": 24081191000121, "AGENTE": "GISLAINE_BOTELHO", "ACAO": "REALIZAR_PRIMEIRA_VISITA_POTENCIAL", "RAZAO_SOCIAL": "OLIVEIRA_&_FOLTER_PRODUCOES_MUSICAIS_LTDA", "ENDERECO": "AVENIDA_WILSON_SOARES_DE_FREITAS_190_RESIDENCIAL_CAMPO_BELO_PINDAMONHANGABA_BRASIL", "CIDADE": "PINDAMONHANGABA", "LATITUDE": -22.930361, "LONGITUDE": -45.4694961, "LINK": "#N/D" }, "geometry": { "type": "Point", "coordinates": [ -45.4694961, -22.930361 ] } },
{ "type": "Feature", "properties": { "CNPJ": 69112894000108, "AGENTE": "GISLAINE_BOTELHO", "ACAO": "REALIZAR_PRIMEIRA_VISITA_POTENCIAL", "RAZAO_SOCIAL": "CEDLAB-CENTRO_DE_DIAGNOSTICO_LABORATORIAL_LTDA", "ENDERECO": "RUA_MAJOR_JOSE_DOS_SANTOS_MOREIRA_230_SAO_BENEDITO_PINDAMONHANGABA_BRASIL", "CIDADE": "PINDAMONHANGABA", "LATITUDE": -22.9309642, "LONGITUDE": -45.4617769, "LINK": "#N/D" }, "geometry": { "type": "Point", "coordinates": [ -45.4617769, -22.9309642 ] } },
{ "type": "Feature", "properties": { "CNPJ": 18398611000103, "AGENTE": "GISLAINE_BOTELHO", "ACAO": "REALIZAR_PRIMEIRA_VISITA_POTENCIAL", "RAZAO_SOCIAL": "ALESSANDRA_FERREIRA_DO_NASCIMENTO", "ENDERECO": "RUA_RAPHAEL_FERRARI_16_COMERCIAL_E_RESIDENCIAL_JARDIM_MARIANA_PINDAMONHANGABA_BRASIL", "CIDADE": "PINDAMONHANGABA", "LATITUDE": -22.933797, "LONGITUDE": -45.475803, "LINK": "#N/D" }, "geometry": { "type": "Point", "coordinates": [ -45.475803, -22.933797 ] } },
{ "type": "Feature", "properties": { "CNPJ": 10482747000187, "AGENTE": "GISLAINE_BOTELHO", "ACAO": "REALIZAR_PRIMEIRA_VISITA_POTENCIAL", "RAZAO_SOCIAL": "VAGNER_BICUDO_PEREIRA", "ENDERECO": "RUA_PROFESSOR_PAULO_CESAR_PESTANA_11_SAO_BENEDITO_PINDAMONHANGABA_BRASIL", "CIDADE": "PINDAMONHANGABA", "LATITUDE": -22.9345273, "LONGITUDE": -45.4662249, "LINK": "#N/D" }, "geometry": { "type": "Point", "coordinates": [ -45.4662249, -22.9345273 ] } },
{ "type": "Feature", "properties": { "CNPJ": 23408277000153, "AGENTE": "GISLAINE_BOTELHO", "ACAO": "REALIZAR_PRIMEIRA_VISITA_POTENCIAL", "RAZAO_SOCIAL": "OLIVER_PIN_COMERCIO_DE_MOVEIS_E_ARTEFATOS_DE_MADEIRA_LTDA", "ENDERECO": "RUA_DOUTOR_FONTES_JUNIOR_58_MARIA_AUREA_PINDAMONHANGABA_BRASIL", "CIDADE": "PINDAMONHANGABA", "LATITUDE": -22.9351443, "LONGITUDE": -45.4649214, "LINK": "#N/D" }, "geometry": { "type": "Point", "coordinates": [ -45.4649214, -22.9351443 ] } },
{ "type": "Feature", "properties": { "CNPJ": 10841764000163, "AGENTE": "GISLAINE_BOTELHO", "ACAO": "REALIZAR_PRIMEIRA_VISITA_POTENCIAL", "RAZAO_SOCIAL": "FONTES_&_LIVRAMENTO_LTDA", "ENDERECO": "RUA_DONA_CARMELITA_GAMA_ROMEIRO_140_PARQUE_SAO_BENEDITO_PINDAMONHANGABA_BRASIL", "CIDADE": "PINDAMONHANGABA", "LATITUDE": -22.9365038, "LONGITUDE": -45.4746129, "LINK": "#N/D" }, "geometry": { "type": "Point", "coordinates": [ -45.4746129, -22.9365038 ] } },
{ "type": "Feature", "properties": { "CNPJ": 49647151000125, "AGENTE": "GISLAINE_BOTELHO", "ACAO": "REALIZAR_PRIMEIRA_VISITA_POTENCIAL", "RAZAO_SOCIAL": "REDE_MARACAI_LTDA", "ENDERECO": "RUA_DOUTOR_MANOEL_IGNACIO_MARCONDES_ROMEIRO_590_VILA_RICA_PINDAMONHANGABA_BRASIL", "CIDADE": "PINDAMONHANGABA", "LATITUDE": -22.9365403, "LONGITUDE": -45.4770205, "LINK": "#N/D" }, "geometry": { "type": "Point", "coordinates": [ -45.4770205, -22.9365403 ] } },
{ "type": "Feature", "properties": { "CNPJ": 29201677000170, "AGENTE": "GISLAINE_BOTELHO", "ACAO": "REALIZAR_PRIMEIRA_VISITA_POTENCIAL", "RAZAO_SOCIAL": "LUIZ_CLAUDIO_BALDO_PACHECO", "ENDERECO": "RUA_GODOFREDO_PESTANA_180_JARDIM_ROSELY_PINDAMONHANGABA_BRASIL", "CIDADE": "PINDAMONHANGABA", "LATITUDE": -22.9366809, "LONGITUDE": -45.460162, "LINK": "#N/D" }, "geometry": { "type": "Point", "coordinates": [ -45.460162, -22.9366809 ] } },
{ "type": "Feature", "properties": { "CNPJ": 20453276000132, "AGENTE": "GISLAINE_BOTELHO", "ACAO": "REALIZAR_PRIMEIRA_VISITA_POTENCIAL", "RAZAO_SOCIAL": "MAYRA_DA_SILVA_SOUZA", "ENDERECO": "RUA_MANOEL_FLORES_156_JARDIM_CRISTINA_PINDAMONHANGABA_BRASIL", "CIDADE": "PINDAMONHANGABA", "LATITUDE": -22.9386476, "LONGITUDE": -45.4611554, "LINK": "#N/D" }, "geometry": { "type": "Point", "coordinates": [ -45.4611554, -22.9386476 ] } },
{ "type": "Feature", "properties": { "CNPJ": 22557769000148, "AGENTE": "GISLAINE_BOTELHO", "ACAO": "REALIZAR_PRIMEIRA_VISITA_POTENCIAL", "RAZAO_SOCIAL": "PETALA_GORETE_RODRIGUES_DE_CASTILHO", "ENDERECO": "RUA_SAO_BENTO_DO_SAPUCAI_(ALTO_DO_CARDOSO)_132_LOTEAMENTO_ALFREDO_ABILIO_FLORES_PINDAMONHANGABA_BRASIL", "CIDADE": "PINDAMONHANGABA", "LATITUDE": -22.9415157, "LONGITUDE": -45.463863, "LINK": "#N/D" }, "geometry": { "type": "Point", "coordinates": [ -45.463863, -22.9415157 ] } },
{ "type": "Feature", "properties": { "CNPJ": 21717536000100, "AGENTE": "GISLAINE_BOTELHO", "ACAO": "REALIZAR_PRIMEIRA_VISITA_POTENCIAL", "RAZAO_SOCIAL": "RAQUEL_RIBEIRO_BONDIOLI_DE_PAULA", "ENDERECO": "RUA_DOUTOR_JOAO_CARLOS_TEIXEIRA_SALGADO_305_MARIA_AUREA_PINDAMONHANGABA_BRASIL", "CIDADE": "PINDAMONHANGABA", "LATITUDE": -22.941519, "LONGITUDE": -45.4673305, "LINK": "#N/D" }, "geometry": { "type": "Point", "coordinates": [ -45.4673305, -22.941519 ] } },
{ "type": "Feature", "properties": { "CNPJ": 22496547000162, "AGENTE": "GISLAINE_BOTELHO", "ACAO": "REALIZAR_PRIMEIRA_VISITA_POTENCIAL", "RAZAO_SOCIAL": "CR_MANUTENCAO_E_REFRIGERACAO_LTDA", "ENDERECO": "RUA_CAPITAO_ANTONIO_BICUDO_LEME_100_CONDOMINIO_RESIDENCIAL_REAL_VILLE_PINDAMONHANGABA_BRASIL", "CIDADE": "PINDAMONHANGABA", "LATITUDE": -22.946499, "LONGITUDE": -45.4768804, "LINK": "#N/D" }, "geometry": { "type": "Point", "coordinates": [ -45.4768804, -22.946499 ] } },
{ "type": "Feature", "properties": { "CNPJ": 10313573000129, "AGENTE": "GISLAINE_BOTELHO", "ACAO": "REALIZAR_PRIMEIRA_VISITA_POTENCIAL", "RAZAO_SOCIAL": "RE9_ATIVIDADES_CORPORAIS_LTDA", "ENDERECO": "RUA_MARIA_ALVES_FERNANDES_98_RESIDENCIAL_E_COMERCIAL_JARDIM_YASSUDA_PINDAMONHANGABA_BRASIL", "CIDADE": "PINDAMONHANGABA", "LATITUDE": -22.9495353, "LONGITUDE": -45.4629559, "LINK": "#N/D" }, "geometry": { "type": "Point", "coordinates": [ -45.4629559, -22.9495353 ] } },
{ "type": "Feature", "properties": { "CNPJ": 45999830000102, "AGENTE": "GISLAINE_BOTELHO", "ACAO": "REALIZAR_PRIMEIRA_VISITA_POTENCIAL", "RAZAO_SOCIAL": "MOZART_PRADO_JUNIOR", "ENDERECO": "RUA_CHILE_197_ALTO_DO_CARDOSO_PINDAMONHANGABA_BRASIL", "CIDADE": "PINDAMONHANGABA", "LATITUDE": -22.9502002, "LONGITUDE": -45.4633722, "LINK": "#N/D" }, "geometry": { "type": "Point", "coordinates": [ -45.4633722, -22.9502002 ] } },
{ "type": "Feature", "properties": { "CNPJ": 31551097000154, "AGENTE": "GISLAINE_BOTELHO", "ACAO": "REALIZAR_PRIMEIRA_VISITA_POTENCIAL", "RAZAO_SOCIAL": "31.551.097_NILTON_DOS_SANTOS_FERREIRA", "ENDERECO": "RUA_AZIZ_MOURAD_BOULOS_130_LOTEAMENTO_RESIDENCIAL_E_COMERCIAL_FLAMBOYANT_PINDAMONHANGABA_BRASIL", "CIDADE": "PINDAMONHANGABA", "LATITUDE": -22.9377349, "LONGITUDE": -45.4854793, "LINK": "#N/D" }, "geometry": { "type": "Point", "coordinates": [ -45.4854793, -22.9377349 ] } },
{ "type": "Feature", "properties": { "CNPJ": 16693513000165, "AGENTE": "GISLAINE_BOTELHO", "ACAO": "REALIZAR_PRIMEIRA_VISITA_POTENCIAL", "RAZAO_SOCIAL": "ANA_PAULA_PACHECO_CRISTO", "ENDERECO": "RUA_ESTADO_DE_SANTA_CATARINA_11_CONJUNTO_HABITACIONAL_TERRA_DOS_IPES_I_(NORTE)_PINDAMONHANGABA_BRASIL", "CIDADE": "PINDAMONHANGABA", "LATITUDE": -22.8907553, "LONGITUDE": -45.3771261, "LINK": "#N/D" }, "geometry": { "type": "Point", "coordinates": [ -45.3771261, -22.8907553 ] } },
{ "type": "Feature", "properties": { "CNPJ": 47435040000120, "AGENTE": "GISLAINE_BOTELHO", "ACAO": "REALIZAR_PRIMEIRA_VISITA_POTENCIAL", "RAZAO_SOCIAL": "JOSE_ROBERTO_LEMOS", "ENDERECO": "RUA_TININGA_167_RESIDENCIAL_MARICA_PINDAMONHANGABA_BRASIL", "CIDADE": "PINDAMONHANGABA", "LATITUDE": -22.9331876, "LONGITUDE": -45.4301686, "LINK": "#N/D" }, "geometry": { "type": "Point", "coordinates": [ -45.4301686, -22.9331876 ] } },
{ "type": "Feature", "properties": { "CNPJ": 36497826000155, "AGENTE": "GISLAINE_BOTELHO", "ACAO": "REALIZAR_PRIMEIRA_VISITA_POTENCIAL", "RAZAO_SOCIAL": "ELIZETH_DE_SIQUEIRA_SILVA_REIS", "ENDERECO": "RUA_CARIOCA_109_RESIDENCIAL_MARICA_PINDAMONHANGABA_BRASIL", "CIDADE": "PINDAMONHANGABA", "LATITUDE": -22.9332081, "LONGITUDE": -45.4307877, "LINK": "#N/D" }, "geometry": { "type": "Point", "coordinates": [ -45.4307877, -22.9332081 ] } },
{ "type": "Feature", "properties": { "CNPJ": 27141973000105, "AGENTE": "GISLAINE_BOTELHO", "ACAO": "REALIZAR_PRIMEIRA_VISITA_POTENCIAL", "RAZAO_SOCIAL": "VALDEVINO_PINTO_DOS_REIS", "ENDERECO": "RUA_CARIOCA_109_RESIDENCIAL_MARICA_PINDAMONHANGABA_BRASIL", "CIDADE": "PINDAMONHANGABA", "LATITUDE": -22.9332407, "LONGITUDE": -45.4308273, "LINK": "#N/D" }, "geometry": { "type": "Point", "coordinates": [ -45.4308273, -22.9332407 ] } },
{ "type": "Feature", "properties": { "CNPJ": 21345282000139, "AGENTE": "GISLAINE_BOTELHO", "ACAO": "REALIZAR_PRIMEIRA_VISITA_POTENCIAL", "RAZAO_SOCIAL": "SILVESTRE_CLAUDIO_DE_CASTRO", "ENDERECO": "RUA_ANTENOR_CRISTINO_DA_SILVA_39_LOTEAMENTO_JOAO_TAMBORINDEGUY_FERNANDES_PINDAMONHANGABA_BRASIL", "CIDADE": "PINDAMONHANGABA", "LATITUDE": -22.9178565, "LONGITUDE": -45.3627542, "LINK": "#N/D" }, "geometry": { "type": "Point", "coordinates": [ -45.3627542, -22.9178565 ] } },
{ "type": "Feature", "properties": { "CNPJ": 38329329000173, "AGENTE": "GISLAINE_BOTELHO", "ACAO": "REALIZAR_PRIMEIRA_VISITA_POTENCIAL", "RAZAO_SOCIAL": "SILVIA_APARECIDA_CORNETTI_CARDOSO_PINHEIRO", "ENDERECO": "RUA_BENEDITO_GALVAO_DE_CASTRO_18_JARDIM_MARIETA_APARECIDA_AZEREDO_PINDAMONHANGABA_BRASIL", "CIDADE": "PINDAMONHANGABA", "LATITUDE": -22.9204717, "LONGITUDE": -45.368694, "LINK": "#N/D" }, "geometry": { "type": "Point", "coordinates": [ -45.368694, -22.9204717 ] } },