{
"type": "FeatureCollection",
"name": "GISLAINE_BOTELHO",
"crs": { "type": "name", "properties": { "name": "urn:ogc:def:crs:OGC:1.3:CRS84" } },
"xy_coordinate_resolution": 1e-15,
"features": [
{ "type": "Feature", "properties": { "CNPJ": 44227383000100, "AGENTE": "GISLAINE_BOTELHO", "ACAO": "REALIZAR_PRIMEIRA_VISITA", "RAZAO_SOCIAL": "RHIAD_MOVEIS_CUNHENSE_LTDA", "ENDERECO": "ALAMEDA_FRANCISCO_DA_CUNHA_MENEZES_1066_FALCAO_CUNHA", "CIDADE": "CUNHA", "LATITUDE": -23.0649485, "LONGITUDE": -44.9603891 }, "geometry": { "type": "Point", "coordinates": [ -44.9603891, -23.0649485 ] } },
{ "type": "Feature", "properties": { "CNPJ": 39484980000180, "AGENTE": "GISLAINE_BOTELHO", "ACAO": "REALIZAR_PRIMEIRA_VISITA", "RAZAO_SOCIAL": "ROBSON_MONTEIRO_FERREIRA_DA_SILVA", "ENDERECO": "AVENIDA_ABEL_CORREA_GUIMARAES_2037_VILA_RICA_PINDAMONHANGABA", "CIDADE": "PINDAMONHANGABA", "LATITUDE": -22.94044, "LONGITUDE": -45.4825233 }, "geometry": { "type": "Point", "coordinates": [ -45.4825233, -22.94044 ] } },
{ "type": "Feature", "properties": { "CNPJ": 40492470000134, "AGENTE": "GISLAINE_BOTELHO", "ACAO": "REALIZAR_PRIMEIRA_VISITA", "RAZAO_SOCIAL": "STENIO_DE_ANDRADE_FUNILARIA_LTDA", "ENDERECO": "AVENIDA_ABEL_CORREA_GUIMARAES_600_VILA_RICA_PINDAMONHANGABA", "CIDADE": "PINDAMONHANGABA", "LATITUDE": -22.9334542, "LONGITUDE": -45.4706189 }, "geometry": { "type": "Point", "coordinates": [ -45.4706189, -22.9334542 ] } },
{ "type": "Feature", "properties": { "CNPJ": 5669647000124, "AGENTE": "GISLAINE_BOTELHO", "ACAO": "REALIZAR_PRIMEIRA_VISITA", "RAZAO_SOCIAL": "N._I._L._DE_ALMEIDA_CONFECCOES", "ENDERECO": "AVENIDA_CORONEL_FERNANDO_PRESTES_265_CENTRO_PINDAMONHANGABA", "CIDADE": "PINDAMONHANGABA", "LATITUDE": -22.92606, "LONGITUDE": -45.4608083 }, "geometry": { "type": "Point", "coordinates": [ -45.4608083, -22.92606 ] } },
{ "type": "Feature", "properties": { "CNPJ": 51501531000107, "AGENTE": "GISLAINE_BOTELHO", "ACAO": "REALIZAR_PRIMEIRA_VISITA", "RAZAO_SOCIAL": "SILVA_E_CABRAL_FLORICULTURA_LTDA", "ENDERECO": "AVENIDA_CORONEL_FERNANDO_PRESTES_96_CENTRO_PINDAMONHANGABA", "CIDADE": "PINDAMONHANGABA", "LATITUDE": -22.9244903, "LONGITUDE": -45.4610694 }, "geometry": { "type": "Point", "coordinates": [ -45.4610694, -22.9244903 ] } },
{ "type": "Feature", "properties": { "CNPJ": 54553994000100, "AGENTE": "GISLAINE_BOTELHO", "ACAO": "REALIZAR_PRIMEIRA_VISITA", "RAZAO_SOCIAL": "VISTA_BELA_HOTEL_LTDA", "ENDERECO": "AVENIDA_DOUTOR_JORGE_TIBIRICA_103_CENTRO_PINDAMONHANGABA", "CIDADE": "PINDAMONHANGABA", "LATITUDE": -22.9260457, "LONGITUDE": -45.4620161 }, "geometry": { "type": "Point", "coordinates": [ -45.4620161, -22.9260457 ] } },
{ "type": "Feature", "properties": { "CNPJ": 50031673000187, "AGENTE": "GISLAINE_BOTELHO", "ACAO": "REALIZAR_PRIMEIRA_VISITA", "RAZAO_SOCIAL": "PADARIA_E_CONFEITARIA_N_S_DO_BOM_SUCESSO_LTDA", "ENDERECO": "AVENIDA_DOUTOR_JORGE_TIBIRICA_115_CENTRO_PINDAMONHANGABA", "CIDADE": "PINDAMONHANGABA", "LATITUDE": -22.9261727, "LONGITUDE": -45.4620506 }, "geometry": { "type": "Point", "coordinates": [ -45.4620506, -22.9261727 ] } },
{ "type": "Feature", "properties": { "CNPJ": 54688911000182, "AGENTE": "GISLAINE_BOTELHO", "ACAO": "REALIZAR_PRIMEIRA_VISITA", "RAZAO_SOCIAL": "MICHELE_LEHPAMER_COQUETTI", "ENDERECO": "AVENIDA_DOUTOR_JORGE_TIBIRICA_531_CHACARA_DA_GALEGA_PINDAMONHANGABA", "CIDADE": "PINDAMONHANGABA", "LATITUDE": -22.9298729, "LONGITUDE": -45.4621624 }, "geometry": { "type": "Point", "coordinates": [ -45.4621624, -22.9298729 ] } },
{ "type": "Feature", "properties": { "CNPJ": 54190226000121, "AGENTE": "GISLAINE_BOTELHO", "ACAO": "REALIZAR_PRIMEIRA_VISITA", "RAZAO_SOCIAL": "LVS_SISTEMA_CONTRA_INCENDIO_LTDA", "ENDERECO": "AVENIDA_DOUTOR_JORGE_TIBIRICA_596_CHACARA_DA_GALEGA_PINDAMONHANGABA", "CIDADE": "PINDAMONHANGABA", "LATITUDE": -22.930505, "LONGITUDE": -45.4621982 }, "geometry": { "type": "Point", "coordinates": [ -45.4621982, -22.930505 ] } },
{ "type": "Feature", "properties": { "CNPJ": 10623885000210, "AGENTE": "GISLAINE_BOTELHO", "ACAO": "REALIZAR_PRIMEIRA_VISITA", "RAZAO_SOCIAL": "CLEAN'S_ODONTOLOGIA_LTDA", "ENDERECO": "AVENIDA_DOUTOR_JORGE_TIBIRICA_713_CHACARA_DA_GALEGA_PINDAMONHANGABA", "CIDADE": "PINDAMONHANGABA", "LATITUDE": -22.9315751, "LONGITUDE": -45.4620252 }, "geometry": { "type": "Point", "coordinates": [ -45.4620252, -22.9315751 ] } },
{ "type": "Feature", "properties": { "CNPJ": 23200969000101, "AGENTE": "GISLAINE_BOTELHO", "ACAO": "REALIZAR_PRIMEIRA_VISITA", "RAZAO_SOCIAL": "ALISON_DA_SILVA_CRUZ", "ENDERECO": "AVENIDA_GOVERNADOR_CARVALHO_PINTO_290_CENTRO_SILVEIRAS", "CIDADE": "SILVEIRAS", "LATITUDE": -22.661622, "LONGITUDE": -44.8506573 }, "geometry": { "type": "Point", "coordinates": [ -44.8506573, -22.661622 ] } },
{ "type": "Feature", "properties": { "CNPJ": 1137466000104, "AGENTE": "GISLAINE_BOTELHO", "ACAO": "REALIZAR_PRIMEIRA_VISITA", "RAZAO_SOCIAL": "ARTHUR_RODRIGUES_DOS_SANTOS_NETO", "ENDERECO": "AVENIDA_GOVERNADOR_CARVALHO_PINTO_30_CENTRO_SILVEIRAS", "CIDADE": "SILVEIRAS", "LATITUDE": -22.6591495, "LONGITUDE": -44.851616 }, "geometry": { "type": "Point", "coordinates": [ -44.851616, -22.6591495 ] } },
{ "type": "Feature", "properties": { "CNPJ": 22168893000111, "AGENTE": "GISLAINE_BOTELHO", "ACAO": "REALIZAR_PRIMEIRA_VISITA", "RAZAO_SOCIAL": "UYARA_SEGUROS_-_ADMINISTRADORA_E_CORRETORA_DE_SEGUROS_LTDA.", "ENDERECO": "AVENIDA_NOSSA_SENHORA_DO_BOM_SUCESSO_898_ALTO_DO_CARDOSO_PINDAMONHANGABA", "CIDADE": "PINDAMONHANGABA", "LATITUDE": -22.9329468, "LONGITUDE": -45.4621175 }, "geometry": { "type": "Point", "coordinates": [ -45.4621175, -22.9329468 ] } },
{ "type": "Feature", "properties": { "CNPJ": 45343366000100, "AGENTE": "GISLAINE_BOTELHO", "ACAO": "REALIZAR_PRIMEIRA_VISITA", "RAZAO_SOCIAL": "CHARLES_APARECIDO_ZANDONA_LTDA", "ENDERECO": "AVENIDA_NOSSA_SENHORA_DO_PERPETUO_SOCORRO_1450_NOSSA_SENHORA_DO_PERPETUO_SOCORRO_GUARATINGUETA", "CIDADE": "GUARATINGUETA", "LATITUDE": -22.9424346, "LONGITUDE": -45.4717998 }, "geometry": { "type": "Point", "coordinates": [ -45.4717998, -22.9424346 ] } },
{ "type": "Feature", "properties": { "CNPJ": 8415643000108, "AGENTE": "GISLAINE_BOTELHO", "ACAO": "REALIZAR_PRIMEIRA_VISITA", "RAZAO_SOCIAL": "BELITA_CAMARGO_CABRAL", "ENDERECO": "AVENIDA_NOSSA_SENHORA_DO_PERPETUO_SOCORRO_1685_NOSSA_SENHORA_DO_PERPETUO_SOCORRO_PINDAMONHANGABA", "CIDADE": "PINDAMONHANGABA", "LATITUDE": -22.9454896, "LONGITUDE": -45.4753508 }, "geometry": { "type": "Point", "coordinates": [ -45.4753508, -22.9454896 ] } },
{ "type": "Feature", "properties": { "CNPJ": 49043258000164, "AGENTE": "GISLAINE_BOTELHO", "ACAO": "REALIZAR_PRIMEIRA_VISITA", "RAZAO_SOCIAL": "EVALDO_BORGES_DOS_SANTOS", "ENDERECO": "AVENIDA_NOSSA_SENHORA_DO_PERPETUO_SOCORRO_1701_NOSSA_SENHORA_DO_PERPETUO_SOCORRO_PINDAMONHANGABA", "CIDADE": "PINDAMONHANGABA", "LATITUDE": -22.943571, "LONGITUDE": -45.4727873 }, "geometry": { "type": "Point", "coordinates": [ -45.4727873, -22.943571 ] } },
{ "type": "Feature", "properties": { "CNPJ": 3972325000124, "AGENTE": "GISLAINE_BOTELHO", "ACAO": "REALIZAR_PRIMEIRA_VISITA", "RAZAO_SOCIAL": "CIMAR_SERVICOS_GERAIS_LTDA", "ENDERECO": "AVENIDA_NOSSA_SENHORA_DO_PERPETUO_SOCORRO_1920_NOSSA_SENHORA_DO_PERPETUO_SOCORRO_GUARATINGUETA", "CIDADE": "GUARATINGUETA", "LATITUDE": -22.9447714, "LONGITUDE": -45.4750894 }, "geometry": { "type": "Point", "coordinates": [ -45.4750894, -22.9447714 ] } },
{ "type": "Feature", "properties": { "CNPJ": 60485774000181, "AGENTE": "GISLAINE_BOTELHO", "ACAO": "REALIZAR_PRIMEIRA_VISITA", "RAZAO_SOCIAL": "MGF_EMBELEZAMENTO__ESTETICA_E_CUIDADO_ANIMAL_LTDA", "ENDERECO": "AVENIDA_NOSSA_SENHORA_DO_PERPETUO_SOCORRO_2018_NOSSA_SENHORA_DO_PERPETUO_SOCORRO_PINDAMONHANGABA", "CIDADE": "PINDAMONHANGABA", "LATITUDE": -22.945598, "LONGITUDE": -45.476004 }, "geometry": { "type": "Point", "coordinates": [ -45.476004, -22.945598 ] } },
{ "type": "Feature", "properties": { "CNPJ": 59772719000193, "AGENTE": "GISLAINE_BOTELHO", "ACAO": "REALIZAR_PRIMEIRA_VISITA", "RAZAO_SOCIAL": "EXCLUSIVA_INDUSTRIA_DE_TINTAS_E_TEXTURAS_LTDA", "ENDERECO": "AVENIDA_PROFESSOR_MANOEL_CESAR_RIBEIRO_4045_IPIRANGA_PINDAMONHANGABA", "CIDADE": "PINDAMONHANGABA", "LATITUDE": -22.9453433, "LONGITUDE": -45.4122967 }, "geometry": { "type": "Point", "coordinates": [ -45.4122967, -22.9453433 ] } },
{ "type": "Feature", "properties": { "CNPJ": 7684980000138, "AGENTE": "GISLAINE_BOTELHO", "ACAO": "REALIZAR_PRIMEIRA_VISITA", "RAZAO_SOCIAL": "RS_COMERCIO_E_MANUTENCAO_DE_MAQUINAS_INDUSTRIAIS_LTDA", "ENDERECO": "AVENIDA_PROFESSOR_MANOEL_CESAR_RIBEIRO_4301_CIDADE_NOVA_PINDAMONHANGABA", "CIDADE": "PINDAMONHANGABA", "LATITUDE": -22.9467654, "LONGITUDE": -45.4101281 }, "geometry": { "type": "Point", "coordinates": [ -45.4101281, -22.9467654 ] } },
{ "type": "Feature", "properties": { "CNPJ": 2452953000116, "AGENTE": "GISLAINE_BOTELHO", "ACAO": "REALIZAR_PRIMEIRA_VISITA", "RAZAO_SOCIAL": "SEBASTIAO_TAVARES_FILHO_-_AREIAS", "ENDERECO": "AVENIDA_SIQUEIRA_CAMPOS_225_CENTRO_AREIAS", "CIDADE": "AREIAS", "LATITUDE": -22.5809184, "LONGITUDE": -44.6945526 }, "geometry": { "type": "Point", "coordinates": [ -44.6945526, -22.5809184 ] } },
{ "type": "Feature", "properties": { "CNPJ": 18383637000170, "AGENTE": "GISLAINE_BOTELHO", "ACAO": "REALIZAR_PRIMEIRA_VISITA", "RAZAO_SOCIAL": "CARLOS_EDUARDO_DE_SOUZA_CARDOSO", "ENDERECO": "AVENIDA_SIQUEIRA_CAMPOS_341_CENTRO_AREIAS", "CIDADE": "AREIAS", "LATITUDE": -22.5813203, "LONGITUDE": -44.6936419 }, "geometry": { "type": "Point", "coordinates": [ -44.6936419, -22.5813203 ] } },
{ "type": "Feature", "properties": { "CNPJ": 46435342000135, "AGENTE": "GISLAINE_BOTELHO", "ACAO": "REALIZAR_PRIMEIRA_VISITA", "RAZAO_SOCIAL": "SOUZA_E_RODRIGUES_LOJA_DE_VARIEDADES_LTDA", "ENDERECO": "AVENIDA_SIQUEIRA_CAMPOS_480_CENTRO_AREIAS", "CIDADE": "AREIAS", "LATITUDE": -22.5813772, "LONGITUDE": -44.6922301 }, "geometry": { "type": "Point", "coordinates": [ -44.6922301, -22.5813772 ] } },
{ "type": "Feature", "properties": { "CNPJ": 3423413000177, "AGENTE": "GISLAINE_BOTELHO", "ACAO": "REALIZAR_PRIMEIRA_VISITA", "RAZAO_SOCIAL": "SANDRA_REGINA_BELEM_ALVES_DE_ABREU", "ENDERECO": "AVENIDA_THEODORICO_CAVALCANTE_DE_SOUZA_444_JARDIM_BOA_VISTA_PINDAMONHANGABA", "CIDADE": "PINDAMONHANGABA", "LATITUDE": -22.9169689, "LONGITUDE": -45.4706773 }, "geometry": { "type": "Point", "coordinates": [ -45.4706773, -22.9169689 ] } },
{ "type": "Feature", "properties": { "CNPJ": 8249165000103, "AGENTE": "GISLAINE_BOTELHO", "ACAO": "REALIZAR_PRIMEIRA_VISITA", "RAZAO_SOCIAL": "ADRIANA_MEDEIROS_MONTEIRO_REBELLO", "ENDERECO": "LADEIRA_BARAO_DE_PINDAMONHANGABA_87_BOSQUE_DA_PRINCESA_PINDAMONHANGABA", "CIDADE": "PINDAMONHANGABA", "LATITUDE": -22.9219785, "LONGITUDE": -45.4623362 }, "geometry": { "type": "Point", "coordinates": [ -45.4623362, -22.9219785 ] } },
{ "type": "Feature", "properties": { "CNPJ": 50384730000101, "AGENTE": "GISLAINE_BOTELHO", "ACAO": "REALIZAR_PRIMEIRA_VISITA", "RAZAO_SOCIAL": "JULIANO_JOSE_DA_SILA_&_CIA_LTDA", "ENDERECO": "PRACA_DA_BANDEIRA_94_CENTRO_PIQUETE", "CIDADE": "PIQUETE", "LATITUDE": -22.6088133, "LONGITUDE": -45.183655 }, "geometry": { "type": "Point", "coordinates": [ -45.183655, -22.6088133 ] } },
{ "type": "Feature", "properties": { "CNPJ": 41294809000150, "AGENTE": "GISLAINE_BOTELHO", "ACAO": "REALIZAR_PRIMEIRA_VISITA", "RAZAO_SOCIAL": "ANTONIO_FLAVIO_PEREIRA_DE_OLIVEIRA_E_SILVA", "ENDERECO": "PRACA_DOUTOR_EMILIO_RIBAS_3_CHACARA_DA_GALEGA_PINDAMONHANGABA", "CIDADE": "PINDAMONHANGABA", "LATITUDE": -22.9327526, "LONGITUDE": -45.462202 }, "geometry": { "type": "Point", "coordinates": [ -45.462202, -22.9327526 ] } },
{ "type": "Feature", "properties": { "CNPJ": 43928086000120, "AGENTE": "GISLAINE_BOTELHO", "ACAO": "REALIZAR_PRIMEIRA_VISITA", "RAZAO_SOCIAL": "ANA_FLAVIA_MORADEI_DE_SIQUEIRA", "ENDERECO": "PRACA_MARECHAL_FLORIANO_PIEXOTO_26_CENTRO_QUELUZ", "CIDADE": "QUELUZ", "LATITUDE": -22.5404685, "LONGITUDE": -44.7725684 }, "geometry": { "type": "Point", "coordinates": [ -44.7725684, -22.5404685 ] } },
{ "type": "Feature", "properties": { "CNPJ": 37011743000177, "AGENTE": "GISLAINE_BOTELHO", "ACAO": "REALIZAR_PRIMEIRA_VISITA", "RAZAO_SOCIAL": "CASA_DE_ARMARINHOS_OLIVEIRA_LTDA", "ENDERECO": "PRACA_MONSENHOR_MARCONDES_112_CENTRO_PINDAMONHANGABA", "CIDADE": "PINDAMONHANGABA", "LATITUDE": -22.9260073, "LONGITUDE": -45.4628377 }, "geometry": { "type": "Point", "coordinates": [ -45.4628377, -22.9260073 ] } },
{ "type": "Feature", "properties": { "CNPJ": 12105657000100, "AGENTE": "GISLAINE_BOTELHO", "ACAO": "REALIZAR_PRIMEIRA_VISITA", "RAZAO_SOCIAL": "MASRI_&_MASRI_CALCADOS_E_CONFECCOES_LTDA", "ENDERECO": "PRACA_MONSENHOR_MARCONDES_186_CENTRO_PINDAMONHANGABA", "CIDADE": "PINDAMONHANGABA", "LATITUDE": -22.92623, "LONGITUDE": -45.4624127 }, "geometry": { "type": "Point", "coordinates": [ -45.4624127, -22.92623 ] } },
{ "type": "Feature", "properties": { "CNPJ": 4491358000115, "AGENTE": "GISLAINE_BOTELHO", "ACAO": "REALIZAR_PRIMEIRA_VISITA", "RAZAO_SOCIAL": "CAMILARI_COLCHOES_LTDA", "ENDERECO": "PRACA_MONSENHOR_MARCONDES_8_CENTRO_PINDAMONHANGABA", "CIDADE": "PINDAMONHANGABA", "LATITUDE": -22.9250518, "LONGITUDE": -45.462616 }, "geometry": { "type": "Point", "coordinates": [ -45.462616, -22.9250518 ] } },
{ "type": "Feature", "properties": { "CNPJ": 37230680000140, "AGENTE": "GISLAINE_BOTELHO", "ACAO": "REALIZAR_PRIMEIRA_VISITA", "RAZAO_SOCIAL": "E_._DE_LIMA_FRANCISCO", "ENDERECO": "RODOVIA_AMADOR_BUENO_DA_VEIGA_2100_NOSSA_SENHORA_DO_PERPETUO_SOCORRO_PINDAMONHANGABA", "CIDADE": "PINDAMONHANGABA", "LATITUDE": -22.9482974, "LONGITUDE": -45.478397 }, "geometry": { "type": "Point", "coordinates": [ -45.478397, -22.9482974 ] } },
{ "type": "Feature", "properties": { "CNPJ": 50197130000134, "AGENTE": "GISLAINE_BOTELHO", "ACAO": "REALIZAR_PRIMEIRA_VISITA", "RAZAO_SOCIAL": "OTICAS_VITHORIA_LTDA", "ENDERECO": "RUA_BICUDO_LEME_10_CENTRO_PINDAMONHANGABA", "CIDADE": "PINDAMONHANGABA", "LATITUDE": -22.9237263, "LONGITUDE": -45.4622366 }, "geometry": { "type": "Point", "coordinates": [ -45.4622366, -22.9237263 ] } },
{ "type": "Feature", "properties": { "CNPJ": 14200946000106, "AGENTE": "GISLAINE_BOTELHO", "ACAO": "REALIZAR_PRIMEIRA_VISITA", "RAZAO_SOCIAL": "SIQUEIRA_&_CABRAL_LTDA", "ENDERECO": "RUA_BICUDO_LEME_128_CENTRO_PINDAMONHANGABA", "CIDADE": "PINDAMONHANGABA", "LATITUDE": -22.9237415, "LONGITUDE": -45.4634807 }, "geometry": { "type": "Point", "coordinates": [ -45.4634807, -22.9237415 ] } },
{ "type": "Feature", "properties": { "CNPJ": 4551604000187, "AGENTE": "GISLAINE_BOTELHO", "ACAO": "REALIZAR_PRIMEIRA_VISITA", "RAZAO_SOCIAL": "VANIA_BOTANI_GONCALVES", "ENDERECO": "RUA_BICUDO_LEME_144_CENTRO_PINDAMONHANGABA", "CIDADE": "PINDAMONHANGABA", "LATITUDE": -22.9239021, "LONGITUDE": -45.4636559 }, "geometry": { "type": "Point", "coordinates": [ -45.4636559, -22.9239021 ] } },
{ "type": "Feature", "properties": { "CNPJ": 365060000299, "AGENTE": "GISLAINE_BOTELHO", "ACAO": "REALIZAR_PRIMEIRA_VISITA", "RAZAO_SOCIAL": "ADILSON_FERNANDES_DELPHINO", "ENDERECO": "RUA_BICUDO_LEME_160_CENTRO_PINDAMONHANGABA", "CIDADE": "PINDAMONHANGABA", "LATITUDE": -22.923809, "LONGITUDE": -45.4638309 }, "geometry": { "type": "Point", "coordinates": [ -45.4638309, -22.923809 ] } },
{ "type": "Feature", "properties": { "CNPJ": 17036604000190, "AGENTE": "GISLAINE_BOTELHO", "ACAO": "REALIZAR_PRIMEIRA_VISITA", "RAZAO_SOCIAL": "ACP_CALCADOS_PINDA_LTDA", "ENDERECO": "RUA_BICUDO_LEME_25_CENTRO_PINDAMONHANGABA", "CIDADE": "PINDAMONHANGABA", "LATITUDE": -22.9238782, "LONGITUDE": -45.4624268 }, "geometry": { "type": "Point", "coordinates": [ -45.4624268, -22.9238782 ] } },
{ "type": "Feature", "properties": { "CNPJ": 54518999000194, "AGENTE": "GISLAINE_BOTELHO", "ACAO": "REALIZAR_PRIMEIRA_VISITA", "RAZAO_SOCIAL": "AGUIAR_&_GUIAR_FORMACAO_PROFISSIONAL_LTDA", "ENDERECO": "RUA_BICUDO_LEME_40_CENTRO_PINDAMONHANGABA", "CIDADE": "PINDAMONHANGABA", "LATITUDE": -22.9237383, "LONGITUDE": -45.4627167 }, "geometry": { "type": "Point", "coordinates": [ -45.4627167, -22.9237383 ] } },
{ "type": "Feature", "properties": { "CNPJ": 42242590000109, "AGENTE": "GISLAINE_BOTELHO", "ACAO": "REALIZAR_PRIMEIRA_VISITA", "RAZAO_SOCIAL": "CLINICA_VETERINARIA_E_PET_SHOP_PINDA_LTDA", "ENDERECO": "RUA_BICUDO_LEME_45_CENTRO_PINDAMONHANGABA", "CIDADE": "PINDAMONHANGABA", "LATITUDE": -22.9238902, "LONGITUDE": -45.4627117 }, "geometry": { "type": "Point", "coordinates": [ -45.4627117, -22.9238902 ] } },
{ "type": "Feature", "properties": { "CNPJ": 10406963000143, "AGENTE": "GISLAINE_BOTELHO", "ACAO": "REALIZAR_PRIMEIRA_VISITA", "RAZAO_SOCIAL": "CIA_DA_MODA_CONFECCOES_PINDALTDA", "ENDERECO": "RUA_BICUDO_LEME_60_CENTRO_PINDAMONHANGABA", "CIDADE": "PINDAMONHANGABA", "LATITUDE": -22.9237609, "LONGITUDE": -45.4628862 }, "geometry": { "type": "Point", "coordinates": [ -45.4628862, -22.9237609 ] } },
{ "type": "Feature", "properties": { "CNPJ": 4467129000165, "AGENTE": "GISLAINE_BOTELHO", "ACAO": "REALIZAR_PRIMEIRA_VISITA", "RAZAO_SOCIAL": "FERRAGENS_CAVALCANTE_DE_SOUZA_LTDA", "ENDERECO": "RUA_CAPITAO_JOSE_MARTINIANO_VIEIRA_FERRAZ_159_CENTRO_PINDAMONHANGABA", "CIDADE": "PINDAMONHANGABA", "LATITUDE": -22.9270359, "LONGITUDE": -45.46202 }, "geometry": { "type": "Point", "coordinates": [ -45.46202, -22.9270359 ] } },
{ "type": "Feature", "properties": { "CNPJ": 8432371000154, "AGENTE": "GISLAINE_BOTELHO", "ACAO": "REALIZAR_PRIMEIRA_VISITA", "RAZAO_SOCIAL": "SILVIA_HELENA_RODRIGUES_DA_SILVA", "ENDERECO": "RUA_CAPITAO_JOSE_MARTINIANO_VIEIRA_FERRAZ_186_CENTRO_PINDAMONHANGABA", "CIDADE": "PINDAMONHANGABA", "LATITUDE": -22.9267682, "LONGITUDE": -45.4629004 }, "geometry": { "type": "Point", "coordinates": [ -45.4629004, -22.9267682 ] } },
{ "type": "Feature", "properties": { "CNPJ": 60423175000133, "AGENTE": "GISLAINE_BOTELHO", "ACAO": "REALIZAR_PRIMEIRA_VISITA", "RAZAO_SOCIAL": "EUNICE_DOS_SANTOS_COMERCIO_DE_RACOES", "ENDERECO": "RUA_CAPITAO_JOSE_MARTINIANO_VIEIRA_FERRAZ_186_CENTRO_PINDAMONHANGABA", "CIDADE": "PINDAMONHANGABA", "LATITUDE": -22.9268034, "LONGITUDE": -45.4631524 }, "geometry": { "type": "Point", "coordinates": [ -45.4631524, -22.9268034 ] } },
{ "type": "Feature", "properties": { "CNPJ": 3304259000114, "AGENTE": "GISLAINE_BOTELHO", "ACAO": "REALIZAR_PRIMEIRA_VISITA", "RAZAO_SOCIAL": "PEIXARIA_IKEDA_LTDA", "ENDERECO": "RUA_CAPITAO_JOSE_MARTINIANO_VIEIRA_FERRAZ_186_CENTRO_PINDAMONHANGABA", "CIDADE": "PINDAMONHANGABA", "LATITUDE": -22.9269157, "LONGITUDE": -45.4628912 }, "geometry": { "type": "Point", "coordinates": [ -45.4628912, -22.9269157 ] } },
{ "type": "Feature", "properties": { "CNPJ": 18123138000143, "AGENTE": "GISLAINE_BOTELHO", "ACAO": "REALIZAR_PRIMEIRA_VISITA", "RAZAO_SOCIAL": "MARCIA_REGINA_COSTA_NUNES_ACOUGUE", "ENDERECO": "RUA_CAPITAO_JOSE_MARTINIANO_VIEIRA_FERRAZ_279_CENTRO_PINDAMONHANGABA", "CIDADE": "PINDAMONHANGABA", "LATITUDE": -22.9283517, "LONGITUDE": -45.46269 }, "geometry": { "type": "Point", "coordinates": [ -45.46269, -22.9283517 ] } },
{ "type": "Feature", "properties": { "CNPJ": 7456977000167, "AGENTE": "GISLAINE_BOTELHO", "ACAO": "REALIZAR_PRIMEIRA_VISITA", "RAZAO_SOCIAL": "VALDIR_MITSUO_HIGA_ME", "ENDERECO": "RUA_CAPITAO_VITORIO_BASSO_491_PARQUE_SAO_DOMINGOS_PINDAMONHANGABA", "CIDADE": "PINDAMONHANGABA", "LATITUDE": -22.9343817, "LONGITUDE": -45.4572783 }, "geometry": { "type": "Point", "coordinates": [ -45.4572783, -22.9343817 ] } },
{ "type": "Feature", "properties": { "CNPJ": 74395195000152, "AGENTE": "GISLAINE_BOTELHO", "ACAO": "REALIZAR_PRIMEIRA_VISITA", "RAZAO_SOCIAL": "JOSE_CLAUDIO_DE_GODOI_PINDA", "ENDERECO": "RUA_CAPITAO_VITORIO_BASSO_578_PARQUE_SAO_DOMINGOS_PINDAMONHANGABA", "CIDADE": "PINDAMONHANGABA", "LATITUDE": -22.9344758, "LONGITUDE": -45.4564585 }, "geometry": { "type": "Point", "coordinates": [ -45.4564585, -22.9344758 ] } },
{ "type": "Feature", "properties": { "CNPJ": 40703911000108, "AGENTE": "GISLAINE_BOTELHO", "ACAO": "REALIZAR_PRIMEIRA_VISITA", "RAZAO_SOCIAL": "TR_FARMA_LTDA", "ENDERECO": "RUA_CAPITAO_VITORIO_BASSO_685_PARQUE_SAO_BENEDITO_PINDAMONHANGABA", "CIDADE": "PINDAMONHANGABA", "LATITUDE": -22.9343004, "LONGITUDE": -45.4553505 }, "geometry": { "type": "Point", "coordinates": [ -45.4553505, -22.9343004 ] } },
{ "type": "Feature", "properties": { "CNPJ": 9332296000112, "AGENTE": "GISLAINE_BOTELHO", "ACAO": "REALIZAR_PRIMEIRA_VISITA", "RAZAO_SOCIAL": "MOTO_GT_DO_VALE_LTDA", "ENDERECO": "RUA_CAPITAO_VITORIO_BASSO_809_PARQUE_SAO_BENEDITO_PINDAMONHANGABA", "CIDADE": "PINDAMONHANGABA", "LATITUDE": -22.9348024, "LONGITUDE": -45.4542429 }, "geometry": { "type": "Point", "coordinates": [ -45.4542429, -22.9348024 ] } },
{ "type": "Feature", "properties": { "CNPJ": 29268154000140, "AGENTE": "GISLAINE_BOTELHO", "ACAO": "REALIZAR_PRIMEIRA_VISITA", "RAZAO_SOCIAL": "DEBORA_A.C.P._SANTOS", "ENDERECO": "RUA_COMENDADOR_CUSTODIO_78_CENTRO_PIQUETE", "CIDADE": "PIQUETE", "LATITUDE": -22.6092498, "LONGITUDE": -45.1844315 }, "geometry": { "type": "Point", "coordinates": [ -45.1844315, -22.6092498 ] } },
{ "type": "Feature", "properties": { "CNPJ": 45339527000183, "AGENTE": "GISLAINE_BOTELHO", "ACAO": "REALIZAR_PRIMEIRA_VISITA", "RAZAO_SOCIAL": "JOHELI_STORE_RACOES_E_MATERIAIS_PARA_CONSTRUCAO_LTDA", "ENDERECO": "RUA_COMENDADOR_SAMPAIO_259_CENTRO_AREIAS", "CIDADE": "AREIAS", "LATITUDE": -22.5810184, "LONGITUDE": -44.6942441 }, "geometry": { "type": "Point", "coordinates": [ -44.6942441, -22.5810184 ] } },
{ "type": "Feature", "properties": { "CNPJ": 6244625000185, "AGENTE": "GISLAINE_BOTELHO", "ACAO": "REALIZAR_PRIMEIRA_VISITA", "RAZAO_SOCIAL": "MARIKO_ROBERTA_TASHIKAWA_DA_SILVA", "ENDERECO": "RUA_CONEGO_TOBIAS_367_CENTRO_PINDAMONHANGABA", "CIDADE": "PINDAMONHANGABA", "LATITUDE": -22.9266446, "LONGITUDE": -45.4557594 }, "geometry": { "type": "Point", "coordinates": [ -45.4557594, -22.9266446 ] } },
{ "type": "Feature", "properties": { "CNPJ": 38203003000103, "AGENTE": "GISLAINE_BOTELHO", "ACAO": "REALIZAR_PRIMEIRA_VISITA", "RAZAO_SOCIAL": "CAROLINA_MATHIAS_DE_GODOY", "ENDERECO": "RUA_CORONEL_FRANCISCO_BICUDO_DE_MELLO_118_CENTRO_PINDAMONHANGABA", "CIDADE": "PINDAMONHANGABA", "LATITUDE": -22.9260751, "LONGITUDE": -45.4649357 }, "geometry": { "type": "Point", "coordinates": [ -45.4649357, -22.9260751 ] } },
{ "type": "Feature", "properties": { "CNPJ": 20215460000144, "AGENTE": "GISLAINE_BOTELHO", "ACAO": "REALIZAR_PRIMEIRA_VISITA", "RAZAO_SOCIAL": "FABIO_DA_SILVA_DE_PAIVA", "ENDERECO": "RUA_CORONEL_MANOEL_HORTA_141_CENTRO_LAVRINHAS", "CIDADE": "LAVRINHAS", "LATITUDE": -22.5670768, "LONGITUDE": -44.9068049 }, "geometry": { "type": "Point", "coordinates": [ -44.9068049, -22.5670768 ] } },
{ "type": "Feature", "properties": { "CNPJ": 5265278000104, "AGENTE": "GISLAINE_BOTELHO", "ACAO": "REALIZAR_PRIMEIRA_VISITA", "RAZAO_SOCIAL": "ANA_PAULA_CESAR_MATHIAS_FINGER", "ENDERECO": "RUA_DEPUTADO_CLARO_CESAR_174_CENTRO_PINDAMONHANGABA", "CIDADE": "PINDAMONHANGABA", "LATITUDE": -22.9242972, "LONGITUDE": -45.4623125 }, "geometry": { "type": "Point", "coordinates": [ -45.4623125, -22.9242972 ] } },
{ "type": "Feature", "properties": { "CNPJ": 49804290000115, "AGENTE": "GISLAINE_BOTELHO", "ACAO": "REALIZAR_PRIMEIRA_VISITA", "RAZAO_SOCIAL": "CODIGO_G_MODA_PLUS_III_LTDA", "ENDERECO": "RUA_DEPUTADO_CLARO_CESAR_187_CENTRO_PINDAMONHANGABA", "CIDADE": "PINDAMONHANGABA", "LATITUDE": -22.9244102, "LONGITUDE": -45.4621521 }, "geometry": { "type": "Point", "coordinates": [ -45.4621521, -22.9244102 ] } },
{ "type": "Feature", "properties": { "CNPJ": 58396665000146, "AGENTE": "GISLAINE_BOTELHO", "ACAO": "REALIZAR_PRIMEIRA_VISITA", "RAZAO_SOCIAL": "OTICAS_SOUZA_MORETTO_LTDA", "ENDERECO": "RUA_DEPUTADO_CLARO_CESAR_215_CENTRO_PINDAMONHANGABA", "CIDADE": "PINDAMONHANGABA", "LATITUDE": -22.9247117, "LONGITUDE": -45.4621233 }, "geometry": { "type": "Point", "coordinates": [ -45.4621233, -22.9247117 ] } },
{ "type": "Feature", "properties": { "CNPJ": 43959961000130, "AGENTE": "GISLAINE_BOTELHO", "ACAO": "REALIZAR_PRIMEIRA_VISITA", "RAZAO_SOCIAL": "BRUNA_NOGUTTI_RIBAS", "ENDERECO": "RUA_DEPUTADO_CLARO_CESAR_219_CENTRO_PINDAMONHANGABA", "CIDADE": "PINDAMONHANGABA", "LATITUDE": -22.9246367, "LONGITUDE": -45.4620995 }, "geometry": { "type": "Point", "coordinates": [ -45.4620995, -22.9246367 ] } },
{ "type": "Feature", "properties": { "CNPJ": 49024561000110, "AGENTE": "GISLAINE_BOTELHO", "ACAO": "REALIZAR_PRIMEIRA_VISITA", "RAZAO_SOCIAL": "WEVERTON_LUIZ_AREZO_DA_SILVA", "ENDERECO": "RUA_DEPUTADO_CLARO_CESAR_233_CENTRO_PINDAMONHANGABA", "CIDADE": "PINDAMONHANGABA", "LATITUDE": -22.9248014, "LONGITUDE": -45.4620393 }, "geometry": { "type": "Point", "coordinates": [ -45.4620393, -22.9248014 ] } },
{ "type": "Feature", "properties": { "CNPJ": 23388744000120, "AGENTE": "GISLAINE_BOTELHO", "ACAO": "REALIZAR_PRIMEIRA_VISITA", "RAZAO_SOCIAL": "SILAS_EVANDRO_DOS_SANTOS_&_CIA.LTDA", "ENDERECO": "RUA_DEPUTADO_CLARO_CESAR_240_CENTRO_PINDAMONHANGABA", "CIDADE": "PINDAMONHANGABA", "LATITUDE": -22.9248563, "LONGITUDE": -45.4621702 }, "geometry": { "type": "Point", "coordinates": [ -45.4621702, -22.9248563 ] } },
{ "type": "Feature", "properties": { "CNPJ": 73119927000623, "AGENTE": "GISLAINE_BOTELHO", "ACAO": "REALIZAR_PRIMEIRA_VISITA", "RAZAO_SOCIAL": "PRO_-_PHARMACOS_FARMACIA_LTDA", "ENDERECO": "RUA_DEPUTADO_CLARO_CESAR_243_CENTRO_PINDAMONHANGABA", "CIDADE": "PINDAMONHANGABA", "LATITUDE": -22.9249822, "LONGITUDE": -45.4620519 }, "geometry": { "type": "Point", "coordinates": [ -45.4620519, -22.9249822 ] } },
{ "type": "Feature", "properties": { "CNPJ": 18727076000189, "AGENTE": "GISLAINE_BOTELHO", "ACAO": "REALIZAR_PRIMEIRA_VISITA", "RAZAO_SOCIAL": "MARCIA_MELO_VESTUARIO_LTDA.", "ENDERECO": "RUA_DEPUTADO_CLARO_CESAR_70_CENTRO_PINDAMONHANGABA", "CIDADE": "PINDAMONHANGABA", "LATITUDE": -22.9234229, "LONGITUDE": -45.4622606 }, "geometry": { "type": "Point", "coordinates": [ -45.4622606, -22.9234229 ] } },
{ "type": "Feature", "properties": { "CNPJ": 51974924000120, "AGENTE": "GISLAINE_BOTELHO", "ACAO": "REALIZAR_PRIMEIRA_VISITA", "RAZAO_SOCIAL": "CENTRAL_DE_BIJUTERIAS_PINDAMONHANGABA_LTDA", "ENDERECO": "RUA_DEZ_DE_JULHO_25_CENTRO_PINDAMONHANGABA", "CIDADE": "PINDAMONHANGABA", "LATITUDE": -22.9257721, "LONGITUDE": -45.4617949 }, "geometry": { "type": "Point", "coordinates": [ -45.4617949, -22.9257721 ] } },
{ "type": "Feature", "properties": { "CNPJ": 40889516000153, "AGENTE": "GISLAINE_BOTELHO", "ACAO": "REALIZAR_PRIMEIRA_VISITA", "RAZAO_SOCIAL": "ICEGEL_SABORES_GELADOS_LTDA", "ENDERECO": "RUA_DEZ_DE_JULHO_35_CENTRO_PINDAMONHANGABA", "CIDADE": "PINDAMONHANGABA", "LATITUDE": -22.9257452, "LONGITUDE": -45.4616815 }, "geometry": { "type": "Point", "coordinates": [ -45.4616815, -22.9257452 ] } },
{ "type": "Feature", "properties": { "CNPJ": 45915175000167, "AGENTE": "GISLAINE_BOTELHO", "ACAO": "REALIZAR_PRIMEIRA_VISITA", "RAZAO_SOCIAL": "OLIVEIRA_MACHADO_CAFETERIA_LTDA", "ENDERECO": "RUA_DEZ_DE_JULHO_87_CENTRO_PINDAMONHANGABA", "CIDADE": "PINDAMONHANGABA", "LATITUDE": -22.9257534, "LONGITUDE": -45.4611601 }, "geometry": { "type": "Point", "coordinates": [ -45.4611601, -22.9257534 ] } },
{ "type": "Feature", "properties": { "CNPJ": 8870582000179, "AGENTE": "GISLAINE_BOTELHO", "ACAO": "REALIZAR_PRIMEIRA_VISITA", "RAZAO_SOCIAL": "DAYANE_LOURENCO_DA_SILVA", "ENDERECO": "RUA_DO_PIQUETE_6_CENTRO_PIQUETE", "CIDADE": "PIQUETE", "LATITUDE": -22.60866, "LONGITUDE": -45.183485 }, "geometry": { "type": "Point", "coordinates": [ -45.183485, -22.60866 ] } },
{ "type": "Feature", "properties": { "CNPJ": 62846829000167, "AGENTE": "GISLAINE_BOTELHO", "ACAO": "REALIZAR_PRIMEIRA_VISITA", "RAZAO_SOCIAL": "ANA_MASAKO_USSUHI", "ENDERECO": "RUA_DO_PIQUETE_67_CENTRO_PIQUETE", "CIDADE": "PIQUETE", "LATITUDE": -22.6083967, "LONGITUDE": -45.18465 }, "geometry": { "type": "Point", "coordinates": [ -45.18465, -22.6083967 ] } },
{ "type": "Feature", "properties": { "CNPJ": 11709882000185, "AGENTE": "GISLAINE_BOTELHO", "ACAO": "REALIZAR_PRIMEIRA_VISITA", "RAZAO_SOCIAL": "VICTORIO_CLINICA_INTEGRADA_LTDA", "ENDERECO": "RUA_DONA_CARMELITA_GAMA_ROMEIRO_95_PARQUE_SAO_BENEDITO_PINDAMONHANGABA", "CIDADE": "PINDAMONHANGABA", "LATITUDE": -22.9316139, "LONGITUDE": -45.4559384 }, "geometry": { "type": "Point", "coordinates": [ -45.4559384, -22.9316139 ] } },
{ "type": "Feature", "properties": { "CNPJ": 50455203000140, "AGENTE": "GISLAINE_BOTELHO", "ACAO": "REALIZAR_PRIMEIRA_VISITA", "RAZAO_SOCIAL": "CASTOR_CONSULTORIA_DE_IMOVEIS_LTDA", "ENDERECO": "RUA_DOS_ANDRADAS_157_CENTRO_PINDAMONHANGABA", "CIDADE": "PINDAMONHANGABA", "LATITUDE": -22.9252774, "LONGITUDE": -45.4612793 }, "geometry": { "type": "Point", "coordinates": [ -45.4612793, -22.9252774 ] } },
{ "type": "Feature", "properties": { "CNPJ": 48727787000114, "AGENTE": "GISLAINE_BOTELHO", "ACAO": "REALIZAR_PRIMEIRA_VISITA", "RAZAO_SOCIAL": "PINAFFI_&_GUEIROS_RESTAURANTE_LTDA", "ENDERECO": "RUA_DOS_ANDRADAS_204_CENTRO_PINDAMONHANGABA", "CIDADE": "PINDAMONHANGABA", "LATITUDE": -22.9251586, "LONGITUDE": -45.4616651 }, "geometry": { "type": "Point", "coordinates": [ -45.4616651, -22.9251586 ] } },
{ "type": "Feature", "properties": { "CNPJ": 47738046000176, "AGENTE": "GISLAINE_BOTELHO", "ACAO": "REALIZAR_PRIMEIRA_VISITA", "RAZAO_SOCIAL": "TAYLANA_VANUSA_APARECIDA_DE_CAMPOS", "ENDERECO": "RUA_DOS_ANDRADAS_213_CENTRO_PINDAMONHANGABA", "CIDADE": "PINDAMONHANGABA", "LATITUDE": -22.9251375, "LONGITUDE": -45.4618542 }, "geometry": { "type": "Point", "coordinates": [ -45.4618542, -22.9251375 ] } },
{ "type": "Feature", "properties": { "CNPJ": 5691366000500, "AGENTE": "GISLAINE_BOTELHO", "ACAO": "REALIZAR_PRIMEIRA_VISITA", "RAZAO_SOCIAL": "EDVALDO_COSTA_DE_LIMA_LTDA", "ENDERECO": "RUA_DOS_ANDRADAS_222_CENTRO_PINDAMONHANGABA", "CIDADE": "PINDAMONHANGABA", "LATITUDE": -22.9251045, "LONGITUDE": -45.4619574 }, "geometry": { "type": "Point", "coordinates": [ -45.4619574, -22.9251045 ] } },
{ "type": "Feature", "properties": { "CNPJ": 34897760000165, "AGENTE": "GISLAINE_BOTELHO", "ACAO": "REALIZAR_PRIMEIRA_VISITA", "RAZAO_SOCIAL": "R_A_FREIRE_SANTOS", "ENDERECO": "RUA_DOS_ANDRADAS_270_CENTRO_PINDAMONHANGABA", "CIDADE": "PINDAMONHANGABA", "LATITUDE": -22.9249835, "LONGITUDE": -45.4622634 }, "geometry": { "type": "Point", "coordinates": [ -45.4622634, -22.9249835 ] } },
{ "type": "Feature", "properties": { "CNPJ": 54887217000194, "AGENTE": "GISLAINE_BOTELHO", "ACAO": "REALIZAR_PRIMEIRA_VISITA", "RAZAO_SOCIAL": "G.S.P_COMERCIO_DE_ROUPAS_E_ACESSORIOS_LTDA", "ENDERECO": "RUA_DOS_ANDRADAS_412_CENTRO_PINDAMONHANGABA", "CIDADE": "PINDAMONHANGABA", "LATITUDE": -22.9249, "LONGITUDE": -45.4640982 }, "geometry": { "type": "Point", "coordinates": [ -45.4640982, -22.9249 ] } },
{ "type": "Feature", "properties": { "CNPJ": 48417570000108, "AGENTE": "GISLAINE_BOTELHO", "ACAO": "REALIZAR_PRIMEIRA_VISITA", "RAZAO_SOCIAL": "CARMEN_LIVRAMENTO_DE_OLIVEIRA", "ENDERECO": "RUA_DOS_ANDRADAS_450_CENTRO_PINDAMONHANGABA", "CIDADE": "PINDAMONHANGABA", "LATITUDE": -22.9249113, "LONGITUDE": -45.4640371 }, "geometry": { "type": "Point", "coordinates": [ -45.4640371, -22.9249113 ] } },
{ "type": "Feature", "properties": { "CNPJ": 30483286000174, "AGENTE": "GISLAINE_BOTELHO", "ACAO": "REALIZAR_PRIMEIRA_VISITA", "RAZAO_SOCIAL": "CESAR_&_ALVES_OPTICA_LTDA", "ENDERECO": "RUA_DOS_ANDRADAS_96_CENTRO_PINDAMONHANGABA", "CIDADE": "PINDAMONHANGABA", "LATITUDE": -22.9252499, "LONGITUDE": -45.4606606 }, "geometry": { "type": "Point", "coordinates": [ -45.4606606, -22.9252499 ] } },
{ "type": "Feature", "properties": { "CNPJ": 32841077000261, "AGENTE": "GISLAINE_BOTELHO", "ACAO": "REALIZAR_PRIMEIRA_VISITA", "RAZAO_SOCIAL": "J._S._DOMINGOS_FILHO_VESTUARIO_E_ACESSORIOS", "ENDERECO": "RUA_DOS_EXPEDICIONARIOS_147_CENTRO_PINDAMONHANGABA", "CIDADE": "PINDAMONHANGABA", "LATITUDE": -22.9263459, "LONGITUDE": -45.4605143 }, "geometry": { "type": "Point", "coordinates": [ -45.4605143, -22.9263459 ] } },
{ "type": "Feature", "properties": { "CNPJ": 4242169000109, "AGENTE": "GISLAINE_BOTELHO", "ACAO": "REALIZAR_PRIMEIRA_VISITA", "RAZAO_SOCIAL": "DENTAL_PINDA_LTDA", "ENDERECO": "RUA_DOS_EXPEDICIONARIOS_475_CENTRO_PINDAMONHANGABA", "CIDADE": "PINDAMONHANGABA", "LATITUDE": -22.9281392, "LONGITUDE": -45.458488 }, "geometry": { "type": "Point", "coordinates": [ -45.458488, -22.9281392 ] } },
{ "type": "Feature", "properties": { "CNPJ": 48400527000130, "AGENTE": "GISLAINE_BOTELHO", "ACAO": "REALIZAR_PRIMEIRA_VISITA", "RAZAO_SOCIAL": "SEIJI_NAGAOKA", "ENDERECO": "RUA_DOS_SAGRADOS_CORACOES_1186_JARDIM_SANTA_LUZIA_PINDAMONHANGABA", "CIDADE": "PINDAMONHANGABA", "LATITUDE": -22.9304498, "LONGITUDE": -45.4487432 }, "geometry": { "type": "Point", "coordinates": [ -45.4487432, -22.9304498 ] } },
{ "type": "Feature", "properties": { "CNPJ": 40084947000142, "AGENTE": "GISLAINE_BOTELHO", "ACAO": "REALIZAR_PRIMEIRA_VISITA", "RAZAO_SOCIAL": "L_R_DA_SILVA_LTDA", "ENDERECO": "RUA_DOUTOR_CAMPOS_SALLES_24_CENTRO_PINDAMONHANGABA", "CIDADE": "PINDAMONHANGABA", "LATITUDE": -22.9267357, "LONGITUDE": -45.4634504 }, "geometry": { "type": "Point", "coordinates": [ -45.4634504, -22.9267357 ] } },
{ "type": "Feature", "properties": { "CNPJ": 6935745000129, "AGENTE": "GISLAINE_BOTELHO", "ACAO": "REALIZAR_PRIMEIRA_VISITA", "RAZAO_SOCIAL": "CELSO_RIBEIRO_CAVALCANTE_DE_SOUZA", "ENDERECO": "RUA_DOUTOR_CAMPOS_SALLES_340_CENTRO_PINDAMONHANGABA", "CIDADE": "PINDAMONHANGABA", "LATITUDE": -22.93237, "LONGITUDE": -45.4627767 }, "geometry": { "type": "Point", "coordinates": [ -45.4627767, -22.93237 ] } },
{ "type": "Feature", "properties": { "CNPJ": 30466811000143, "AGENTE": "GISLAINE_BOTELHO", "ACAO": "REALIZAR_PRIMEIRA_VISITA", "RAZAO_SOCIAL": "RAFAEL_CLARO_LTDA", "ENDERECO": "RUA_DOUTOR_CAMPOS_SALLES_549_CHACARA_DA_GALEGA_PINDAMONHANGABA", "CIDADE": "PINDAMONHANGABA", "LATITUDE": -22.9314001, "LONGITUDE": -45.46313 }, "geometry": { "type": "Point", "coordinates": [ -45.46313, -22.9314001 ] } },
{ "type": "Feature", "properties": { "CNPJ": 29955029000109, "AGENTE": "GISLAINE_BOTELHO", "ACAO": "REALIZAR_PRIMEIRA_VISITA", "RAZAO_SOCIAL": "E._A._DE_CARVALHO_PERFUMARIA", "ENDERECO": "RUA_DOUTOR_CASEMIRO_DA_ROCHA_16_CENTRO_CUNHA", "CIDADE": "CUNHA", "LATITUDE": -23.07414, "LONGITUDE": -44.9597373 }, "geometry": { "type": "Point", "coordinates": [ -44.9597373, -23.07414 ] } },
{ "type": "Feature", "properties": { "CNPJ": 53770495000102, "AGENTE": "GISLAINE_BOTELHO", "ACAO": "REALIZAR_PRIMEIRA_VISITA", "RAZAO_SOCIAL": "SAUDE_EM_GRANEL_COMERCIO_DE_PRODUTOS_NATURAIS_LTDA", "ENDERECO": "RUA_DOUTOR_CASEMIRO_DA_ROCHA_16_CENTRO_CUNHA", "CIDADE": "CUNHA", "LATITUDE": -23.07414, "LONGITUDE": -44.9597373 }, "geometry": { "type": "Point", "coordinates": [ -44.9597373, -23.07414 ] } },
{ "type": "Feature", "properties": { "CNPJ": 34836303000160, "AGENTE": "GISLAINE_BOTELHO", "ACAO": "REALIZAR_PRIMEIRA_VISITA", "RAZAO_SOCIAL": "J_&_H_ROUPAS_E_ACESSORIOS_LTDA", "ENDERECO": "RUA_DOUTOR_CASEMIRO_DA_ROCHA_83_CENTRO_CUNHA", "CIDADE": "CUNHA", "LATITUDE": -23.0735129, "LONGITUDE": -44.9599447 }, "geometry": { "type": "Point", "coordinates": [ -44.9599447, -23.0735129 ] } },
{ "type": "Feature", "properties": { "CNPJ": 43278609000130, "AGENTE": "GISLAINE_BOTELHO", "ACAO": "REALIZAR_PRIMEIRA_VISITA", "RAZAO_SOCIAL": "GU_COMERCIO_DE_TINTAS_LTDA", "ENDERECO": "RUA_DOUTOR_FONTES_JUNIOR_580_ALTO_DO_CARDOSO_PINDAMONHANGABA", "CIDADE": "PINDAMONHANGABA", "LATITUDE": -22.9364263, "LONGITUDE": -45.4662427 }, "geometry": { "type": "Point", "coordinates": [ -45.4662427, -22.9364263 ] } },
{ "type": "Feature", "properties": { "CNPJ": 52593614000128, "AGENTE": "GISLAINE_BOTELHO", "ACAO": "REALIZAR_PRIMEIRA_VISITA", "RAZAO_SOCIAL": "MVA_AUTOS_E_EMPREENDIMENTOS_LTDA", "ENDERECO": "RUA_DOUTOR_FONTES_JUNIOR_750_ALTO_DO_CARDOSO_PINDAMONHANGABA", "CIDADE": "PINDAMONHANGABA", "LATITUDE": -22.9373275, "LONGITUDE": -45.4676232 }, "geometry": { "type": "Point", "coordinates": [ -45.4676232, -22.9373275 ] } },
{ "type": "Feature", "properties": { "CNPJ": 38152127000107, "AGENTE": "GISLAINE_BOTELHO", "ACAO": "REALIZAR_PRIMEIRA_VISITA", "RAZAO_SOCIAL": "ROYALE_MATERIAIS_&_PROJETOS_ELETRICOS_LTDA", "ENDERECO": "RUA_DOUTOR_GREGORIO_COSTA_220_CENTRO_PINDAMONHANGABA", "CIDADE": "PINDAMONHANGABA", "LATITUDE": -22.9278634, "LONGITUDE": -45.459371 }, "geometry": { "type": "Point", "coordinates": [ -45.459371, -22.9278634 ] } },
{ "type": "Feature", "properties": { "CNPJ": 11627177000210, "AGENTE": "GISLAINE_BOTELHO", "ACAO": "REALIZAR_PRIMEIRA_VISITA", "RAZAO_SOCIAL": "CENTRO_DE_FORMACAO_DE_CONDUTORES_HORIZONTE_LTDA", "ENDERECO": "RUA_DOUTOR_GREGORIO_COSTA_94_CENTRO_PINDAMONHANGABA", "CIDADE": "PINDAMONHANGABA", "LATITUDE": -22.9263602, "LONGITUDE": -45.4597545 }, "geometry": { "type": "Point", "coordinates": [ -45.4597545, -22.9263602 ] } },
{ "type": "Feature", "properties": { "CNPJ": 44251638000170, "AGENTE": "GISLAINE_BOTELHO", "ACAO": "REALIZAR_PRIMEIRA_VISITA", "RAZAO_SOCIAL": "SOCIEDADE_COMERCIAL_PEREIRA_E_DE_MIGUEL_LTDA", "ENDERECO": "RUA_DOUTOR_GUSTAVO_ADOLFO_RAMOS_MELLO_52_CHACARA_DA_GALEGA_PINDAMONHANGABA", "CIDADE": "PINDAMONHANGABA", "LATITUDE": -22.9314774, "LONGITUDE": -45.4625119 }, "geometry": { "type": "Point", "coordinates": [ -45.4625119, -22.9314774 ] } },
{ "type": "Feature", "properties": { "CNPJ": 52253034000191, "AGENTE": "GISLAINE_BOTELHO", "ACAO": "REALIZAR_PRIMEIRA_VISITA", "RAZAO_SOCIAL": "JOAO_GABRIEL_LOURENCO_SERVICOS_E_TRANSPORTES_LTDA", "ENDERECO": "RUA_DOUTOR_GUSTAVO_DE_GODOY_27_CENTRO_PINDAMONHANGABA", "CIDADE": "PINDAMONHANGABA", "LATITUDE": -22.926545, "LONGITUDE": -45.4623667 }, "geometry": { "type": "Point", "coordinates": [ -45.4623667, -22.926545 ] } },
{ "type": "Feature", "properties": { "CNPJ": 27194027000119, "AGENTE": "GISLAINE_BOTELHO", "ACAO": "REALIZAR_PRIMEIRA_VISITA", "RAZAO_SOCIAL": "PAIM_ODONTOLOGIA_LTDA", "ENDERECO": "RUA_DOUTOR_GUSTAVO_DE_GODOY_280_CENTRO_PINDAMONHANGABA", "CIDADE": "PINDAMONHANGABA", "LATITUDE": -22.926349, "LONGITUDE": -45.4649209 }, "geometry": { "type": "Point", "coordinates": [ -45.4649209, -22.926349 ] } },
{ "type": "Feature", "properties": { "CNPJ": 35569124000177, "AGENTE": "GISLAINE_BOTELHO", "ACAO": "REALIZAR_PRIMEIRA_VISITA", "RAZAO_SOCIAL": "LUCIA_MARIA_BRAZ", "ENDERECO": "RUA_DOUTOR_GUSTAVO_DE_GODOY_299_CENTRO_PINDAMONHANGABA", "CIDADE": "PINDAMONHANGABA", "LATITUDE": -22.9264235, "LONGITUDE": -45.4650712 }, "geometry": { "type": "Point", "coordinates": [ -45.4650712, -22.9264235 ] } },
{ "type": "Feature", "properties": { "CNPJ": 9311701000116, "AGENTE": "GISLAINE_BOTELHO", "ACAO": "REALIZAR_PRIMEIRA_VISITA", "RAZAO_SOCIAL": "LUCIANA_DA_SILVA_CORREARD_VEIGA", "ENDERECO": "RUA_DOUTOR_GUSTAVO_DE_GODOY_36_CENTRO_PINDAMONHANGABA", "CIDADE": "PINDAMONHANGABA", "LATITUDE": -22.9264697, "LONGITUDE": -45.4624783 }, "geometry": { "type": "Point", "coordinates": [ -45.4624783, -22.9264697 ] } },
{ "type": "Feature", "properties": { "CNPJ": 13073807000104, "AGENTE": "GISLAINE_BOTELHO", "ACAO": "REALIZAR_PRIMEIRA_VISITA", "RAZAO_SOCIAL": "MARIA_LETICIA_BARRA_ZAITER", "ENDERECO": "RUA_DOUTOR_GUSTAVO_DE_GODOY_37_VILA_NAIR_PINDAMONHANGABA", "CIDADE": "PINDAMONHANGABA", "LATITUDE": -22.9275555, "LONGITUDE": -45.4634917 }, "geometry": { "type": "Point", "coordinates": [ -45.4634917, -22.9275555 ] } },
{ "type": "Feature", "properties": { "CNPJ": 10218530000164, "AGENTE": "GISLAINE_BOTELHO", "ACAO": "REALIZAR_PRIMEIRA_VISITA", "RAZAO_SOCIAL": "KARLA_CESAR_CAMPOS", "ENDERECO": "RUA_DOUTOR_GUSTAVO_DE_GODOY_450_VILA_NAIR_PINDAMONHANGABA", "CIDADE": "PINDAMONHANGABA", "LATITUDE": -22.9262517, "LONGITUDE": -45.46623 }, "geometry": { "type": "Point", "coordinates": [ -45.46623, -22.9262517 ] } },
{ "type": "Feature", "properties": { "CNPJ": 39831728000109, "AGENTE": "GISLAINE_BOTELHO", "ACAO": "REALIZAR_PRIMEIRA_VISITA", "RAZAO_SOCIAL": "OTICA_DOUTOR_GUSTAVO_DE_GODOY_LTDA", "ENDERECO": "RUA_DOUTOR_GUSTAVO_DE_GODOY_49_CENTRO_PINDAMONHANGABA", "CIDADE": "PINDAMONHANGABA", "LATITUDE": -22.9264347, "LONGITUDE": -45.4626349 }, "geometry": { "type": "Point", "coordinates": [ -45.4626349, -22.9264347 ] } },
{ "type": "Feature", "properties": { "CNPJ": 36081187000142, "AGENTE": "GISLAINE_BOTELHO", "ACAO": "REALIZAR_PRIMEIRA_VISITA", "RAZAO_SOCIAL": "GABRIEL_RAMOS_FERREIRA", "ENDERECO": "RUA_DOUTOR_GUSTAVO_DE_GODOY_506_VILA_NAIR_PINDAMONHANGABA", "CIDADE": "PINDAMONHANGABA", "LATITUDE": -22.9261144, "LONGITUDE": -45.467286 }, "geometry": { "type": "Point", "coordinates": [ -45.467286, -22.9261144 ] } },
{ "type": "Feature", "properties": { "CNPJ": 6881736000100, "AGENTE": "GISLAINE_BOTELHO", "ACAO": "REALIZAR_PRIMEIRA_VISITA", "RAZAO_SOCIAL": "APARECIDA_CRISTIANE_VESTUARIO_LTDA", "ENDERECO": "RUA_DOUTOR_GUSTAVO_DE_GODOY_64_VILA_NAIR_PINDAMONHANGABA", "CIDADE": "PINDAMONHANGABA", "LATITUDE": -22.9270359, "LONGITUDE": -45.46202 }, "geometry": { "type": "Point", "coordinates": [ -45.46202, -22.9270359 ] } },
{ "type": "Feature", "properties": { "CNPJ": 7051409000186, "AGENTE": "GISLAINE_BOTELHO", "ACAO": "REALIZAR_PRIMEIRA_VISITA", "RAZAO_SOCIAL": "INACIO_DOS_SANTOS_NETO_JEANS", "ENDERECO": "RUA_DOUTOR_GUSTAVO_DE_GODOY_84_VILA_NAIR_PINDAMONHANGABA", "CIDADE": "PINDAMONHANGABA", "LATITUDE": -22.9270359, "LONGITUDE": -45.46202 }, "geometry": { "type": "Point", "coordinates": [ -45.46202, -22.9270359 ] } },
{ "type": "Feature", "properties": { "CNPJ": 54452628000157, "AGENTE": "GISLAINE_BOTELHO", "ACAO": "REALIZAR_PRIMEIRA_VISITA", "RAZAO_SOCIAL": "CENTERPRINT_GRAFICA_LTDA", "ENDERECO": "RUA_DOUTOR_LAERTE_MACHADO_GUIMARAES_878_VILA_BOURGHESE_PINDAMONHANGABA", "CIDADE": "PINDAMONHANGABA", "LATITUDE": -22.9325678, "LONGITUDE": -45.454205 }, "geometry": { "type": "Point", "coordinates": [ -45.454205, -22.9325678 ] } },
{ "type": "Feature", "properties": { "CNPJ": 20414529000169, "AGENTE": "GISLAINE_BOTELHO", "ACAO": "REALIZAR_PRIMEIRA_VISITA", "RAZAO_SOCIAL": "KPF_ENGENHARIA_E_PERICIA_LTDA", "ENDERECO": "RUA_DOUTOR_MATHEUS_ROMEIRO_143_CENTRO_PINDAMONHANGABA", "CIDADE": "PINDAMONHANGABA", "LATITUDE": -22.92607, "LONGITUDE": -45.4653683 }, "geometry": { "type": "Point", "coordinates": [ -45.4653683, -22.92607 ] } },
{ "type": "Feature", "properties": { "CNPJ": 10218672000121, "AGENTE": "GISLAINE_BOTELHO", "ACAO": "REALIZAR_PRIMEIRA_VISITA", "RAZAO_SOCIAL": "SUPERMERCADO_IRMAOS_LOURENCO_COMERCIO_DE_ALIMENTOS_LTDA", "ENDERECO": "RUA_DOUTOR_MATHEUS_ROMEIRO_160_CENTRO_PINDAMONHANGABA", "CIDADE": "PINDAMONHANGABA", "LATITUDE": -22.9262385, "LONGITUDE": -45.4657096 }, "geometry": { "type": "Point", "coordinates": [ -45.4657096, -22.9262385 ] } },
{ "type": "Feature", "properties": { "CNPJ": 49217543000154, "AGENTE": "GISLAINE_BOTELHO", "ACAO": "REALIZAR_PRIMEIRA_VISITA", "RAZAO_SOCIAL": "JN_PRODUTOS_NATURAIS_LTDA", "ENDERECO": "RUA_DOUTOR_OSCAR_DE_ALMEIDA_7_CENTRO_QUELUZ", "CIDADE": "QUELUZ", "LATITUDE": -22.5404283, "LONGITUDE": -44.7730117 }, "geometry": { "type": "Point", "coordinates": [ -44.7730117, -22.5404283 ] } },
{ "type": "Feature", "properties": { "CNPJ": 53924076000170, "AGENTE": "GISLAINE_BOTELHO", "ACAO": "REALIZAR_PRIMEIRA_VISITA", "RAZAO_SOCIAL": "INTERDIALOGOS_TRANSFORMACAO_PLURAL_LTDA", "ENDERECO": "RUA_FRANCISCO_GLICERIO_83_VILA_NAIR_PINDAMONHANGABA", "CIDADE": "PINDAMONHANGABA", "LATITUDE": -22.9255713, "LONGITUDE": -45.4673804 }, "geometry": { "type": "Point", "coordinates": [ -45.4673804, -22.9255713 ] } },
{ "type": "Feature", "properties": { "CNPJ": 34346774000190, "AGENTE": "GISLAINE_BOTELHO", "ACAO": "REALIZAR_PRIMEIRA_VISITA", "RAZAO_SOCIAL": "TAIS_RODRIGUES_RIBEIRO", "ENDERECO": "RUA_MAESTRO_JOAO_BATISTA_JULIAO_33_CENTRO_SILVEIRAS", "CIDADE": "SILVEIRAS", "LATITUDE": -22.6661056, "LONGITUDE": -44.8515367 }, "geometry": { "type": "Point", "coordinates": [ -44.8515367, -22.6661056 ] } },
{ "type": "Feature", "properties": { "CNPJ": 1253267000153, "AGENTE": "GISLAINE_BOTELHO", "ACAO": "REALIZAR_PRIMEIRA_VISITA", "RAZAO_SOCIAL": "CARLOS_JOSE_DOS_SANTOS_EMBALAGENS", "ENDERECO": "RUA_MAJOR_CARLOS_RIBEIRO_31_CENTRO_PIQUETE", "CIDADE": "PIQUETE", "LATITUDE": -22.6151833, "LONGITUDE": -45.1777033 }, "geometry": { "type": "Point", "coordinates": [ -45.1777033, -22.6151833 ] } },
{ "type": "Feature", "properties": { "CNPJ": 2804069000101, "AGENTE": "GISLAINE_BOTELHO", "ACAO": "REALIZAR_PRIMEIRA_VISITA", "RAZAO_SOCIAL": "MAURICIO_SAKIHAMA", "ENDERECO": "RUA_MAJOR_JOSE_DOS_SANTOS_MOREIRA_1000_VILA_BOURGHESE_PINDAMONHANGABA", "CIDADE": "PINDAMONHANGABA", "LATITUDE": -22.9307547, "LONGITUDE": -45.4543104 }, "geometry": { "type": "Point", "coordinates": [ -45.4543104, -22.9307547 ] } },
{ "type": "Feature", "properties": { "CNPJ": 8032928000160, "AGENTE": "GISLAINE_BOTELHO", "ACAO": "REALIZAR_PRIMEIRA_VISITA", "RAZAO_SOCIAL": "GUILHERME_KOBBAZ_DARRIGO_&_CIA_LTDA", "ENDERECO": "RUA_MAJOR_JOSE_DOS_SANTOS_MOREIRA_690_VILA_BOURGHESE_PINDAMONHANGABA", "CIDADE": "PINDAMONHANGABA", "LATITUDE": -22.9309878, "LONGITUDE": -45.4572116 }, "geometry": { "type": "Point", "coordinates": [ -45.4572116, -22.9309878 ] } },
{ "type": "Feature", "properties": { "CNPJ": 7811209000184, "AGENTE": "GISLAINE_BOTELHO", "ACAO": "REALIZAR_PRIMEIRA_VISITA", "RAZAO_SOCIAL": "JOCIMARA_DA_SILVA_LIVRAMENTO_LIMA", "ENDERECO": "RUA_MAJOR_JOSE_DOS_SANTOS_MOREIRA_775_VILA_BOURGHESE_PINDAMONHANGABA", "CIDADE": "PINDAMONHANGABA", "LATITUDE": -22.9309613, "LONGITUDE": -45.4546536 }, "geometry": { "type": "Point", "coordinates": [ -45.4546536, -22.9309613 ] } },
{ "type": "Feature", "properties": { "CNPJ": 1831147000196, "AGENTE": "GISLAINE_BOTELHO", "ACAO": "REALIZAR_PRIMEIRA_VISITA", "RAZAO_SOCIAL": "MARLENE_DE_ARAUJO_DOS_REIS", "ENDERECO": "RUA_MAJOR_SANTANA_51_CENTRO_CUNHA", "CIDADE": "CUNHA", "LATITUDE": -23.0737902, "LONGITUDE": -44.9593488 }, "geometry": { "type": "Point", "coordinates": [ -44.9593488, -23.0737902 ] } },
{ "type": "Feature", "properties": { "CNPJ": 3692086000159, "AGENTE": "GISLAINE_BOTELHO", "ACAO": "REALIZAR_PRIMEIRA_VISITA", "RAZAO_SOCIAL": "JOSE_REOLON_FILHO_MATERIAIS_PARA_CONSTRUCAO_LTDA", "ENDERECO": "RUA_MANOEL_IGNACIO_MARCONDES_ROMEIRO_1285_VILA_RICA_PINDAMONHANGABA", "CIDADE": "PINDAMONHANGABA", "LATITUDE": -22.9391332, "LONGITUDE": -45.4816952 }, "geometry": { "type": "Point", "coordinates": [ -45.4816952, -22.9391332 ] } },
{ "type": "Feature", "properties": { "CNPJ": 26425907000196, "AGENTE": "GISLAINE_BOTELHO", "ACAO": "REALIZAR_PRIMEIRA_VISITA", "RAZAO_SOCIAL": "INTEGRACAO_-_CLINICA_DE_SAUDE_LTDA", "ENDERECO": "RUA_OSWALDO_CRUZ_75_PARQUE_SAO_BENEDITO_PINDAMONHANGABA", "CIDADE": "PINDAMONHANGABA", "LATITUDE": -22.9314438, "LONGITUDE": -45.4574006 }, "geometry": { "type": "Point", "coordinates": [ -45.4574006, -22.9314438 ] } },
{ "type": "Feature", "properties": { "CNPJ": 9441497000158, "AGENTE": "GISLAINE_BOTELHO", "ACAO": "REALIZAR_PRIMEIRA_VISITA", "RAZAO_SOCIAL": "VANDO_GUERREIRO_SANTOS", "ENDERECO": "RUA_PRUDENTE_DE_MORAES_100_CENTRO_QUELUZ", "CIDADE": "QUELUZ", "LATITUDE": -22.5393391, "LONGITUDE": -44.7736735 }, "geometry": { "type": "Point", "coordinates": [ -44.7736735, -22.5393391 ] } },
{ "type": "Feature", "properties": { "CNPJ": 43679657000210, "AGENTE": "GISLAINE_BOTELHO", "ACAO": "REALIZAR_PRIMEIRA_VISITA", "RAZAO_SOCIAL": "BRENO_A._GARCIA_SALGADO", "ENDERECO": "RUA_PRUDENTE_DE_MORAES_363_CENTRO_PINDAMONHANGABA", "CIDADE": "PINDAMONHANGABA", "LATITUDE": -22.9234096, "LONGITUDE": -45.4586488 }, "geometry": { "type": "Point", "coordinates": [ -45.4586488, -22.9234096 ] } },
{ "type": "Feature", "properties": { "CNPJ": 27105850000100, "AGENTE": "GISLAINE_BOTELHO", "ACAO": "REALIZAR_PRIMEIRA_VISITA", "RAZAO_SOCIAL": "ADRIANO_JOSE_RODRIGUES", "ENDERECO": "RUA_QUINZE_DE_NOVEMBRO_109_CENTRO_AREIAS", "CIDADE": "AREIAS", "LATITUDE": -22.5810365, "LONGITUDE": -44.698346 }, "geometry": { "type": "Point", "coordinates": [ -44.698346, -22.5810365 ] } },
{ "type": "Feature", "properties": { "CNPJ": 7400932000170, "AGENTE": "GISLAINE_BOTELHO", "ACAO": "REALIZAR_PRIMEIRA_VISITA", "RAZAO_SOCIAL": "MARTINS_E_COELHO_COMERCIO_DE_RECICLAVEIS_LTDA", "ENDERECO": "RUA_SANTA_BRANCA_100_CIDADE_NOVA_PINDAMONHANGABA", "CIDADE": "PINDAMONHANGABA", "LATITUDE": -22.951585, "LONGITUDE": -45.4074783 }, "geometry": { "type": "Point", "coordinates": [ -45.4074783, -22.951585 ] } },
{ "type": "Feature", "properties": { "CNPJ": 4830676000163, "AGENTE": "GISLAINE_BOTELHO", "ACAO": "REALIZAR_PRIMEIRA_VISITA", "RAZAO_SOCIAL": "METALURGICA_L_C_LTDA", "ENDERECO": "RUA_SANTA_BRANCA_50_CIDADE_NOVA_PINDAMONHANGABA", "CIDADE": "PINDAMONHANGABA", "LATITUDE": -22.9506383, "LONGITUDE": -45.407675 }, "geometry": { "type": "Point", "coordinates": [ -45.407675, -22.9506383 ] } },
{ "type": "Feature", "properties": { "CNPJ": 48401699000128, "AGENTE": "GISLAINE_BOTELHO", "ACAO": "REALIZAR_PRIMEIRA_VISITA", "RAZAO_SOCIAL": "JOSE_SAVIO_MENEZES_DEL_MONACO", "ENDERECO": "TRAVESSA_CENTRO_COM_DEZ_DE_JULHO_35_CENTRO_PINDAMONHANGABA", "CIDADE": "PINDAMONHANGABA", "LATITUDE": -22.9258684, "LONGITUDE": -45.4635361 }, "geometry": { "type": "Point", "coordinates": [ -45.4635361, -22.9258684 ] } },
{ "type": "Feature", "properties": { "CNPJ": 32077445000328, "AGENTE": "GISLAINE_BOTELHO", "ACAO": "REALIZAR_PRIMEIRA_VISITA", "RAZAO_SOCIAL": "MAYARA_LEME_GOMES", "ENDERECO": "TRAVESSA_MARQUES_DO_HERVAL_60_CENTRO_PINDAMONHANGABA", "CIDADE": "PINDAMONHANGABA", "LATITUDE": -22.9243956, "LONGITUDE": -45.4634701 }, "geometry": { "type": "Point", "coordinates": [ -45.4634701, -22.9243956 ] } },
{ "type": "Feature", "properties": { "CNPJ": 27088344000150, "AGENTE": "GISLAINE_BOTELHO", "ACAO": "REALIZAR_SEGUNDA_VISITA", "RAZAO_SOCIAL": "MARCELO_LOIOLA_MULATO_-_ILUMINE", "ENDERECO": "AVENIDA_ALBUQUERQUE_LINS_530_JARDIM_ROSELY_PINDAMONHANGABA", "CIDADE": "PINDAMONHANGABA", "LATITUDE": -22.9336881, "LONGITUDE": -45.4603247 }, "geometry": { "type": "Point", "coordinates": [ -45.4603247, -22.9336881 ] } },
{ "type": "Feature", "properties": { "CNPJ": 47162345000105, "AGENTE": "GISLAINE_BOTELHO", "ACAO": "REALIZAR_SEGUNDA_VISITA", "RAZAO_SOCIAL": "N._M._G._FERREIRA_LATICINIO_-_N_F_LATICINOS", "ENDERECO": "AVENIDA_ALBUQUERQUE_LINS_815_JARDIM_ROSELY_PINDAMONHANGABA", "CIDADE": "PINDAMONHANGABA", "LATITUDE": -22.936115, "LONGITUDE": -45.4598683 }, "geometry": { "type": "Point", "coordinates": [ -45.4598683, -22.936115 ] } },
{ "type": "Feature", "properties": { "CNPJ": 23653939000150, "AGENTE": "GISLAINE_BOTELHO", "ACAO": "REALIZAR_SEGUNDA_VISITA", "RAZAO_SOCIAL": "WANDA_AUXILIADORA_SOARES_16272879814_-_ARTE__BELEZA", "ENDERECO": "AVENIDA_ALBUQUERQUE_LINS_970_SAO_BENEDITO_PINDAMONHANGABA", "CIDADE": "PINDAMONHANGABA", "LATITUDE": -22.9377962, "LONGITUDE": -45.4599483 }, "geometry": { "type": "Point", "coordinates": [ -45.4599483, -22.9377962 ] } },
{ "type": "Feature", "properties": { "CNPJ": 12607825000158, "AGENTE": "GISLAINE_BOTELHO", "ACAO": "REALIZAR_SEGUNDA_VISITA", "RAZAO_SOCIAL": "12.607.825_PAULO_MARCELO_GONCALVES_-_P_M_G_MARCENARIA", "ENDERECO": "AVENIDA_ANTONIO_PINHEIRO_JUNIOR_1669_JARDIM_CRISTINA_PINDAMONHANGABA", "CIDADE": "PINDAMONHANGABA", "LATITUDE": -22.949558, "LONGITUDE": -45.4543136 }, "geometry": { "type": "Point", "coordinates": [ -45.4543136, -22.949558 ] } },
{ "type": "Feature", "properties": { "CNPJ": 7519371000395, "AGENTE": "GISLAINE_BOTELHO", "ACAO": "REALIZAR_SEGUNDA_VISITA", "RAZAO_SOCIAL": "B._T._LUBRIFICANTES_LTDA._-_CASA_DO_OLEO", "ENDERECO": "AVENIDA_BENEDITO_RIBEIRO_DA_CUNHA_115_JARDIM_ROSELY_PINDAMONHANGABA", "CIDADE": "PINDAMONHANGABA", "LATITUDE": -22.9353433, "LONGITUDE": -45.460925 }, "geometry": { "type": "Point", "coordinates": [ -45.460925, -22.9353433 ] } },
{ "type": "Feature", "properties": { "CNPJ": 60191999000125, "AGENTE": "GISLAINE_BOTELHO", "ACAO": "REALIZAR_SEGUNDA_VISITA", "RAZAO_SOCIAL": "RC_FERRAGENS_ACO_ARMADO_LTDA_-_R_C_FERRAGENS", "ENDERECO": "AVENIDA_BENEDITO_RIBEIRO_DA_CUNHA_63_JARDIM_ROSELY_PINDAMONHANGABA", "CIDADE": "PINDAMONHANGABA", "LATITUDE": -22.935158, "LONGITUDE": -45.4615526 }, "geometry": { "type": "Point", "coordinates": [ -45.4615526, -22.935158 ] } },
{ "type": "Feature", "properties": { "CNPJ": 14877719000110, "AGENTE": "GISLAINE_BOTELHO", "ACAO": "REALIZAR_SEGUNDA_VISITA", "RAZAO_SOCIAL": "MADEIREIRA_IDEAL_LTDA_-_MADEIRAS_IDEAL", "ENDERECO": "AVENIDA_BENEDITO_RIBEIRO_DA_CUNHA_97_JARDIM_ROSELY_PINDAMONHANGABA", "CIDADE": "PINDAMONHANGABA", "LATITUDE": -22.9353295, "LONGITUDE": -45.4610606 }, "geometry": { "type": "Point", "coordinates": [ -45.4610606, -22.9353295 ] } },
{ "type": "Feature", "properties": { "CNPJ": 52586879000107, "AGENTE": "GISLAINE_BOTELHO", "ACAO": "REALIZAR_SEGUNDA_VISITA", "RAZAO_SOCIAL": "52.586.879_PAOLA_DE_FREITAS_SILVA_-_CASA_DE_RACAO_ESTRELA_DO_VALE", "ENDERECO": "AVENIDA_DAS_MARGARIDAS_651_RESIDENCIAL_VALE_DAS_ACACIAS_PINDAMONHANGABA", "CIDADE": "PINDAMONHANGABA", "LATITUDE": -22.9072633, "LONGITUDE": -45.3744485 }, "geometry": { "type": "Point", "coordinates": [ -45.3744485, -22.9072633 ] } },
{ "type": "Feature", "properties": { "CNPJ": 59024773000150, "AGENTE": "GISLAINE_BOTELHO", "ACAO": "REALIZAR_SEGUNDA_VISITA", "RAZAO_SOCIAL": "59.024.773_GIOVANA_LUCIANA_DIAS_VIEIRA_-_MARCOS_MOTORS_GARAGEM", "ENDERECO": "AVENIDA_DAS_ORQUIDEAS_561_VALE_DAS_ACACIAS_PINDAMONHANGABA", "CIDADE": "PINDAMONHANGABA", "LATITUDE": -22.9087183, "LONGITUDE": -45.3756483 }, "geometry": { "type": "Point", "coordinates": [ -45.3756483, -22.9087183 ] } },
{ "type": "Feature", "properties": { "CNPJ": 14636756000136, "AGENTE": "GISLAINE_BOTELHO", "ACAO": "REALIZAR_SEGUNDA_VISITA", "RAZAO_SOCIAL": "MARIA_LUCINEIDE_OKINO_12783462877_-_NEIDDE_FANTASIAS", "ENDERECO": "AVENIDA_DOUTOR_FRANCISCO_LESSA_JUNIOR_871_CHACARA_GALEGA_PINDAMONHANGABA", "CIDADE": "PINDAMONHANGABA", "LATITUDE": -22.9357341, "LONGITUDE": -45.4677017 }, "geometry": { "type": "Point", "coordinates": [ -45.4677017, -22.9357341 ] } },
{ "type": "Feature", "properties": { "CNPJ": 41953538000106, "AGENTE": "GISLAINE_BOTELHO", "ACAO": "REALIZAR_SEGUNDA_VISITA", "RAZAO_SOCIAL": "DUOFIT_SAUDE_E_DESEMPENHO_LTDA_-_DUOFIT", "ENDERECO": "AVENIDA_FORTUNATO_MOREIRA_141_CENTRO_PINDAMONHANGABA", "CIDADE": "PINDAMONHANGABA", "LATITUDE": -22.927958, "LONGITUDE": -45.4581018 }, "geometry": { "type": "Point", "coordinates": [ -45.4581018, -22.927958 ] } },
{ "type": "Feature", "properties": { "CNPJ": 41870042000160, "AGENTE": "GISLAINE_BOTELHO", "ACAO": "REALIZAR_SEGUNDA_VISITA", "RAZAO_SOCIAL": "JAQUELINE_IZIDORO_DA_SILVA_SOARES_SANTOS_DE_ASSIS_43461560880_-_MALHARIA_KARISMA", "ENDERECO": "AVENIDA_FORTUNATO_MOREIRA_237_CENTRO_PINDAMONHANGABA", "CIDADE": "PINDAMONHANGABA", "LATITUDE": -22.9279161, "LONGITUDE": -45.457244 }, "geometry": { "type": "Point", "coordinates": [ -45.457244, -22.9279161 ] } },
{ "type": "Feature", "properties": { "CNPJ": 2658586000101, "AGENTE": "GISLAINE_BOTELHO", "ACAO": "REALIZAR_SEGUNDA_VISITA", "RAZAO_SOCIAL": "RODAS_FAST_MOTOS_MECANICA_E_COMERCIALIZACAO_DE_MOTOS_E_PECAS_LTDA_-_RODAS_FAST_MOTOS", "ENDERECO": "AVENIDA_FORTUNATO_MOREIRA_551_CENTRO_PINDAMONHANGABA", "CIDADE": "PINDAMONHANGABA", "LATITUDE": -22.92786, "LONGITUDE": -45.4541633 }, "geometry": { "type": "Point", "coordinates": [ -45.4541633, -22.92786 ] } },
{ "type": "Feature", "properties": { "CNPJ": 96333299000175, "AGENTE": "GISLAINE_BOTELHO", "ACAO": "REALIZAR_SEGUNDA_VISITA", "RAZAO_SOCIAL": "96.333.299_MAURO_MOREIRA_DIAS_-_TOKIO_BILHARES", "ENDERECO": "AVENIDA_FORTUNATO_MOREIRA_622_CENTRO_PINDAMONHANGABA", "CIDADE": "PINDAMONHANGABA", "LATITUDE": -22.9282242, "LONGITUDE": -45.4534229 }, "geometry": { "type": "Point", "coordinates": [ -45.4534229, -22.9282242 ] } },
{ "type": "Feature", "properties": { "CNPJ": 40238629000199, "AGENTE": "GISLAINE_BOTELHO", "ACAO": "REALIZAR_SEGUNDA_VISITA", "RAZAO_SOCIAL": "VALERIA_QUERIDO_MONTEIRO_DE_ALBERGARIA_-_LUMINATUS", "ENDERECO": "AVENIDA_JOSE_MONTEIRO_ROMAO_260_RESIDENCIAL_MANTIQUEIRA_PINDAMONHANGABA", "CIDADE": "PINDAMONHANGABA", "LATITUDE": -22.8876861, "LONGITUDE": -45.3669084 }, "geometry": { "type": "Point", "coordinates": [ -45.3669084, -22.8876861 ] } },
{ "type": "Feature", "properties": { "CNPJ": 54976585000109, "AGENTE": "GISLAINE_BOTELHO", "ACAO": "REALIZAR_SEGUNDA_VISITA", "RAZAO_SOCIAL": "PDM_MANUTENCAO_MECANICA_LTDA_-_P_D_M_MANUTENCAO", "ENDERECO": "AVENIDA_MANOEL_CESAR_RIBEIRO_4105_CIDADE_NOVA_PINDAMONHANGABA", "CIDADE": "PINDAMONHANGABA", "LATITUDE": -22.94572, "LONGITUDE": -45.4116511 }, "geometry": { "type": "Point", "coordinates": [ -45.4116511, -22.94572 ] } },
{ "type": "Feature", "properties": { "CNPJ": 33433401000194, "AGENTE": "GISLAINE_BOTELHO", "ACAO": "REALIZAR_SEGUNDA_VISITA", "RAZAO_SOCIAL": "33.433.401_LUCIANA_GONCALVES_DOS_SANTOS_-_LIDER_CONFECCOES", "ENDERECO": "AVENIDA_MARIA_DE_JESUS_CASTILHO_52_RESIDENCIAL_E_COMERCIAL_PORTAL_DOS_EUCALIPTOS_PINDAMONHANGABA", "CIDADE": "PINDAMONHANGABA", "LATITUDE": -22.8909946, "LONGITUDE": -45.3852755 }, "geometry": { "type": "Point", "coordinates": [ -45.3852755, -22.8909946 ] } },
{ "type": "Feature", "properties": { "CNPJ": 47947748000160, "AGENTE": "GISLAINE_BOTELHO", "ACAO": "REALIZAR_SEGUNDA_VISITA", "RAZAO_SOCIAL": "VANESSA_CRISTINA_MOREIRA_DE_OLIVEIRA_37100591864_-_VANESSA_MOREIRA", "ENDERECO": "AVENIDA_NOSSA_SENHORA_DO_BOM_SUCESSO_1282_ALTO_DO_CARDOSO_PINDAMONHANGABA", "CIDADE": "PINDAMONHANGABA", "LATITUDE": -22.9365996, "LONGITUDE": -45.4621142 }, "geometry": { "type": "Point", "coordinates": [ -45.4621142, -22.9365996 ] } },
{ "type": "Feature", "properties": { "CNPJ": 69112803000134, "AGENTE": "GISLAINE_BOTELHO", "ACAO": "REALIZAR_SEGUNDA_VISITA", "RAZAO_SOCIAL": "JOSE_HERNANDES_LOBATO_-_HERNANDES_AUTOMOVEIS", "ENDERECO": "AVENIDA_NOSSA_SENHORA_DO_BOM_SUCESSO_1355_ALTO_DO_CARDOSO_PINDAMONHANGABA", "CIDADE": "PINDAMONHANGABA", "LATITUDE": -22.9372861, "LONGITUDE": -45.4618916 }, "geometry": { "type": "Point", "coordinates": [ -45.4618916, -22.9372861 ] } },
{ "type": "Feature", "properties": { "CNPJ": 29052558000100, "AGENTE": "GISLAINE_BOTELHO", "ACAO": "REALIZAR_SEGUNDA_VISITA", "RAZAO_SOCIAL": "LEANDRO_ESTEVAM_DA_SILVA_-_FENIX_G_7_CAR", "ENDERECO": "AVENIDA_PRINCESA_DO_NORTE_238_CIDADE_NOVA_PINDAMONHANGABA", "CIDADE": "PINDAMONHANGABA", "LATITUDE": -22.9465179, "LONGITUDE": -45.4090787 }, "geometry": { "type": "Point", "coordinates": [ -45.4090787, -22.9465179 ] } },
{ "type": "Feature", "properties": { "CNPJ": 20776240000190, "AGENTE": "GISLAINE_BOTELHO", "ACAO": "REALIZAR_SEGUNDA_VISITA", "RAZAO_SOCIAL": "ANTONIA_GERALDA_DA_TRINDADE_15008422812_-_BICICLETARIA_SANTO_ANTONIO", "ENDERECO": "AVENIDA_PRINCESA_DO_NORTE_965_CIDADE_NOVA_PINDAMONHANGABA", "CIDADE": "PINDAMONHANGABA", "LATITUDE": -22.9477065, "LONGITUDE": -45.4081669 }, "geometry": { "type": "Point", "coordinates": [ -45.4081669, -22.9477065 ] } },
{ "type": "Feature", "properties": { "CNPJ": 42841599000136, "AGENTE": "GISLAINE_BOTELHO", "ACAO": "REALIZAR_SEGUNDA_VISITA", "RAZAO_SOCIAL": "JULIANA_BENITES_SOUZA_31540413896_-_ARMARINHOS_DIVAL", "ENDERECO": "AVENIDA_RIO_DE_JANEIRO_370_CIDADE_NOVA_PINDAMONHANGABA", "CIDADE": "PINDAMONHANGABA", "LATITUDE": -22.9440704, "LONGITUDE": -45.4088652 }, "geometry": { "type": "Point", "coordinates": [ -45.4088652, -22.9440704 ] } },
{ "type": "Feature", "properties": { "CNPJ": 55022173000100, "AGENTE": "GISLAINE_BOTELHO", "ACAO": "REALIZAR_SEGUNDA_VISITA", "RAZAO_SOCIAL": "55.022.173_MARIA_DE_LOURDES_DA_CUNHA_PAIXAO_-_DUARTE_FRALDAS", "ENDERECO": "AVENIDA_RIO_DE_JANEIRO_485_CIDADE_NOVA_PINDAMONHANGABA", "CIDADE": "PINDAMONHANGABA", "LATITUDE": -22.9454383, "LONGITUDE": -45.407775 }, "geometry": { "type": "Point", "coordinates": [ -45.407775, -22.9454383 ] } },
{ "type": "Feature", "properties": { "CNPJ": 49535125000105, "AGENTE": "GISLAINE_BOTELHO", "ACAO": "REALIZAR_SEGUNDA_VISITA", "RAZAO_SOCIAL": "49.535.125_WILIAM_RITA_-_NOVA_ERA", "ENDERECO": "AVENIDA_RIO_DE_JANEIRO_637_CIDADE_NOVA_PINDAMONHANGABA", "CIDADE": "PINDAMONHANGABA", "LATITUDE": -22.9463426, "LONGITUDE": -45.4077353 }, "geometry": { "type": "Point", "coordinates": [ -45.4077353, -22.9463426 ] } },
{ "type": "Feature", "properties": { "CNPJ": 23325002000156, "AGENTE": "GISLAINE_BOTELHO", "ACAO": "REALIZAR_SEGUNDA_VISITA", "RAZAO_SOCIAL": "MARIA_AUXILIADORA_GOMES_DE_PAULA_07235255870_-_ARTE_MODAS", "ENDERECO": "AVENIDA_RIO_DE_JANEIRO_719_CIDADE_NOVA_PINDAMONHANGABA", "CIDADE": "PINDAMONHANGABA", "LATITUDE": -22.946596, "LONGITUDE": -45.4077649 }, "geometry": { "type": "Point", "coordinates": [ -45.4077649, -22.946596 ] } },
{ "type": "Feature", "properties": { "CNPJ": 7141201000158, "AGENTE": "GISLAINE_BOTELHO", "ACAO": "REALIZAR_SEGUNDA_VISITA", "RAZAO_SOCIAL": "DANIEL_S_DE_OLIVEIRA_-_CHAVIDRO", "ENDERECO": "AVENIDA_RIO_DE_JANEIRO_842_CIDADE_NOVA_PINDAMONHANGABA", "CIDADE": "PINDAMONHANGABA", "LATITUDE": -22.9482045, "LONGITUDE": -45.4076036 }, "geometry": { "type": "Point", "coordinates": [ -45.4076036, -22.9482045 ] } },
{ "type": "Feature", "properties": { "CNPJ": 57774806000154, "AGENTE": "GISLAINE_BOTELHO", "ACAO": "REALIZAR_SEGUNDA_VISITA", "RAZAO_SOCIAL": "57.774.806_ANDREW_FUENTES_DA_SILVA_-_MANU_STORE", "ENDERECO": "AVENIDA_RIO_DE_JANEIRO_875_CIDADE_NOVA_PINDAMONHANGABA", "CIDADE": "PINDAMONHANGABA", "LATITUDE": -22.9476369, "LONGITUDE": -45.4073596 }, "geometry": { "type": "Point", "coordinates": [ -45.4073596, -22.9476369 ] } },
{ "type": "Feature", "properties": { "CNPJ": 49595680000122, "AGENTE": "GISLAINE_BOTELHO", "ACAO": "REALIZAR_SEGUNDA_VISITA", "RAZAO_SOCIAL": "PIZZARIA_&_PETISCARIA_GAUCHINHO_LTDA_-_PIZZARIA_E_PETISCARARIA_GAUCHINHO", "ENDERECO": "AVENIDA_SAO_PAULO_385_CIDADE_NOVA_PINDAMONHANGABA", "CIDADE": "PINDAMONHANGABA", "LATITUDE": -22.9441631, "LONGITUDE": -45.4076814 }, "geometry": { "type": "Point", "coordinates": [ -45.4076814, -22.9441631 ] } },
{ "type": "Feature", "properties": { "CNPJ": 24109961000105, "AGENTE": "GISLAINE_BOTELHO", "ACAO": "REALIZAR_SEGUNDA_VISITA", "RAZAO_SOCIAL": "ANA_PAULA_DE_OLIVEIRA_FISIOTERAPIA_-_COLUNA_BLINDADA", "ENDERECO": "AVENIDA_SAO_PAULO_482_CIDADE_NOVA_PINDAMONHANGABA", "CIDADE": "PINDAMONHANGABA", "LATITUDE": -22.9442767, "LONGITUDE": -45.4069709 }, "geometry": { "type": "Point", "coordinates": [ -45.4069709, -22.9442767 ] } },
{ "type": "Feature", "properties": { "CNPJ": 27666622000100, "AGENTE": "GISLAINE_BOTELHO", "ACAO": "REALIZAR_SEGUNDA_VISITA", "RAZAO_SOCIAL": "ANA_CAROLINA_DOS_SANTOS_DE_CARVALHO_TEIXEIRA_-_A_D_C_MECANICA_DIESEL", "ENDERECO": "AVENIDA_SAO_PAULO_650_CIDADE_NOVA_PINDAMONHANGABA", "CIDADE": "PINDAMONHANGABA", "LATITUDE": -22.9438399, "LONGITUDE": -45.4051772 }, "geometry": { "type": "Point", "coordinates": [ -45.4051772, -22.9438399 ] } },
{ "type": "Feature", "properties": { "CNPJ": 59151606000170, "AGENTE": "GISLAINE_BOTELHO", "ACAO": "REALIZAR_SEGUNDA_VISITA", "RAZAO_SOCIAL": "BCS_CREDITOS_E_FINANCIAMENTOS_LTDA_-_B_S_CRED", "ENDERECO": "PRACA_DESEMBARGADOR_EDUARDO_DE_CAMPOS_MAIA_16_BOSQUE_DA_PRINCESA_PINDAMONHANGABA", "CIDADE": "PINDAMONHANGABA", "LATITUDE": -22.9233954, "LONGITUDE": -45.4609054 }, "geometry": { "type": "Point", "coordinates": [ -45.4609054, -22.9233954 ] } },
{ "type": "Feature", "properties": { "CNPJ": 361019000163, "AGENTE": "GISLAINE_BOTELHO", "ACAO": "REALIZAR_SEGUNDA_VISITA", "RAZAO_SOCIAL": "C_R_DA_COSTA_FERRAGENS_-_TICO_FERRAGENS", "ENDERECO": "RUA_CELESTE_61_JARDIM_ROSELY_PINDAMONHANGABA", "CIDADE": "PINDAMONHANGABA", "LATITUDE": -22.9379807, "LONGITUDE": -45.4598907 }, "geometry": { "type": "Point", "coordinates": [ -45.4598907, -22.9379807 ] } },
{ "type": "Feature", "properties": { "CNPJ": 8208677000121, "AGENTE": "GISLAINE_BOTELHO", "ACAO": "REALIZAR_SEGUNDA_VISITA", "RAZAO_SOCIAL": "R.A.OLIVEIRA_PECAS_E_ACESSORIOS_DE_BICICLETAS_LTDA_-_TECNALL_AROS", "ENDERECO": "RUA_DO_CONTORNO_45_CAMPINAS_PINDAMONHANGABA", "CIDADE": "PINDAMONHANGABA", "LATITUDE": -22.9500148, "LONGITUDE": -45.4063217 }, "geometry": { "type": "Point", "coordinates": [ -45.4063217, -22.9500148 ] } },
{ "type": "Feature", "properties": { "CNPJ": 48083394000115, "AGENTE": "GISLAINE_BOTELHO", "ACAO": "REALIZAR_SEGUNDA_VISITA", "RAZAO_SOCIAL": "PINDA_COMERCIO_DE_BATERIAS_LTDA_-_BATERIAS_PINDA", "ENDERECO": "RUA_DOUTOR_FONTES_JUNIOR_233_MARIA_AUREA_PINDAMONHANGABA", "CIDADE": "PINDAMONHANGABA", "LATITUDE": -22.9343748, "LONGITUDE": -45.4637387 }, "geometry": { "type": "Point", "coordinates": [ -45.4637387, -22.9343748 ] } },
{ "type": "Feature", "properties": { "CNPJ": 22950049000148, "AGENTE": "GISLAINE_BOTELHO", "ACAO": "REALIZAR_SEGUNDA_VISITA", "RAZAO_SOCIAL": "FABIANO_CESAR_CARVALHO_32268588823_-_BARBEARIA_DO_GIGANTE", "ENDERECO": "RUA_DOUTOR_FONTES_JUNIOR_334_MARIA_AUREA_PINDAMONHANGABA", "CIDADE": "PINDAMONHANGABA", "LATITUDE": -22.9348883, "LONGITUDE": -45.4645591 }, "geometry": { "type": "Point", "coordinates": [ -45.4645591, -22.9348883 ] } },
{ "type": "Feature", "properties": { "CNPJ": 47657052000107, "AGENTE": "GISLAINE_BOTELHO", "ACAO": "REALIZAR_SEGUNDA_VISITA", "RAZAO_SOCIAL": "47.657.052_FERNANDO_SAVIO_MIRANDA_BROCA_JUNIOR_-_VASSOURAS_VITORIA", "ENDERECO": "RUA_DOUTOR_FONTES_JUNIOR_340_MARIA_AUREA_PINDAMONHANGABA", "CIDADE": "PINDAMONHANGABA", "LATITUDE": -22.934938, "LONGITUDE": -45.4645932 }, "geometry": { "type": "Point", "coordinates": [ -45.4645932, -22.934938 ] } },
{ "type": "Feature", "properties": { "CNPJ": 12074037000143, "AGENTE": "GISLAINE_BOTELHO", "ACAO": "REALIZAR_SEGUNDA_VISITA", "RAZAO_SOCIAL": "JOAO_C._RIBEIRO_-_CAIO_AUTO_ELETRICA", "ENDERECO": "RUA_DOUTOR_FREDERICO_MACHADO_1237_SAO_BENEDITO_PINDAMONHANGABA", "CIDADE": "PINDAMONHANGABA", "LATITUDE": -22.9375167, "LONGITUDE": -45.458725 }, "geometry": { "type": "Point", "coordinates": [ -45.458725, -22.9375167 ] } },
{ "type": "Feature", "properties": { "CNPJ": 7884328000167, "AGENTE": "GISLAINE_BOTELHO", "ACAO": "REALIZAR_SEGUNDA_VISITA", "RAZAO_SOCIAL": "RIBEIRO_&_RIBEIRO_AUTOMOVEIS_LTDA_-_WAR_VEICULOS", "ENDERECO": "RUA_DOUTOR_FREDERICO_MACHADO_498_PARQUE_SAO_BENEDITO_PINDAMONHANGABA", "CIDADE": "PINDAMONHANGABA", "LATITUDE": -22.9322471, "LONGITUDE": -45.4595213 }, "geometry": { "type": "Point", "coordinates": [ -45.4595213, -22.9322471 ] } },
{ "type": "Feature", "properties": { "CNPJ": 28903662000190, "AGENTE": "GISLAINE_BOTELHO", "ACAO": "REALIZAR_SEGUNDA_VISITA", "RAZAO_SOCIAL": "CENTRO_DE_FORMACAO_DE_CONDUTORES_NOVA_LORD_LTDA_-_AUTO_ESCOLA_NODA_LORD", "ENDERECO": "RUA_DOUTOR_GREGORIO_COSTA_212_CENTRO_PINDAMONHANGABA", "CIDADE": "PINDAMONHANGABA", "LATITUDE": -22.92731, "LONGITUDE": -45.4596192 }, "geometry": { "type": "Point", "coordinates": [ -45.4596192, -22.92731 ] } },
{ "type": "Feature", "properties": { "CNPJ": 47597424000149, "AGENTE": "GISLAINE_BOTELHO", "ACAO": "REALIZAR_SEGUNDA_VISITA", "RAZAO_SOCIAL": "BROTHERS_TRAINING_STORE_LTDA_-_BROTHERS_TRAINING", "ENDERECO": "RUA_DOUTOR_LAERTE_MACHADO_GUIMARAES_164_SAO_BENEDITO_PINDAMONHANGABA", "CIDADE": "PINDAMONHANGABA", "LATITUDE": -22.9326769, "LONGITUDE": -45.4604251 }, "geometry": { "type": "Point", "coordinates": [ -45.4604251, -22.9326769 ] } },
{ "type": "Feature", "properties": { "CNPJ": 24748110000102, "AGENTE": "GISLAINE_BOTELHO", "ACAO": "REALIZAR_SEGUNDA_VISITA", "RAZAO_SOCIAL": "ADRIEL_MARCOS_DE_LIMA_15969034819_-_AUTO_MADRI", "ENDERECO": "RUA_DOUTOR_MANOEL_IGNACIO_MARCONDES_ROMEIRO_691_VILA_RICA_PINDAMONHANGABA", "CIDADE": "PINDAMONHANGABA", "LATITUDE": -22.941705, "LONGITUDE": -45.4621783 }, "geometry": { "type": "Point", "coordinates": [ -45.4621783, -22.941705 ] } },
{ "type": "Feature", "properties": { "CNPJ": 39654265000149, "AGENTE": "GISLAINE_BOTELHO", "ACAO": "REALIZAR_SEGUNDA_VISITA", "RAZAO_SOCIAL": "MARIA_ADRIELLY_FREITAS_BATISTA_44541002841_-_HELIANTHUS_FLORES", "ENDERECO": "RUA_DOUTOR_MONTEIRO_CESAR_185_CENTRO_PINDAMONHANGABA", "CIDADE": "PINDAMONHANGABA", "LATITUDE": -22.9244406, "LONGITUDE": -45.4603851 }, "geometry": { "type": "Point", "coordinates": [ -45.4603851, -22.9244406 ] } },
{ "type": "Feature", "properties": { "CNPJ": 36287216000127, "AGENTE": "GISLAINE_BOTELHO", "ACAO": "REALIZAR_SEGUNDA_VISITA", "RAZAO_SOCIAL": "FABIANO_PARIZ_-_ANIMA_GAMES", "ENDERECO": "RUA_DOUTOR_MONTEIRO_CESAR_199_CENTRO_PINDAMONHANGABA", "CIDADE": "PINDAMONHANGABA", "LATITUDE": -22.9243976, "LONGITUDE": -45.4601767 }, "geometry": { "type": "Point", "coordinates": [ -45.4601767, -22.9243976 ] } },
{ "type": "Feature", "properties": { "CNPJ": 35988300000105, "AGENTE": "GISLAINE_BOTELHO", "ACAO": "REALIZAR_SEGUNDA_VISITA", "RAZAO_SOCIAL": "35.988.300_BIANCA_CONSTANTINOV_ALVES_PEREIRA_-_CONSTANTINOV", "ENDERECO": "RUA_DOUTOR_MONTEIRO_CESAR_28_CENTRO_PINDAMONHANGABA", "CIDADE": "PINDAMONHANGABA", "LATITUDE": -22.9245734, "LONGITUDE": -45.4618499 }, "geometry": { "type": "Point", "coordinates": [ -45.4618499, -22.9245734 ] } },
{ "type": "Feature", "properties": { "CNPJ": 24557078000170, "AGENTE": "GISLAINE_BOTELHO", "ACAO": "REALIZAR_SEGUNDA_VISITA", "RAZAO_SOCIAL": "JU_JUJUBA_MODAS_LTDA_-_JUJUBA_FASHION_KIDS", "ENDERECO": "RUA_DOUTOR_MONTEIRO_CESAR_54_CENTRO_PINDAMONHANGABA", "CIDADE": "PINDAMONHANGABA", "LATITUDE": -22.9245445, "LONGITUDE": -45.4616149 }, "geometry": { "type": "Point", "coordinates": [ -45.4616149, -22.9245445 ] } },
{ "type": "Feature", "properties": { "CNPJ": 30087114000181, "AGENTE": "GISLAINE_BOTELHO", "ACAO": "REALIZAR_SEGUNDA_VISITA", "RAZAO_SOCIAL": "VINICIUS_CANDIDO_DA_SILVA_34279948801_-_MANULELE", "ENDERECO": "RUA_DOUTOR_MONTEIRO_CESAR_74_CENTRO_PINDAMONHANGABA", "CIDADE": "PINDAMONHANGABA", "LATITUDE": -22.9245962, "LONGITUDE": -45.4614 }, "geometry": { "type": "Point", "coordinates": [ -45.4614, -22.9245962 ] } },
{ "type": "Feature", "properties": { "CNPJ": 52591960000177, "AGENTE": "GISLAINE_BOTELHO", "ACAO": "REALIZAR_SEGUNDA_VISITA", "RAZAO_SOCIAL": "52.591.960_EZILDA_HELIETE_DE_SOUZA_-_L_&_E_CALCADOS", "ENDERECO": "RUA_DOUTOR_RUBIAO_JUNIOR_277_CENTRO_PINDAMONHANGABA", "CIDADE": "PINDAMONHANGABA", "LATITUDE": -22.9272403, "LONGITUDE": -45.4622987 }, "geometry": { "type": "Point", "coordinates": [ -45.4622987, -22.9272403 ] } },
{ "type": "Feature", "properties": { "CNPJ": 49466530000119, "AGENTE": "GISLAINE_BOTELHO", "ACAO": "REALIZAR_SEGUNDA_VISITA", "RAZAO_SOCIAL": "NEW_IMOB'S_-_SOLUCOES_IMOBILIARIAS_LTDA_-_NOBRE_IMOVEIS", "ENDERECO": "RUA_EUGENIO_SIQUEIRA_SALGADO_25_CENTRO_PINDAMONHANGABA", "CIDADE": "PINDAMONHANGABA", "LATITUDE": -22.9228719, "LONGITUDE": -45.4597206 }, "geometry": { "type": "Point", "coordinates": [ -45.4597206, -22.9228719 ] } },
{ "type": "Feature", "properties": { "CNPJ": 45342744000122, "AGENTE": "GISLAINE_BOTELHO", "ACAO": "REALIZAR_SEGUNDA_VISITA", "RAZAO_SOCIAL": "LUCAS_PERILLO_DE_CASTRO_MORAES_34170525809_-_RENOVA_TOP", "ENDERECO": "RUA_GENERAL_JULIO_SALGADO_684_SANTANA_PINDAMONHANGABA", "CIDADE": "PINDAMONHANGABA", "LATITUDE": -22.9262917, "LONGITUDE": -45.4528717 }, "geometry": { "type": "Point", "coordinates": [ -45.4528717, -22.9262917 ] } },
{ "type": "Feature", "properties": { "CNPJ": 59007189000197, "AGENTE": "GISLAINE_BOTELHO", "ACAO": "REALIZAR_SEGUNDA_VISITA", "RAZAO_SOCIAL": "LAVILLA_PIZZARIA_E_PETISCARIA_LTDA_-_LAVILLA", "ENDERECO": "RUA_GUILHERME_NICOLETTI_1199_VILA_SAO_BENEDITO_PINDAMONHANGABA", "CIDADE": "PINDAMONHANGABA", "LATITUDE": -22.8907482, "LONGITUDE": -45.3891417 }, "geometry": { "type": "Point", "coordinates": [ -45.3891417, -22.8907482 ] } },
{ "type": "Feature", "properties": { "CNPJ": 46762581000108, "AGENTE": "GISLAINE_BOTELHO", "ACAO": "REALIZAR_SEGUNDA_VISITA", "RAZAO_SOCIAL": "M&G_AUTO_CENTER_LTDA_-_M_G_AUTO_CENTER", "ENDERECO": "RUA_JAPAO_330_PARQUE_DAS_NACOES_PINDAMONHANGABA", "CIDADE": "PINDAMONHANGABA", "LATITUDE": -22.9512753, "LONGITUDE": -45.4652875 }, "geometry": { "type": "Point", "coordinates": [ -45.4652875, -22.9512753 ] } },
{ "type": "Feature", "properties": { "CNPJ": 54089994000193, "AGENTE": "GISLAINE_BOTELHO", "ACAO": "REALIZAR_SEGUNDA_VISITA", "RAZAO_SOCIAL": "JL_CHOCOLATES_HOLANDA_COMERCIO_VAREJISTA_LTDA_-_CHOCOLATES_HOLANDA", "ENDERECO": "RUA_MAJOR_JOSE_DOS_SANTOS_MOREIRA_423_CENTRO_PINDAMONHANGABA", "CIDADE": "PINDAMONHANGABA", "LATITUDE": -22.9307297, "LONGITUDE": -45.4598668 }, "geometry": { "type": "Point", "coordinates": [ -45.4598668, -22.9307297 ] } },
{ "type": "Feature", "properties": { "CNPJ": 19839726000140, "AGENTE": "GISLAINE_BOTELHO", "ACAO": "REALIZAR_SEGUNDA_VISITA", "RAZAO_SOCIAL": "19.839.726_TATIANA_GOMES_MATSUMOTO_DE_TOLEDO_-_TATIANA_MATSUMOTO", "ENDERECO": "RUA_PAPA_JOAO_XXIII_371_ALTO_DO_CARDOSO_PINDAMONHANGABA", "CIDADE": "PINDAMONHANGABA", "LATITUDE": -22.9440274, "LONGITUDE": -45.4642126 }, "geometry": { "type": "Point", "coordinates": [ -45.4642126, -22.9440274 ] } },
{ "type": "Feature", "properties": { "CNPJ": 43378443000123, "AGENTE": "GISLAINE_BOTELHO", "ACAO": "REALIZAR_SEGUNDA_VISITA", "RAZAO_SOCIAL": "OMEGA_NUTRITION_LTDA_-_OMEGA_SUPLEMENTOS", "ENDERECO": "RUA_PRUDENTE_DE_MORAES_244_CENTRO_PINDAMONHANGABA", "CIDADE": "PINDAMONHANGABA", "LATITUDE": -22.9235388, "LONGITUDE": -45.4598537 }, "geometry": { "type": "Point", "coordinates": [ -45.4598537, -22.9235388 ] } },
{ "type": "Feature", "properties": { "CNPJ": 41882927000180, "AGENTE": "GISLAINE_BOTELHO", "ACAO": "REALIZAR_SEGUNDA_VISITA", "RAZAO_SOCIAL": "WALDINEY_BONIFACIO_DOS_SANTOS_LTDA_-_BONI_PAN", "ENDERECO": "RUA_PRUDENTE_DE_MORAES_391_CENTRO_PINDAMONHANGABA", "CIDADE": "PINDAMONHANGABA", "LATITUDE": -22.9233482, "LONGITUDE": -45.4583839 }, "geometry": { "type": "Point", "coordinates": [ -45.4583839, -22.9233482 ] } },
{ "type": "Feature", "properties": { "CNPJ": 35985260000148, "AGENTE": "GISLAINE_BOTELHO", "ACAO": "REALIZAR_SEGUNDA_VISITA", "RAZAO_SOCIAL": "C._R._DE_A._OLIVEIRA_MANUTENCAO_INDUSTRIAL_LTDA_-_TORMEC", "ENDERECO": "RUA_QUIRIRIM_52_CIDADE_NOVA_PINDAMONHANGABA", "CIDADE": "PINDAMONHANGABA", "LATITUDE": -22.9414791, "LONGITUDE": -45.4110994 }, "geometry": { "type": "Point", "coordinates": [ -45.4110994, -22.9414791 ] } },
{ "type": "Feature", "properties": { "CNPJ": 39922644000172, "AGENTE": "GISLAINE_BOTELHO", "ACAO": "REALIZAR_SEGUNDA_VISITA", "RAZAO_SOCIAL": "ANDREIA_CRISTINA_ABREU_DA_CUNHA_17110973816_-_BAR_DA_ANDREIA", "ENDERECO": "RUA_RODRIGO_LOBATO_144_ALTO_DO_CARDOSO_PINDAMONHANGABA", "CIDADE": "PINDAMONHANGABA", "LATITUDE": -22.9340885, "LONGITUDE": -45.4634518 }, "geometry": { "type": "Point", "coordinates": [ -45.4634518, -22.9340885 ] } },
{ "type": "Feature", "properties": { "CNPJ": 36185421000181, "AGENTE": "GISLAINE_BOTELHO", "ACAO": "REALIZAR_SEGUNDA_VISITA", "RAZAO_SOCIAL": "JOAO_MATIAS_DA_SILVA_11251894879_-_J_M_MUNDIAL", "ENDERECO": "RUA_SEBASTIAO_LEITE_34_CESAR_PARK_PINDAMONHANGABA", "CIDADE": "PINDAMONHANGABA", "LATITUDE": -22.9087727, "LONGITUDE": -45.3758966 }, "geometry": { "type": "Point", "coordinates": [ -45.3758966, -22.9087727 ] } },
{ "type": "Feature", "properties": { "CNPJ": 782848000110, "AGENTE": "GISLAINE_BOTELHO", "ACAO": "REALIZAR_SEGUNDA_VISITA", "RAZAO_SOCIAL": "ONOFRE_PEREIRA_-_POSTO_DE_MOLAS_CIDADE_NOVA", "ENDERECO": "RUA_TREMEMBE_64_CIDADE_NOVA_PINDAMONHANGABA", "CIDADE": "PINDAMONHANGABA", "LATITUDE": -22.94232, "LONGITUDE": -45.4124555 }, "geometry": { "type": "Point", "coordinates": [ -45.4124555, -22.94232 ] } },
{ "type": "Feature", "properties": { "CNPJ": 15630051000174, "AGENTE": "GISLAINE_BOTELHO", "ACAO": "REALIZAR_SEGUNDA_VISITA", "RAZAO_SOCIAL": "SIBELE_COELHO_CARRETT_DA_SILVA_16951890862_-_SIBELE_FITAS", "ENDERECO": "TRAVESSA_ARCEBISPO_DOM_JOSE_MARCONDES_HOMEM_DE_MELLO_42_CENTRO_PINDAMONHANGABA", "CIDADE": "PINDAMONHANGABA", "LATITUDE": -22.9239526, "LONGITUDE": -45.4617086 }, "geometry": { "type": "Point", "coordinates": [ -45.4617086, -22.9239526 ] } },
{ "type": "Feature", "properties": { "CNPJ": 30640511000139, "AGENTE": "GISLAINE_BOTELHO", "ACAO": "REALIZAR_SEGUNDA_VISITA", "RAZAO_SOCIAL": "30.640.511_MARCOS_JOSE_ANTONIO_-_M_J_A_CONSERTO_DE_VEICULOS", "ENDERECO": "TRAVESSA_BARAO_DO_AMAZONAS_56_ALTO_DO_CARDOSO_PINDAMONHANGABA", "CIDADE": "PINDAMONHANGABA", "LATITUDE": -22.9349134, "LONGITUDE": -45.4636249 }, "geometry": { "type": "Point", "coordinates": [ -45.4636249, -22.9349134 ] } }
]
}
