{
"type": "FeatureCollection",
"name": "JULIANA_SOUZA_DE_OLIVEIRA",
"crs": { "type": "name", "properties": { "name": "urn:ogc:def:crs:OGC:1.3:CRS84" } },
"xy_coordinate_resolution": 1e-15,
"features": [
{ "type": "Feature", "properties": { "CNPJ": 36469299000175, "AGENTE": "JULIANA_SOUZA_DE_OLIVEIRA", "ACAO": "REALIZAR_PRIMEIRA_VISITA_POTENCIAL", "RAZAO_SOCIAL": "KELLY_SOUZA_MARQUES", "ENDERECO": "AVENIDA_DOUTOR_ABRAHAO_BRICKMANN_1339_PARQUE_VICENTE_LEPORACE_I_FRANCA_BRASIL", "CIDADE": "FRANCA", "LATITUDE": -20.4977783, "LONGITUDE": -47.4193148, "BASE": "POTENCIAL" }, "geometry": { "type": "Point", "coordinates": [ -47.4193148, -20.4977783 ] } },
{ "type": "Feature", "properties": { "CNPJ": 41779519000105, "AGENTE": "JULIANA_SOUZA_DE_OLIVEIRA", "ACAO": "REALIZAR_PRIMEIRA_VISITA_POTENCIAL", "RAZAO_SOCIAL": "DANIELA_DE_OLIVEIRA_SANTIAGO_LTDA", "ENDERECO": "RODOVIA_CANDIDO_PORTINARI_-_DO_KM_403001_AO_KM_406000_S/N_PARQUE_VICENTE_LEPORACE_I_FRANCA_BRASIL", "CIDADE": "FRANCA", "LATITUDE": -20.493652, "LONGITUDE": -47.407266, "BASE": "POTENCIAL" }, "geometry": { "type": "Point", "coordinates": [ -47.407266, -20.493652 ] } },
{ "type": "Feature", "properties": { "CNPJ": 51096792000180, "AGENTE": "JULIANA_SOUZA_DE_OLIVEIRA", "ACAO": "REALIZAR_PRIMEIRA_VISITA_POTENCIAL", "RAZAO_SOCIAL": "MALDANER_&_FERNANDES_TINTAS_LTDA", "ENDERECO": "AVENIDA_ALBERTO_PULICANO_2760_DISTRITO_INDUSTRIAL_ANTONIO_DELLA_-_TORRE_FRANCA_BRASIL", "CIDADE": "FRANCA", "LATITUDE": -20.5525268, "LONGITUDE": -47.4378819, "BASE": "POTENCIAL" }, "geometry": { "type": "Point", "coordinates": [ -47.4378819, -20.5525268 ] } },
{ "type": "Feature", "properties": { "CNPJ": 33343763000194, "AGENTE": "JULIANA_SOUZA_DE_OLIVEIRA", "ACAO": "REALIZAR_PRIMEIRA_VISITA_POTENCIAL", "RAZAO_SOCIAL": "33.343.763_DANIEL_CARLOS_PEREIRA_DE_OLIVEIRA", "ENDERECO": "AVENIDA_ANTONIO_LUIZ_CAETANO_2340_PARQUE_PROGRESSO_FRANCA_BRASIL", "CIDADE": "FRANCA", "LATITUDE": -20.5576483, "LONGITUDE": -47.3974528, "BASE": "POTENCIAL" }, "geometry": { "type": "Point", "coordinates": [ -47.3974528, -20.5576483 ] } },
{ "type": "Feature", "properties": { "CNPJ": 49587160000178, "AGENTE": "JULIANA_SOUZA_DE_OLIVEIRA", "ACAO": "REALIZAR_PRIMEIRA_VISITA_POTENCIAL", "RAZAO_SOCIAL": "49.587.160_RARIANE_CINTRA_NOBRE", "ENDERECO": "AVENIDA_BRASIL_1080_VILA_APARECIDA_FRANCA_BRASIL", "CIDADE": "FRANCA", "LATITUDE": -20.526936, "LONGITUDE": -47.3815946, "BASE": "POTENCIAL" }, "geometry": { "type": "Point", "coordinates": [ -47.3815946, -20.526936 ] } },
{ "type": "Feature", "properties": { "CNPJ": 30872801000108, "AGENTE": "JULIANA_SOUZA_DE_OLIVEIRA", "ACAO": "REALIZAR_PRIMEIRA_VISITA_POTENCIAL", "RAZAO_SOCIAL": "DANIEL_DE_ANDRADE_LEPK_40221120858", "ENDERECO": "AVENIDA_BRASIL_1131_VILA_APARECIDA_FRANCA_BRASIL", "CIDADE": "FRANCA", "LATITUDE": -20.5263576, "LONGITUDE": -47.3810915, "BASE": "POTENCIAL" }, "geometry": { "type": "Point", "coordinates": [ -47.3810915, -20.5263576 ] } },
{ "type": "Feature", "properties": { "CNPJ": 53737515000135, "AGENTE": "JULIANA_SOUZA_DE_OLIVEIRA", "ACAO": "REALIZAR_PRIMEIRA_VISITA_POTENCIAL", "RAZAO_SOCIAL": "53.737.515_LAUANE_CRISTINA_DA_SILVA_VITAL", "ENDERECO": "AVENIDA_CESAR_MARTINS_PIRAJA_1452_JARDIM_AEROPORTO_III_FRANCA_BRASIL", "CIDADE": "FRANCA", "LATITUDE": -20.5868233, "LONGITUDE": -47.3729794, "BASE": "POTENCIAL" }, "geometry": { "type": "Point", "coordinates": [ -47.3729794, -20.5868233 ] } },
{ "type": "Feature", "properties": { "CNPJ": 9402020000163, "AGENTE": "JULIANA_SOUZA_DE_OLIVEIRA", "ACAO": "REALIZAR_PRIMEIRA_VISITA_POTENCIAL", "RAZAO_SOCIAL": "L_A_G_MARTINS_COMERCIO_DO_VESTUARIO_PAPELARIA_ACESSORIA_CONTABIL_E_NEGOCIOS_DIGITAIS", "ENDERECO": "AVENIDA_CHICO_JULIO_4902_VILA_CHICO_JULIO_FRANCA_BRASIL", "CIDADE": "FRANCA", "LATITUDE": -20.510828, "LONGITUDE": -47.4005906, "BASE": "POTENCIAL" }, "geometry": { "type": "Point", "coordinates": [ -47.4005906, -20.510828 ] } },
{ "type": "Feature", "properties": { "CNPJ": 29641973000191, "AGENTE": "JULIANA_SOUZA_DE_OLIVEIRA", "ACAO": "REALIZAR_PRIMEIRA_VISITA_POTENCIAL", "RAZAO_SOCIAL": "LIDER_SERVICOS_DE_CADASTRO_LTDA", "ENDERECO": "AVENIDA_CHICO_JULIO_5254_JARDIM_REDENTOR_FRANCA_BRASIL", "CIDADE": "FRANCA", "LATITUDE": -20.5079275, "LONGITUDE": -47.3990899, "BASE": "POTENCIAL" }, "geometry": { "type": "Point", "coordinates": [ -47.3990899, -20.5079275 ] } },
{ "type": "Feature", "properties": { "CNPJ": 39466606000152, "AGENTE": "JULIANA_SOUZA_DE_OLIVEIRA", "ACAO": "REALIZAR_PRIMEIRA_VISITA_POTENCIAL", "RAZAO_SOCIAL": "KMB_CALCADOS_LTDA", "ENDERECO": "AVENIDA_DOM_PEDRO_I_1065_JARDIM_DOUTOR_ANTONIO_PETRAGLIA_FRANCA_BRASIL", "CIDADE": "FRANCA", "LATITUDE": -20.5124345, "LONGITUDE": -47.3890735, "BASE": "POTENCIAL" }, "geometry": { "type": "Point", "coordinates": [ -47.3890735, -20.5124345 ] } },
{ "type": "Feature", "properties": { "CNPJ": 53613673000183, "AGENTE": "JULIANA_SOUZA_DE_OLIVEIRA", "ACAO": "REALIZAR_PRIMEIRA_VISITA_POTENCIAL", "RAZAO_SOCIAL": "53.613.673_EDUARDO_DE_PAULA_CINTRA", "ENDERECO": "AVENIDA_DOUTOR_HELIO_PALERMO_2958_PROLONGAMENTO_VILA_DUQUE_DE_CAXIAS_FRANCA_BRASIL", "CIDADE": "FRANCA", "LATITUDE": -20.5274715, "LONGITUDE": -47.4022459, "BASE": "POTENCIAL" }, "geometry": { "type": "Point", "coordinates": [ -47.4022459, -20.5274715 ] } },
{ "type": "Feature", "properties": { "CNPJ": 9187976000190, "AGENTE": "JULIANA_SOUZA_DE_OLIVEIRA", "ACAO": "REALIZAR_PRIMEIRA_VISITA_POTENCIAL", "RAZAO_SOCIAL": "R.R._TELECOM_-_SERVICOS_EM_TELECOMUNICACOES_LTDA", "ENDERECO": "AVENIDA_DR._ISMAEL_ALONSO_Y_ALONSO_2766_SAO_JOSE_FRANCA_BRASIL", "CIDADE": "FRANCA", "LATITUDE": -20.5374103, "LONGITUDE": -47.3853462, "BASE": "POTENCIAL" }, "geometry": { "type": "Point", "coordinates": [ -47.3853462, -20.5374103 ] } },
{ "type": "Feature", "properties": { "CNPJ": 46266279000150, "AGENTE": "JULIANA_SOUZA_DE_OLIVEIRA", "ACAO": "REALIZAR_PRIMEIRA_VISITA_POTENCIAL", "RAZAO_SOCIAL": "DAVI_PEDRO_ANSELMO_DE_CARVALHO_44544718864", "ENDERECO": "AVENIDA_ELIAS_LIMONTA_2401_JARDIM_AEROPORTO_III_FRANCA_BRASIL", "CIDADE": "FRANCA", "LATITUDE": -20.5948867, "LONGITUDE": -47.3734702, "BASE": "POTENCIAL" }, "geometry": { "type": "Point", "coordinates": [ -47.3734702, -20.5948867 ] } },
{ "type": "Feature", "properties": { "CNPJ": 55687543000110, "AGENTE": "JULIANA_SOUZA_DE_OLIVEIRA", "ACAO": "REALIZAR_PRIMEIRA_VISITA_POTENCIAL", "RAZAO_SOCIAL": "55.687.543_MATHEUS_SIMOES_TEIXEIRA", "ENDERECO": "AVENIDA_HEITOR_VILLA_LOBOS_159_RECREIO_CAMPO_BELO_FRANCA_BRASIL", "CIDADE": "FRANCA", "LATITUDE": -20.4997237, "LONGITUDE": -47.3961605, "BASE": "POTENCIAL" }, "geometry": { "type": "Point", "coordinates": [ -47.3961605, -20.4997237 ] } },
{ "type": "Feature", "properties": { "CNPJ": 38192620000142, "AGENTE": "JULIANA_SOUZA_DE_OLIVEIRA", "ACAO": "REALIZAR_PRIMEIRA_VISITA_POTENCIAL", "RAZAO_SOCIAL": "SELARIA_BALTAZAR_IND._COM._VAREJISTA_DE_CALCS_DE_COURO_LTDA", "ENDERECO": "AVENIDA_HIGINO_ALVES_TAVEIRA_6496_RESIDENCIAL_ANA_DOROTHEA_FRANCA_BRASIL", "CIDADE": "FRANCA", "LATITUDE": -20.550675, "LONGITUDE": -47.3571157, "BASE": "POTENCIAL" }, "geometry": { "type": "Point", "coordinates": [ -47.3571157, -20.550675 ] } },
{ "type": "Feature", "properties": { "CNPJ": 50697653000140, "AGENTE": "JULIANA_SOUZA_DE_OLIVEIRA", "ACAO": "REALIZAR_PRIMEIRA_VISITA_POTENCIAL", "RAZAO_SOCIAL": "T2J_TELECOM_INTERMEDIACOES_LTDA", "ENDERECO": "AVENIDA_LAZARO_DE_SOUZA_CAMPOS_335_SAO_JOSE_FRANCA_BRASIL", "CIDADE": "FRANCA", "LATITUDE": -20.5344002, "LONGITUDE": -47.3901258, "BASE": "POTENCIAL" }, "geometry": { "type": "Point", "coordinates": [ -47.3901258, -20.5344002 ] } },
{ "type": "Feature", "properties": { "CNPJ": 12383564000130, "AGENTE": "JULIANA_SOUZA_DE_OLIVEIRA", "ACAO": "REALIZAR_PRIMEIRA_VISITA_POTENCIAL", "RAZAO_SOCIAL": "FLAVIO_AUGUSTO_SOARES_10902178890", "ENDERECO": "AVENIDA_PAULO_DUARTE_564_PARQUE_VICENTE_LEPORACE_I_FRANCA_BRASIL", "CIDADE": "FRANCA", "LATITUDE": -20.4987235, "LONGITUDE": -47.4118951, "BASE": "POTENCIAL" }, "geometry": { "type": "Point", "coordinates": [ -47.4118951, -20.4987235 ] } },
{ "type": "Feature", "properties": { "CNPJ": 55695212000122, "AGENTE": "JULIANA_SOUZA_DE_OLIVEIRA", "ACAO": "REALIZAR_PRIMEIRA_VISITA_POTENCIAL", "RAZAO_SOCIAL": "JLM_GELATO_LTDA", "ENDERECO": "AVENIDA_PAULO_VI_00337_PARQUE_FRANCAL_FRANCA_BRASIL", "CIDADE": "FRANCA", "LATITUDE": -20.5556981, "LONGITUDE": -47.4073393, "BASE": "POTENCIAL" }, "geometry": { "type": "Point", "coordinates": [ -47.4073393, -20.5556981 ] } },
{ "type": "Feature", "properties": { "CNPJ": 48297500000163, "AGENTE": "JULIANA_SOUZA_DE_OLIVEIRA", "ACAO": "REALIZAR_PRIMEIRA_VISITA_POTENCIAL", "RAZAO_SOCIAL": "VICTOR_LIBERTI_47146024890", "ENDERECO": "AVENIDA_PRESIDENTE_VARGAS_566_CIDADE_NOVA_FRANCA_BRASIL", "CIDADE": "FRANCA", "LATITUDE": -20.5293705, "LONGITUDE": -47.393254, "BASE": "POTENCIAL" }, "geometry": { "type": "Point", "coordinates": [ -47.393254, -20.5293705 ] } },
{ "type": "Feature", "properties": { "CNPJ": 7313336000153, "AGENTE": "JULIANA_SOUZA_DE_OLIVEIRA", "ACAO": "REALIZAR_PRIMEIRA_VISITA_POTENCIAL", "RAZAO_SOCIAL": "COLEGIO_MUNDO_DO_SABER_LTDA", "ENDERECO": "AVENIDA_PROFESSOR_MOACIR_VIEIRA_COELHO_3807_RESIDENCIAL_NOSSO_LAR_FRANCA_BRASIL", "CIDADE": "FRANCA", "LATITUDE": -20.5044055, "LONGITUDE": -47.4062837, "BASE": "POTENCIAL" }, "geometry": { "type": "Point", "coordinates": [ -47.4062837, -20.5044055 ] } },
{ "type": "Feature", "properties": { "CNPJ": 49137330000112, "AGENTE": "JULIANA_SOUZA_DE_OLIVEIRA", "ACAO": "REALIZAR_PRIMEIRA_VISITA_POTENCIAL", "RAZAO_SOCIAL": "49.137.330_IZABELA_BAZO", "ENDERECO": "AVENIDA_RIO_AMAZONAS_1405_RESIDENCIAL_AMAZONAS_FRANCA_BRASIL", "CIDADE": "FRANCA", "LATITUDE": -20.5524271, "LONGITUDE": -47.4140528, "BASE": "POTENCIAL" }, "geometry": { "type": "Point", "coordinates": [ -47.4140528, -20.5524271 ] } },
{ "type": "Feature", "properties": { "CNPJ": 55692780000170, "AGENTE": "JULIANA_SOUZA_DE_OLIVEIRA", "ACAO": "REALIZAR_PRIMEIRA_VISITA_POTENCIAL", "RAZAO_SOCIAL": "55.692.780_LAUANI_APARECIDA_ROSA_DOS_SANTOS", "ENDERECO": "AVENIDA_SANTA_CRUZ_1935_VILA_SANTA_CRUZ_FRANCA_BRASIL", "CIDADE": "FRANCA", "LATITUDE": -20.5434712, "LONGITUDE": -47.391102, "BASE": "POTENCIAL" }, "geometry": { "type": "Point", "coordinates": [ -47.391102, -20.5434712 ] } },
{ "type": "Feature", "properties": { "CNPJ": 58229215000169, "AGENTE": "JULIANA_SOUZA_DE_OLIVEIRA", "ACAO": "REALIZAR_PRIMEIRA_VISITA_POTENCIAL", "RAZAO_SOCIAL": "58.229.215_MARTA_MARIA_VIEIRA_GUIMARAES", "ENDERECO": "AVENIDA_SANTA_CRUZ_3255_VILA_SANTA_CRUZ_FRANCA_BRASIL", "CIDADE": "FRANCA", "LATITUDE": -20.5421962, "LONGITUDE": -47.378085, "BASE": "POTENCIAL" }, "geometry": { "type": "Point", "coordinates": [ -47.378085, -20.5421962 ] } },
{ "type": "Feature", "properties": { "CNPJ": 52940010000100, "AGENTE": "JULIANA_SOUZA_DE_OLIVEIRA", "ACAO": "REALIZAR_PRIMEIRA_VISITA_POTENCIAL", "RAZAO_SOCIAL": "52.940.010_JEFFERSON_VIDAL_BELOTI", "ENDERECO": "RUA_ABILIO_COUTINHO_234_SAO_JOAQUIM_FRANCA_BRASIL", "CIDADE": "FRANCA", "LATITUDE": -20.541689, "LONGITUDE": -47.4227975, "BASE": "POTENCIAL" }, "geometry": { "type": "Point", "coordinates": [ -47.4227975, -20.541689 ] } },
{ "type": "Feature", "properties": { "CNPJ": 40855715000140, "AGENTE": "JULIANA_SOUZA_DE_OLIVEIRA", "ACAO": "REALIZAR_PRIMEIRA_VISITA_POTENCIAL", "RAZAO_SOCIAL": "40.855.715_MARIA_GABRIELA_PIRES_DE_MELLO_DOIN_NOTARI", "ENDERECO": "RUA_ADELINO_NOGUEIRA_771_JARDIM_SANTANA_FRANCA_BRASIL", "CIDADE": "FRANCA", "LATITUDE": -20.551103, "LONGITUDE": -47.397625, "BASE": "POTENCIAL" }, "geometry": { "type": "Point", "coordinates": [ -47.397625, -20.551103 ] } },
{ "type": "Feature", "properties": { "CNPJ": 57615616000194, "AGENTE": "JULIANA_SOUZA_DE_OLIVEIRA", "ACAO": "REALIZAR_PRIMEIRA_VISITA_POTENCIAL", "RAZAO_SOCIAL": "57.615.616_GABRIEL_SOUZA_MACHADO", "ENDERECO": "RUA_AIRAN_IZAURINO_LEAL_1160_JARDIM_PORTINARI_FRANCA_BRASIL", "CIDADE": "FRANCA", "LATITUDE": -20.5026139, "LONGITUDE": -47.4196087, "BASE": "POTENCIAL" }, "geometry": { "type": "Point", "coordinates": [ -47.4196087, -20.5026139 ] } },
{ "type": "Feature", "properties": { "CNPJ": 54015662000164, "AGENTE": "JULIANA_SOUZA_DE_OLIVEIRA", "ACAO": "REALIZAR_PRIMEIRA_VISITA_POTENCIAL", "RAZAO_SOCIAL": "54.015.662_DANIEL_SILVA_OLIVEIRA", "ENDERECO": "RUA_ALBERTO_SCHIRATO_1340_JARDIM_LIMA_FRANCA_BRASIL", "CIDADE": "FRANCA", "LATITUDE": -20.5625926, "LONGITUDE": -47.3993373, "BASE": "POTENCIAL" }, "geometry": { "type": "Point", "coordinates": [ -47.3993373, -20.5625926 ] } },
{ "type": "Feature", "properties": { "CNPJ": 21594028000174, "AGENTE": "JULIANA_SOUZA_DE_OLIVEIRA", "ACAO": "REALIZAR_PRIMEIRA_VISITA_POTENCIAL", "RAZAO_SOCIAL": "21.594.028_SARAH_NAIANA_DE_SOUZA_SILVA", "ENDERECO": "RUA_ALCIDES_GONCALVES_1700_JARDIM_CAMBUI_FRANCA_BRASIL", "CIDADE": "FRANCA", "LATITUDE": -20.4857321, "LONGITUDE": -47.4035709, "BASE": "POTENCIAL" }, "geometry": { "type": "Point", "coordinates": [ -47.4035709, -20.4857321 ] } },
{ "type": "Feature", "properties": { "CNPJ": 50081855000162, "AGENTE": "JULIANA_SOUZA_DE_OLIVEIRA", "ACAO": "REALIZAR_PRIMEIRA_VISITA_POTENCIAL", "RAZAO_SOCIAL": "50.081.855_NATALIA_FRANCIELLE_DA_SILVA", "ENDERECO": "RUA_ALFERES_MANOEL_MARQUES_DE_CARVALHO_3020_JARDIM_TROPICAL_FRANCA_BRASIL", "CIDADE": "FRANCA", "LATITUDE": -20.506562, "LONGITUDE": -47.414954, "BASE": "POTENCIAL" }, "geometry": { "type": "Point", "coordinates": [ -47.414954, -20.506562 ] } },
{ "type": "Feature", "properties": { "CNPJ": 50698917000180, "AGENTE": "JULIANA_SOUZA_DE_OLIVEIRA", "ACAO": "REALIZAR_PRIMEIRA_VISITA_POTENCIAL", "RAZAO_SOCIAL": "S_T_CHIARELO", "ENDERECO": "RUA_ALFREDO_TOSI_1821_NUCLEO_AGRICOLA_ALPHA_FRANCA_BRASIL", "CIDADE": "FRANCA", "LATITUDE": -20.5657185, "LONGITUDE": -47.402724, "BASE": "POTENCIAL" }, "geometry": { "type": "Point", "coordinates": [ -47.402724, -20.5657185 ] } },
{ "type": "Feature", "properties": { "CNPJ": 45314201000100, "AGENTE": "JULIANA_SOUZA_DE_OLIVEIRA", "ACAO": "REALIZAR_PRIMEIRA_VISITA_POTENCIAL", "RAZAO_SOCIAL": "CLESIO_MANOEL_DA_SILVA_14149590877", "ENDERECO": "RUA_ALZIRA_DE_CASTRO_OLIVEIRA_5035_RESIDENCIAL_SAO_JERONIMO_FRANCA_BRASIL", "CIDADE": "FRANCA", "LATITUDE": -20.5502326, "LONGITUDE": -47.3551324, "BASE": "POTENCIAL" }, "geometry": { "type": "Point", "coordinates": [ -47.3551324, -20.5502326 ] } },
{ "type": "Feature", "properties": { "CNPJ": 58998120000100, "AGENTE": "JULIANA_SOUZA_DE_OLIVEIRA", "ACAO": "REALIZAR_PRIMEIRA_VISITA_POTENCIAL", "RAZAO_SOCIAL": "58.998.120_LIVIA_MARIA_GIOMETI_CASTRO", "ENDERECO": "RUA_ANA_LUCIA_ALVES_DA_SILVA_CINTRA_5545_RESIDENCIAL_SAO_JERONIMO_FRANCA_BRASIL", "CIDADE": "FRANCA", "LATITUDE": -20.5465135, "LONGITUDE": -47.3520693, "BASE": "POTENCIAL" }, "geometry": { "type": "Point", "coordinates": [ -47.3520693, -20.5465135 ] } },
{ "type": "Feature", "properties": { "CNPJ": 53589344000144, "AGENTE": "JULIANA_SOUZA_DE_OLIVEIRA", "ACAO": "REALIZAR_PRIMEIRA_VISITA_POTENCIAL", "RAZAO_SOCIAL": "53.589.344_ANDERSON_BAZILIO_MONTE_REI", "ENDERECO": "RUA_ANA_MARIA_BONETI_1083_JARDIM_CAMBUI_FRANCA_BRASIL", "CIDADE": "FRANCA", "LATITUDE": -20.4842795, "LONGITUDE": -47.4023489, "BASE": "POTENCIAL" }, "geometry": { "type": "Point", "coordinates": [ -47.4023489, -20.4842795 ] } },
{ "type": "Feature", "properties": { "CNPJ": 45449132000133, "AGENTE": "JULIANA_SOUZA_DE_OLIVEIRA", "ACAO": "REALIZAR_PRIMEIRA_VISITA_POTENCIAL", "RAZAO_SOCIAL": "45.449.132_THIAGO_DE_ALMEIDA_VIEIRA", "ENDERECO": "RUA_ANTONIETA_COVAS_DO_COUTO_ROSA_(TIA_NENETE)_4203_RESIDENCIAL_SAO_DOMINGOS_FRANCA_BRASIL", "CIDADE": "FRANCA", "LATITUDE": -20.479619, "LONGITUDE": -47.4127937, "BASE": "POTENCIAL" }, "geometry": { "type": "Point", "coordinates": [ -47.4127937, -20.479619 ] } },
{ "type": "Feature", "properties": { "CNPJ": 22467908000142, "AGENTE": "JULIANA_SOUZA_DE_OLIVEIRA", "ACAO": "REALIZAR_PRIMEIRA_VISITA_POTENCIAL", "RAZAO_SOCIAL": "FLAVIO_DONIZETE_MARTINS", "ENDERECO": "RUA_ANTONIO_BERNARDES_PINTO_3366_VILA_CHICO_JULIO_FRANCA_BRASIL", "CIDADE": "FRANCA", "LATITUDE": -20.5218106, "LONGITUDE": -47.4088247, "BASE": "POTENCIAL" }, "geometry": { "type": "Point", "coordinates": [ -47.4088247, -20.5218106 ] } },
{ "type": "Feature", "properties": { "CNPJ": 46347017000110, "AGENTE": "JULIANA_SOUZA_DE_OLIVEIRA", "ACAO": "REALIZAR_PRIMEIRA_VISITA_POTENCIAL", "RAZAO_SOCIAL": "JHONATAN_GIL_BORGES_ARANTES_00858273128", "ENDERECO": "RUA_ANTONIO_BERNARDES_PINTO_3895_VILA_CHICO_JULIO_FRANCA_BRASIL", "CIDADE": "FRANCA", "LATITUDE": -20.5172078, "LONGITUDE": -47.4073642, "BASE": "POTENCIAL" }, "geometry": { "type": "Point", "coordinates": [ -47.4073642, -20.5172078 ] } },
{ "type": "Feature", "properties": { "CNPJ": 49412534000114, "AGENTE": "JULIANA_SOUZA_DE_OLIVEIRA", "ACAO": "REALIZAR_PRIMEIRA_VISITA_POTENCIAL", "RAZAO_SOCIAL": "49.412.534_GREICE_AVELAR_BATISTA", "ENDERECO": "RUA_ANTONIO_CANDIDO_DE_SOUZA_398_JARDIM_IPANEMA_FRANCA_BRASIL", "CIDADE": "FRANCA", "LATITUDE": -20.4796181, "LONGITUDE": -47.3928336, "BASE": "POTENCIAL" }, "geometry": { "type": "Point", "coordinates": [ -47.3928336, -20.4796181 ] } },
{ "type": "Feature", "properties": { "CNPJ": 40678871000183, "AGENTE": "JULIANA_SOUZA_DE_OLIVEIRA", "ACAO": "REALIZAR_PRIMEIRA_VISITA_POTENCIAL", "RAZAO_SOCIAL": "D_LOTTI_COMERCIO_DE_ROUPAS_LTDA", "ENDERECO": "RUA_ANTONIO_COVAS_938_JARDIM_LIMA_FRANCA_BRASIL", "CIDADE": "FRANCA", "LATITUDE": -20.5593063, "LONGITUDE": -47.4011974, "BASE": "POTENCIAL" }, "geometry": { "type": "Point", "coordinates": [ -47.4011974, -20.5593063 ] } },
{ "type": "Feature", "properties": { "CNPJ": 51040528000125, "AGENTE": "JULIANA_SOUZA_DE_OLIVEIRA", "ACAO": "REALIZAR_PRIMEIRA_VISITA_POTENCIAL", "RAZAO_SOCIAL": "51.040.528_FERNANDA_AZEVEDO_QUEIROZ_FLORES", "ENDERECO": "RUA_ANTONIO_GOUVEIA_DA_SILVA_6340_RESIDENCIAL_CHICO_NECA_FRANCA_BRASIL", "CIDADE": "FRANCA", "LATITUDE": -20.5567303, "LONGITUDE": -47.3577919, "BASE": "POTENCIAL" }, "geometry": { "type": "Point", "coordinates": [ -47.3577919, -20.5567303 ] } },
{ "type": "Feature", "properties": { "CNPJ": 52780114000103, "AGENTE": "JULIANA_SOUZA_DE_OLIVEIRA", "ACAO": "REALIZAR_PRIMEIRA_VISITA_POTENCIAL", "RAZAO_SOCIAL": "52.780.114_PRISCILA_CRISTINA_TAVARES_SILVA", "ENDERECO": "RUA_ANTONIO_JOSE_CANO_VERGARA_3266_RESIDENCIAL_ZANETTI_FRANCA_BRASIL", "CIDADE": "FRANCA", "LATITUDE": -20.5654901, "LONGITUDE": -47.3503049, "BASE": "POTENCIAL" }, "geometry": { "type": "Point", "coordinates": [ -47.3503049, -20.5654901 ] } },
{ "type": "Feature", "properties": { "CNPJ": 36089139000109, "AGENTE": "JULIANA_SOUZA_DE_OLIVEIRA", "ACAO": "REALIZAR_PRIMEIRA_VISITA_POTENCIAL", "RAZAO_SOCIAL": "WASHINGTON_LUIS_DA_SILVA_JUNIOR_16038620648", "ENDERECO": "RUA_ANTONIO_LOPES_DE_MELLO_1810_JARDIM_AEROPORTO_II_FRANCA_BRASIL", "CIDADE": "FRANCA", "LATITUDE": -20.5794119, "LONGITUDE": -47.3667627, "BASE": "POTENCIAL" }, "geometry": { "type": "Point", "coordinates": [ -47.3667627, -20.5794119 ] } },
{ "type": "Feature", "properties": { "CNPJ": 59430742000108, "AGENTE": "JULIANA_SOUZA_DE_OLIVEIRA", "ACAO": "REALIZAR_PRIMEIRA_VISITA_POTENCIAL", "RAZAO_SOCIAL": "59.430.742_FABIOLA_COSTA_DE_OLIVEIRA", "ENDERECO": "RUA_ANTONIO_MATHIAS_282_VILA_EXPOSICAO_FRANCA_BRASIL", "CIDADE": "FRANCA", "LATITUDE": -20.5150653, "LONGITUDE": -47.4098643, "BASE": "POTENCIAL" }, "geometry": { "type": "Point", "coordinates": [ -47.4098643, -20.5150653 ] } },
{ "type": "Feature", "properties": { "CNPJ": 24521839000133, "AGENTE": "JULIANA_SOUZA_DE_OLIVEIRA", "ACAO": "REALIZAR_PRIMEIRA_VISITA_POTENCIAL", "RAZAO_SOCIAL": "NAVAS_MENDES_ENGENHARIA_LTDA", "ENDERECO": "RUA_ANTONIO_TORRES_PENEDO_921_SAO_JOAQUIM_FRANCA_BRASIL", "CIDADE": "FRANCA", "LATITUDE": -20.5373651, "LONGITUDE": -47.4288316, "BASE": "POTENCIAL" }, "geometry": { "type": "Point", "coordinates": [ -47.4288316, -20.5373651 ] } },
{ "type": "Feature", "properties": { "CNPJ": 55958061000158, "AGENTE": "JULIANA_SOUZA_DE_OLIVEIRA", "ACAO": "REALIZAR_PRIMEIRA_VISITA_POTENCIAL", "RAZAO_SOCIAL": "V_M_COM._E_ACESSORIOS", "ENDERECO": "RUA_ANTONIO_VIRGILIO_DA_SILVA_740_PARQUE_DAS_ESMERALDAS_FRANCA_BRASIL", "CIDADE": "FRANCA", "LATITUDE": -20.5406923, "LONGITUDE": -47.4511103, "BASE": "POTENCIAL" }, "geometry": { "type": "Point", "coordinates": [ -47.4511103, -20.5406923 ] } },
{ "type": "Feature", "properties": { "CNPJ": 55827923000103, "AGENTE": "JULIANA_SOUZA_DE_OLIVEIRA", "ACAO": "REALIZAR_PRIMEIRA_VISITA_POTENCIAL", "RAZAO_SOCIAL": "55.827.923_FRANCELIO_MANOEL_MELQUIADES", "ENDERECO": "RUA_ARMANDO_DAL_SASSO_641_JARDIM_PAULISTANO_FRANCA_BRASIL", "CIDADE": "FRANCA", "LATITUDE": -20.5174544, "LONGITUDE": -47.3592551, "BASE": "POTENCIAL" }, "geometry": { "type": "Point", "coordinates": [ -47.3592551, -20.5174544 ] } },
{ "type": "Feature", "properties": { "CNPJ": 49431488000109, "AGENTE": "JULIANA_SOUZA_DE_OLIVEIRA", "ACAO": "REALIZAR_PRIMEIRA_VISITA_POTENCIAL", "RAZAO_SOCIAL": "49.431.488_TALISSON_FERNANDO_MELLO_SILVA", "ENDERECO": "RUA_ARTUR_CANDIDO_DE_OLIVEIRA_1940_VILLAGIO_MUNDO_NOVO_FRANCA_BRASIL", "CIDADE": "FRANCA", "LATITUDE": -20.5068526, "LONGITUDE": -47.4356838, "BASE": "POTENCIAL" }, "geometry": { "type": "Point", "coordinates": [ -47.4356838, -20.5068526 ] } },
{ "type": "Feature", "properties": { "CNPJ": 55378961000126, "AGENTE": "JULIANA_SOUZA_DE_OLIVEIRA", "ACAO": "REALIZAR_PRIMEIRA_VISITA_POTENCIAL", "RAZAO_SOCIAL": "55.378.961_YAGO_MELO_SANTOS", "ENDERECO": "RUA_AUSTIN_RIBEIRO_VILELA_670_JARDIM_DOUTOR_ANTONIO_PETRAGLIA_FRANCA_BRASIL", "CIDADE": "FRANCA", "LATITUDE": -20.514167, "LONGITUDE": -47.3842915, "BASE": "POTENCIAL" }, "geometry": { "type": "Point", "coordinates": [ -47.3842915, -20.514167 ] } },
{ "type": "Feature", "properties": { "CNPJ": 19452224000162, "AGENTE": "JULIANA_SOUZA_DE_OLIVEIRA", "ACAO": "REALIZAR_PRIMEIRA_VISITA_POTENCIAL", "RAZAO_SOCIAL": "RWG_FUNDACOES_E_CONSTRUCAO_CIVIL_LTDA", "ENDERECO": "RUA_BENTO_AMERICO_DE_PAULA_1943_JARDIM_CAMBUI_FRANCA_BRASIL", "CIDADE": "FRANCA", "LATITUDE": -20.4848477, "LONGITUDE": -47.4057116, "BASE": "POTENCIAL" }, "geometry": { "type": "Point", "coordinates": [ -47.4057116, -20.4848477 ] } },
{ "type": "Feature", "properties": { "CNPJ": 42334514000123, "AGENTE": "JULIANA_SOUZA_DE_OLIVEIRA", "ACAO": "REALIZAR_PRIMEIRA_VISITA_POTENCIAL", "RAZAO_SOCIAL": "MTH_STORE_LTDA", "ENDERECO": "RUA_BRUNO_BARINI_1990_JARDIM_SAO_LUIZ_FRANCA_BRASIL", "CIDADE": "FRANCA", "LATITUDE": -20.5341659, "LONGITUDE": -47.3642881, "BASE": "POTENCIAL" }, "geometry": { "type": "Point", "coordinates": [ -47.3642881, -20.5341659 ] } },
{ "type": "Feature", "properties": { "CNPJ": 56053271000160, "AGENTE": "JULIANA_SOUZA_DE_OLIVEIRA", "ACAO": "REALIZAR_PRIMEIRA_VISITA_POTENCIAL", "RAZAO_SOCIAL": "56.053.271_TIAGO_JOSE_MARQUES_RODRIGUES", "ENDERECO": "RUA_CAETANO_LOMBARDI_2120_JARDIM_ALVORADA_FRANCA_BRASIL", "CIDADE": "FRANCA", "LATITUDE": -20.5646383, "LONGITUDE": -47.3974528, "BASE": "POTENCIAL" }, "geometry": { "type": "Point", "coordinates": [ -47.3974528, -20.5646383 ] } },
{ "type": "Feature", "properties": { "CNPJ": 14703249000178, "AGENTE": "JULIANA_SOUZA_DE_OLIVEIRA", "ACAO": "REALIZAR_PRIMEIRA_VISITA_POTENCIAL", "RAZAO_SOCIAL": "MAF_BRAZIL_PROTECTION_CONTROL_RISKS_LTDA", "ENDERECO": "RUA_CAETANO_LOMBARDI_2421_PARQUE_PROGRESSO_FRANCA_BRASIL", "CIDADE": "FRANCA", "LATITUDE": -20.5636939, "LONGITUDE": -47.3956596, "BASE": "POTENCIAL" }, "geometry": { "type": "Point", "coordinates": [ -47.3956596, -20.5636939 ] } },
{ "type": "Feature", "properties": { "CNPJ": 45534020000180, "AGENTE": "JULIANA_SOUZA_DE_OLIVEIRA", "ACAO": "REALIZAR_PRIMEIRA_VISITA_POTENCIAL", "RAZAO_SOCIAL": "C._P._JUNQUEIRA_LTDA", "ENDERECO": "RUA_CALIMERIO_ANTUNES_CINTRA_4131_JARDIM_BOTANICO_FRANCA_BRASIL", "CIDADE": "FRANCA", "LATITUDE": -20.5500554, "LONGITUDE": -47.3634529, "BASE": "POTENCIAL" }, "geometry": { "type": "Point", "coordinates": [ -47.3634529, -20.5500554 ] } },
{ "type": "Feature", "properties": { "CNPJ": 21443079000103, "AGENTE": "JULIANA_SOUZA_DE_OLIVEIRA", "ACAO": "REALIZAR_PRIMEIRA_VISITA_POTENCIAL", "RAZAO_SOCIAL": "A_T_GUNDIM_COMERCIO_DE_COUROS_LTDA", "ENDERECO": "RUA_CASSIA_809_JARDIM_FRANCANO_FRANCA_BRASIL", "CIDADE": "FRANCA", "LATITUDE": -20.5430944, "LONGITUDE": -47.4109184, "BASE": "POTENCIAL" }, "geometry": { "type": "Point", "coordinates": [ -47.4109184, -20.5430944 ] } },
{ "type": "Feature", "properties": { "CNPJ": 51734294000116, "AGENTE": "JULIANA_SOUZA_DE_OLIVEIRA", "ACAO": "REALIZAR_PRIMEIRA_VISITA_POTENCIAL", "RAZAO_SOCIAL": "51.734.294_JOSE_AILTON_PEDROSA", "ENDERECO": "RUA_CAVALHEIRO_PETRAGLIA_907_VILA_SANTOS_DUMONT_FRANCA_BRASIL", "CIDADE": "FRANCA", "LATITUDE": -20.5355914, "LONGITUDE": -47.4214114, "BASE": "POTENCIAL" }, "geometry": { "type": "Point", "coordinates": [ -47.4214114, -20.5355914 ] } },
{ "type": "Feature", "properties": { "CNPJ": 53326177000149, "AGENTE": "JULIANA_SOUZA_DE_OLIVEIRA", "ACAO": "REALIZAR_PRIMEIRA_VISITA_POTENCIAL", "RAZAO_SOCIAL": "53.326.177_JOSE_GARIBALDI_FERREIRA_JUNIOR", "ENDERECO": "RUA_CLAUDIO_POPPI_3191_CHACARAS_SAO_PAULO_FRANCA_BRASIL", "CIDADE": "FRANCA", "LATITUDE": -20.5234632, "LONGITUDE": -47.4405471, "BASE": "POTENCIAL" }, "geometry": { "type": "Point", "coordinates": [ -47.4405471, -20.5234632 ] } },
{ "type": "Feature", "properties": { "CNPJ": 33091806000191, "AGENTE": "JULIANA_SOUZA_DE_OLIVEIRA", "ACAO": "REALIZAR_PRIMEIRA_VISITA_POTENCIAL", "RAZAO_SOCIAL": "33.091.806_FERNANDO_SILVESTRE_DA_SILVA", "ENDERECO": "RUA_CRUZ_E_SOUZA_2770_JARDIM_BOA_ESPERANCA_FRANCA_BRASIL", "CIDADE": "FRANCA", "LATITUDE": -20.5212022, "LONGITUDE": -47.3749062, "BASE": "POTENCIAL" }, "geometry": { "type": "Point", "coordinates": [ -47.3749062, -20.5212022 ] } },
{ "type": "Feature", "properties": { "CNPJ": 58161957000108, "AGENTE": "JULIANA_SOUZA_DE_OLIVEIRA", "ACAO": "REALIZAR_PRIMEIRA_VISITA_POTENCIAL", "RAZAO_SOCIAL": "58.161.957_JAQUELINE_DE_OLIVEIRA_SANTOS", "ENDERECO": "RUA_CUSTODIA_RIBEIRO_DE_ANDRADE_ROCHA_978_RESIDENCIAL_SAO_DOMINGOS_FRANCA_BRASIL", "CIDADE": "FRANCA", "LATITUDE": -20.4824188, "LONGITUDE": -47.4177435, "BASE": "POTENCIAL" }, "geometry": { "type": "Point", "coordinates": [ -47.4177435, -20.4824188 ] } },
{ "type": "Feature", "properties": { "CNPJ": 30070241000178, "AGENTE": "JULIANA_SOUZA_DE_OLIVEIRA", "ACAO": "REALIZAR_PRIMEIRA_VISITA_POTENCIAL", "RAZAO_SOCIAL": "30.070.241_MARCO_ANTONIO_VIEIRA_SILVA", "ENDERECO": "RUA_CYRO_EDUARDO_ROSA_FALEIROS_880_PROLONGAMENTO_JARDIM_AEROPORTO_I_FRANCA_BRASIL", "CIDADE": "FRANCA", "LATITUDE": -20.5741559, "LONGITUDE": -47.3750782, "BASE": "POTENCIAL" }, "geometry": { "type": "Point", "coordinates": [ -47.3750782, -20.5741559 ] } },
{ "type": "Feature", "properties": { "CNPJ": 12898843000136, "AGENTE": "JULIANA_SOUZA_DE_OLIVEIRA", "ACAO": "REALIZAR_PRIMEIRA_VISITA_POTENCIAL", "RAZAO_SOCIAL": "JOAO_VALENTIM_RIBEIRO_03722256836", "ENDERECO": "RUA_DALILA_RACHED_PEDRO_500_PARQUE_DO_HORTO_FRANCA_BRASIL", "CIDADE": "FRANCA", "LATITUDE": -20.4895867, "LONGITUDE": -47.4037094, "BASE": "POTENCIAL" }, "geometry": { "type": "Point", "coordinates": [ -47.4037094, -20.4895867 ] } },
{ "type": "Feature", "properties": { "CNPJ": 37913890000132, "AGENTE": "JULIANA_SOUZA_DE_OLIVEIRA", "ACAO": "REALIZAR_PRIMEIRA_VISITA_POTENCIAL", "RAZAO_SOCIAL": "CAROLINA_CONCEICAO_DA_SILVA", "ENDERECO": "RUA_DANTE_DE_OLIVEIRA_1890_JARDIM_LUIZA_FRANCA_BRASIL", "CIDADE": "FRANCA", "LATITUDE": -20.4925854, "LONGITUDE": -47.4242408, "BASE": "POTENCIAL" }, "geometry": { "type": "Point", "coordinates": [ -47.4242408, -20.4925854 ] } },
{ "type": "Feature", "properties": { "CNPJ": 55553396000196, "AGENTE": "JULIANA_SOUZA_DE_OLIVEIRA", "ACAO": "REALIZAR_PRIMEIRA_VISITA_POTENCIAL", "RAZAO_SOCIAL": "55.553.396_VAGNER_LANDIM_MENDES", "ENDERECO": "RUA_DECIO_ANDRADE_DO_NASCIMENTO_1440_JARDIM_JOAO_LIPORONI_FRANCA_BRASIL", "CIDADE": "FRANCA", "LATITUDE": -20.5394551, "LONGITUDE": -47.4010979, "BASE": "POTENCIAL" }, "geometry": { "type": "Point", "coordinates": [ -47.4010979, -20.5394551 ] } },
{ "type": "Feature", "properties": { "CNPJ": 52055046000101, "AGENTE": "JULIANA_SOUZA_DE_OLIVEIRA", "ACAO": "REALIZAR_PRIMEIRA_VISITA_POTENCIAL", "RAZAO_SOCIAL": "52.055.046_LUIZ_FELIPE_SOARES", "ENDERECO": "RUA_DELCID_FACCIOLO_4791_RESIDENCIAL_SAO_VICENTE_FRANCA_BRASIL", "CIDADE": "FRANCA", "LATITUDE": -20.557524, "LONGITUDE": -47.3809511, "BASE": "POTENCIAL" }, "geometry": { "type": "Point", "coordinates": [ -47.3809511, -20.557524 ] } },
{ "type": "Feature", "properties": { "CNPJ": 1099255000116, "AGENTE": "JULIANA_SOUZA_DE_OLIVEIRA", "ACAO": "REALIZAR_PRIMEIRA_VISITA_POTENCIAL", "RAZAO_SOCIAL": "ROANNE_COMERCIO_DE_JOIAS_LTDA", "ENDERECO": "RUA_DO_COMERCIO_1650_CENTRO_FRANCA_BRASIL", "CIDADE": "FRANCA", "LATITUDE": -20.53881, "LONGITUDE": -47.4022169, "BASE": "POTENCIAL" }, "geometry": { "type": "Point", "coordinates": [ -47.4022169, -20.53881 ] } },
{ "type": "Feature", "properties": { "CNPJ": 38656642000116, "AGENTE": "JULIANA_SOUZA_DE_OLIVEIRA", "ACAO": "REALIZAR_PRIMEIRA_VISITA_POTENCIAL", "RAZAO_SOCIAL": "THAYNNA_MOARA_CINTRA_CAMPOS_43893052801", "ENDERECO": "RUA_DOLORES_MACIEL_DE_ALMEIDA_1004_JARDIM_DOUTOR_ANTONIO_PETRAGLIA_FRANCA_BRASIL", "CIDADE": "FRANCA", "LATITUDE": -20.514017, "LONGITUDE": -47.391792, "BASE": "POTENCIAL" }, "geometry": { "type": "Point", "coordinates": [ -47.391792, -20.514017 ] } },
{ "type": "Feature", "properties": { "CNPJ": 54624921000154, "AGENTE": "JULIANA_SOUZA_DE_OLIVEIRA", "ACAO": "REALIZAR_PRIMEIRA_VISITA_POTENCIAL", "RAZAO_SOCIAL": "54.624.921_JULIANO_NEVES_DOS_SANTOS", "ENDERECO": "RUA_DORIVALDO_CHIOCA_3354_JARDIM_LUIZA_II_FRANCA_BRASIL", "CIDADE": "FRANCA", "LATITUDE": -20.4836834, "LONGITUDE": -47.43015, "BASE": "POTENCIAL" }, "geometry": { "type": "Point", "coordinates": [ -47.43015, -20.4836834 ] } },
{ "type": "Feature", "properties": { "CNPJ": 40755566000148, "AGENTE": "JULIANA_SOUZA_DE_OLIVEIRA", "ACAO": "REALIZAR_PRIMEIRA_VISITA_POTENCIAL", "RAZAO_SOCIAL": "RENATA_SILVA_SOUSA_23078619800", "ENDERECO": "RUA_DOS_EUCALIPTOS_4644_PARQUE_DOS_PINHAIS_FRANCA_BRASIL", "CIDADE": "FRANCA", "LATITUDE": -20.5081526, "LONGITUDE": -47.4054574, "BASE": "POTENCIAL" }, "geometry": { "type": "Point", "coordinates": [ -47.4054574, -20.5081526 ] } },
{ "type": "Feature", "properties": { "CNPJ": 51067021000165, "AGENTE": "JULIANA_SOUZA_DE_OLIVEIRA", "ACAO": "REALIZAR_PRIMEIRA_VISITA_POTENCIAL", "RAZAO_SOCIAL": "51.067.021_DAIANE_APARECIDA_LOPES", "ENDERECO": "RUA_DOUTOR_AFONSO_PENA_-_DE_631/632_AO_FIM_1303_CIDADE_NOVA_FRANCA_BRASIL", "CIDADE": "FRANCA", "LATITUDE": -20.5315348, "LONGITUDE": -47.3958583, "BASE": "POTENCIAL" }, "geometry": { "type": "Point", "coordinates": [ -47.3958583, -20.5315348 ] } },
{ "type": "Feature", "properties": { "CNPJ": 54905990000136, "AGENTE": "JULIANA_SOUZA_DE_OLIVEIRA", "ACAO": "REALIZAR_PRIMEIRA_VISITA_POTENCIAL", "RAZAO_SOCIAL": "BEAUTYCARE_INSTITUTO_DE_EMAGRECIMENTO_LTDA", "ENDERECO": "RUA_DOUTOR_AFONSO_PENA_1300_CIDADE_NOVA_FRANCA_BRASIL", "CIDADE": "FRANCA", "LATITUDE": -20.5298704, "LONGITUDE": -47.3979873, "BASE": "POTENCIAL" }, "geometry": { "type": "Point", "coordinates": [ -47.3979873, -20.5298704 ] } },
{ "type": "Feature", "properties": { "CNPJ": 57966692000144, "AGENTE": "JULIANA_SOUZA_DE_OLIVEIRA", "ACAO": "REALIZAR_PRIMEIRA_VISITA_POTENCIAL", "RAZAO_SOCIAL": "57.966.692_RENATA_DE_OLIVEIRA_FREITAS_BORGES", "ENDERECO": "RUA_DOUTOR_FRANCISCO_MANIGLIA_2410_JARDIM_DOUTOR_ANTONIO_PETRAGLIA_FRANCA_BRASIL", "CIDADE": "FRANCA", "LATITUDE": -20.5132173, "LONGITUDE": -47.3862465, "BASE": "POTENCIAL" }, "geometry": { "type": "Point", "coordinates": [ -47.3862465, -20.5132173 ] } },
{ "type": "Feature", "properties": { "CNPJ": 22086984000108, "AGENTE": "JULIANA_SOUZA_DE_OLIVEIRA", "ACAO": "REALIZAR_PRIMEIRA_VISITA_POTENCIAL", "RAZAO_SOCIAL": "VIVIANE_APARECIDA_RODRIGUES_22172143812", "ENDERECO": "RUA_DOUTOR_OSWALDO_CRUZ_2391_JARDIM_BOA_ESPERANCA_FRANCA_BRASIL", "CIDADE": "FRANCA", "LATITUDE": -20.5224821, "LONGITUDE": -47.3788296, "BASE": "POTENCIAL" }, "geometry": { "type": "Point", "coordinates": [ -47.3788296, -20.5224821 ] } },
{ "type": "Feature", "properties": { "CNPJ": 35183971000107, "AGENTE": "JULIANA_SOUZA_DE_OLIVEIRA", "ACAO": "REALIZAR_PRIMEIRA_VISITA_POTENCIAL", "RAZAO_SOCIAL": "35.183.971_DIAN_LUCAS_LOPES_DE_SOUSA", "ENDERECO": "RUA_DOUTOR_PERICLES_MACIEL_300_JARDIM_REDENTOR_FRANCA_BRASIL", "CIDADE": "FRANCA", "LATITUDE": -20.5055613, "LONGITUDE": -47.4022814, "BASE": "POTENCIAL" }, "geometry": { "type": "Point", "coordinates": [ -47.4022814, -20.5055613 ] } },
{ "type": "Feature", "properties": { "CNPJ": 37651002000150, "AGENTE": "JULIANA_SOUZA_DE_OLIVEIRA", "ACAO": "REALIZAR_PRIMEIRA_VISITA_POTENCIAL", "RAZAO_SOCIAL": "B_A_GOMES_ARTIGOS_DO_VESTUARIOS", "ENDERECO": "RUA_DOUTOR_PLAUCIO_ANGELO_PRESOTTO_2421_VILA_SANTA_CRUZ_FRANCA_BRASIL", "CIDADE": "FRANCA", "LATITUDE": -20.5356166, "LONGITUDE": -47.3893415, "BASE": "POTENCIAL" }, "geometry": { "type": "Point", "coordinates": [ -47.3893415, -20.5356166 ] } },
{ "type": "Feature", "properties": { "CNPJ": 12923155000189, "AGENTE": "JULIANA_SOUZA_DE_OLIVEIRA", "ACAO": "REALIZAR_PRIMEIRA_VISITA_POTENCIAL", "RAZAO_SOCIAL": "12.923.155_JULIO_CESAR_SAMPAIO", "ENDERECO": "RUA_EDUARDO_AZZUZ_1044_JARDIM_DO_EDEN_FRANCA_BRASIL", "CIDADE": "FRANCA", "LATITUDE": -20.5186783, "LONGITUDE": -47.3703717, "BASE": "POTENCIAL" }, "geometry": { "type": "Point", "coordinates": [ -47.3703717, -20.5186783 ] } },
{ "type": "Feature", "properties": { "CNPJ": 44852636000137, "AGENTE": "JULIANA_SOUZA_DE_OLIVEIRA", "ACAO": "REALIZAR_PRIMEIRA_VISITA_POTENCIAL", "RAZAO_SOCIAL": "G._A._GONCALVES_INDUSTRIA_DE_BOLSAS_LTDA.", "ENDERECO": "RUA_ELIAS_NASSIF_SOBRINHO_303_SAO_JOAQUIM_FRANCA_BRASIL", "CIDADE": "FRANCA", "LATITUDE": -20.5427791, "LONGITUDE": -47.4252019, "BASE": "POTENCIAL" }, "geometry": { "type": "Point", "coordinates": [ -47.4252019, -20.5427791 ] } },
{ "type": "Feature", "properties": { "CNPJ": 23970710000140, "AGENTE": "JULIANA_SOUZA_DE_OLIVEIRA", "ACAO": "REALIZAR_PRIMEIRA_VISITA_POTENCIAL", "RAZAO_SOCIAL": "23.970.710_PRISCILA_FERMINO_DA_SILVA", "ENDERECO": "RUA_ESCRIVAO_MARCOS_SODRE_808_JARDIM_CONCEICAO_LEITE_FRANCA_BRASIL", "CIDADE": "FRANCA", "LATITUDE": -20.5285514, "LONGITUDE": -47.4185042, "BASE": "POTENCIAL" }, "geometry": { "type": "Point", "coordinates": [ -47.4185042, -20.5285514 ] } },
{ "type": "Feature", "properties": { "CNPJ": 54745164000177, "AGENTE": "JULIANA_SOUZA_DE_OLIVEIRA", "ACAO": "REALIZAR_PRIMEIRA_VISITA_POTENCIAL", "RAZAO_SOCIAL": "54.745.164_FRANSERGIO_ALVES_DE_PAULA", "ENDERECO": "RUA_EURIBIADES_FLORENTINO_MOTTA_861_CITY_PETROPOLIS_FRANCA_BRASIL", "CIDADE": "FRANCA", "LATITUDE": -20.473956, "LONGITUDE": -47.3958611, "BASE": "POTENCIAL" }, "geometry": { "type": "Point", "coordinates": [ -47.3958611, -20.473956 ] } },
{ "type": "Feature", "properties": { "CNPJ": 49087424000124, "AGENTE": "JULIANA_SOUZA_DE_OLIVEIRA", "ACAO": "REALIZAR_PRIMEIRA_VISITA_POTENCIAL", "RAZAO_SOCIAL": "49.087.424_MICHELE_SILVA_BORGES", "ENDERECO": "RUA_EURIPEDES_VERZOLA_1420_JARDIM_JOAO_LIPORONI_FRANCA_BRASIL", "CIDADE": "FRANCA", "LATITUDE": -20.512394, "LONGITUDE": -47.4312369, "BASE": "POTENCIAL" }, "geometry": { "type": "Point", "coordinates": [ -47.4312369, -20.512394 ] } },
{ "type": "Feature", "properties": { "CNPJ": 57087679000115, "AGENTE": "JULIANA_SOUZA_DE_OLIVEIRA", "ACAO": "REALIZAR_PRIMEIRA_VISITA_POTENCIAL", "RAZAO_SOCIAL": "57.087.679_JOAO_GUILHERME_APARECIDO_DA_SILVA", "ENDERECO": "RUA_EWERTON_DE_PAULA_MERLINO_2708_VILA_SANTA_CRUZ_FRANCA_BRASIL", "CIDADE": "FRANCA", "LATITUDE": -20.5405047, "LONGITUDE": -47.3843521, "BASE": "POTENCIAL" }, "geometry": { "type": "Point", "coordinates": [ -47.3843521, -20.5405047 ] } },
{ "type": "Feature", "properties": { "CNPJ": 53158558000166, "AGENTE": "JULIANA_SOUZA_DE_OLIVEIRA", "ACAO": "REALIZAR_PRIMEIRA_VISITA_POTENCIAL", "RAZAO_SOCIAL": "53.158.558_CHRISTIAN_ONYEBUCHI_EJEKWUIFE_JUNIOR", "ENDERECO": "RUA_FABIO_BATISTA_CARNEIRO_3334_JARDIM_LUIZA_II_FRANCA_BRASIL", "CIDADE": "FRANCA", "LATITUDE": -20.48315, "LONGITUDE": -47.4230963, "BASE": "POTENCIAL" }, "geometry": { "type": "Point", "coordinates": [ -47.4230963, -20.48315 ] } },
{ "type": "Feature", "properties": { "CNPJ": 50682637000183, "AGENTE": "JULIANA_SOUZA_DE_OLIVEIRA", "ACAO": "REALIZAR_PRIMEIRA_VISITA_POTENCIAL", "RAZAO_SOCIAL": "50.682.637_RODRIGO_JOSE_SALATINE", "ENDERECO": "RUA_FRANCISCA_RANUX_ELIAS_3615_PROLONGAMENTO_JARDIM_ANGELA_ROSA_FRANCA_BRASIL", "CIDADE": "FRANCA", "LATITUDE": -20.5500879, "LONGITUDE": -47.3777981, "BASE": "POTENCIAL" }, "geometry": { "type": "Point", "coordinates": [ -47.3777981, -20.5500879 ] } },
{ "type": "Feature", "properties": { "CNPJ": 41899724000104, "AGENTE": "JULIANA_SOUZA_DE_OLIVEIRA", "ACAO": "REALIZAR_PRIMEIRA_VISITA_POTENCIAL", "RAZAO_SOCIAL": "POLLIANY_MONTES_CRUZ_46312711838", "ENDERECO": "RUA_FRANCISCO_DEOCLECIANO_RIBEIRO_3345_VILA_FORMOSA_FRANCA_BRASIL", "CIDADE": "FRANCA", "LATITUDE": -20.5238661, "LONGITUDE": -47.4043394, "BASE": "POTENCIAL" }, "geometry": { "type": "Point", "coordinates": [ -47.4043394, -20.5238661 ] } },
{ "type": "Feature", "properties": { "CNPJ": 59377335000176, "AGENTE": "JULIANA_SOUZA_DE_OLIVEIRA", "ACAO": "REALIZAR_PRIMEIRA_VISITA_POTENCIAL", "RAZAO_SOCIAL": "59.377.335_DELINE_FERNANDA_OLIVEIRA_SANTANA", "ENDERECO": "RUA_FRANCISCO_PESCE_450_VILA_NOSSA_SENHORA_DAS_GRACAS_FRANCA_BRASIL", "CIDADE": "FRANCA", "LATITUDE": -20.520847, "LONGITUDE": -47.3956954, "BASE": "POTENCIAL" }, "geometry": { "type": "Point", "coordinates": [ -47.3956954, -20.520847 ] } },
{ "type": "Feature", "properties": { "CNPJ": 33089803000113, "AGENTE": "JULIANA_SOUZA_DE_OLIVEIRA", "ACAO": "REALIZAR_PRIMEIRA_VISITA_POTENCIAL", "RAZAO_SOCIAL": "AMANDA_CAROLINA_ALVES_SENE_BERNARDES", "ENDERECO": "RUA_FRANCISCO_PESCE_658_VILA_NOSSA_SENHORA_DAS_GRACAS_FRANCA_BRASIL", "CIDADE": "FRANCA", "LATITUDE": -20.521354, "LONGITUDE": -47.3977977, "BASE": "POTENCIAL" }, "geometry": { "type": "Point", "coordinates": [ -47.3977977, -20.521354 ] } },
{ "type": "Feature", "properties": { "CNPJ": 52349075000186, "AGENTE": "JULIANA_SOUZA_DE_OLIVEIRA", "ACAO": "REALIZAR_PRIMEIRA_VISITA_POTENCIAL", "RAZAO_SOCIAL": "52.349.075_LILIAN_CRISTINA_FERREIRA_TOME", "ENDERECO": "RUA_FRANKILIM_JOSE_PERES_4121_VILA_EXPOSICAO_FRANCA_BRASIL", "CIDADE": "FRANCA", "LATITUDE": -20.5118905, "LONGITUDE": -47.4107044, "BASE": "POTENCIAL" }, "geometry": { "type": "Point", "coordinates": [ -47.4107044, -20.5118905 ] } },
{ "type": "Feature", "properties": { "CNPJ": 41060988000161, "AGENTE": "JULIANA_SOUZA_DE_OLIVEIRA", "ACAO": "REALIZAR_PRIMEIRA_VISITA_POTENCIAL", "RAZAO_SOCIAL": "ATENDECLIN_CLINICA_MEDICA_LTDA", "ENDERECO": "RUA_FREDERICO_MOURA_1411_CIDADE_NOVA_FRANCA_BRASIL", "CIDADE": "FRANCA", "LATITUDE": -20.5277137, "LONGITUDE": -47.3946141, "BASE": "POTENCIAL" }, "geometry": { "type": "Point", "coordinates": [ -47.3946141, -20.5277137 ] } },
{ "type": "Feature", "properties": { "CNPJ": 48802558000117, "AGENTE": "JULIANA_SOUZA_DE_OLIVEIRA", "ACAO": "REALIZAR_PRIMEIRA_VISITA_POTENCIAL", "RAZAO_SOCIAL": "48.802.558_LARISSA_DE_ALMEIDA_SILVA", "ENDERECO": "RUA_GENERAL_CARNEIRO_360_ESTACAO_FRANCA_BRASIL", "CIDADE": "FRANCA", "LATITUDE": -20.5335816, "LONGITUDE": -47.4112522, "BASE": "POTENCIAL" }, "geometry": { "type": "Point", "coordinates": [ -47.4112522, -20.5335816 ] } },
{ "type": "Feature", "properties": { "CNPJ": 47179860000106, "AGENTE": "JULIANA_SOUZA_DE_OLIVEIRA", "ACAO": "REALIZAR_PRIMEIRA_VISITA_POTENCIAL", "RAZAO_SOCIAL": "DOUGLAS_LORRAN_GOMIDE_37871405810", "ENDERECO": "RUA_GENERAL_OSORIO_1025_CENTRO_FRANCA_BRASIL", "CIDADE": "FRANCA", "LATITUDE": -20.5338114, "LONGITUDE": -47.4046548, "BASE": "POTENCIAL" }, "geometry": { "type": "Point", "coordinates": [ -47.4046548, -20.5338114 ] } },
{ "type": "Feature", "properties": { "CNPJ": 33781665000139, "AGENTE": "JULIANA_SOUZA_DE_OLIVEIRA", "ACAO": "REALIZAR_PRIMEIRA_VISITA_POTENCIAL", "RAZAO_SOCIAL": "MARCOS_ANTONIO_TEIXEIRA_COUTO_07177035842", "ENDERECO": "RUA_GENERAL_OSORIO_1549_CENTRO_FRANCA_BRASIL", "CIDADE": "FRANCA", "LATITUDE": -20.5348312, "LONGITUDE": -47.3997487, "BASE": "POTENCIAL" }, "geometry": { "type": "Point", "coordinates": [ -47.3997487, -20.5348312 ] } },
{ "type": "Feature", "properties": { "CNPJ": 42961404000191, "AGENTE": "JULIANA_SOUZA_DE_OLIVEIRA", "ACAO": "REALIZAR_PRIMEIRA_VISITA_POTENCIAL", "RAZAO_SOCIAL": "HELLEN_MODESTO_RODRIGUES_47307233843", "ENDERECO": "RUA_GENERAL_OSORIO_265_ESTACAO_FRANCA_BRASIL", "CIDADE": "FRANCA", "LATITUDE": -20.5321377, "LONGITUDE": -47.41163, "BASE": "POTENCIAL" }, "geometry": { "type": "Point", "coordinates": [ -47.41163, -20.5321377 ] } },
{ "type": "Feature", "properties": { "CNPJ": 57237691000169, "AGENTE": "JULIANA_SOUZA_DE_OLIVEIRA", "ACAO": "REALIZAR_PRIMEIRA_VISITA_POTENCIAL", "RAZAO_SOCIAL": "57.237.691_ANA_PAULA_DE_ANDRADE", "ENDERECO": "RUA_GERALDA_THEODORO_DA_SILVA_6610_FRANCA_POLO_CLUB_FRANCA_BRASIL", "CIDADE": "FRANCA", "LATITUDE": -20.5693154, "LONGITUDE": -47.3609736, "BASE": "POTENCIAL" }, "geometry": { "type": "Point", "coordinates": [ -47.3609736, -20.5693154 ] } },
{ "type": "Feature", "properties": { "CNPJ": 46736159000170, "AGENTE": "JULIANA_SOUZA_DE_OLIVEIRA", "ACAO": "REALIZAR_PRIMEIRA_VISITA_POTENCIAL", "RAZAO_SOCIAL": "46.736.159_LEONARDO_DE_SOUZA_SILVA", "ENDERECO": "RUA_GERALDO_BORGES_FREITAS_1021_JARDIM_PALMA_FRANCA_BRASIL", "CIDADE": "FRANCA", "LATITUDE": -20.5177002, "LONGITUDE": -47.3682899, "BASE": "POTENCIAL" }, "geometry": { "type": "Point", "coordinates": [ -47.3682899, -20.5177002 ] } },
{ "type": "Feature", "properties": { "CNPJ": 49690382000111, "AGENTE": "JULIANA_SOUZA_DE_OLIVEIRA", "ACAO": "REALIZAR_PRIMEIRA_VISITA_POTENCIAL", "RAZAO_SOCIAL": "MT_MANUTENCAO_REPARACAO_E_ESTETICA_AUTOMOTIVA_LTDA", "ENDERECO": "RUA_GONCALVES_DIAS_1926_ESTACAO_FRANCA_BRASIL", "CIDADE": "FRANCA", "LATITUDE": -20.5348927, "LONGITUDE": -47.4096995, "BASE": "POTENCIAL" }, "geometry": { "type": "Point", "coordinates": [ -47.4096995, -20.5348927 ] } },
{ "type": "Feature", "properties": { "CNPJ": 44152499000128, "AGENTE": "JULIANA_SOUZA_DE_OLIVEIRA", "ACAO": "REALIZAR_PRIMEIRA_VISITA_POTENCIAL", "RAZAO_SOCIAL": "ANTONIO_C._DA_S._JUNIOR", "ENDERECO": "RUA_GUANABARA_2102_VILA_APARECIDA_FRANCA_BRASIL", "CIDADE": "FRANCA", "LATITUDE": -20.526553, "LONGITUDE": -47.371363, "BASE": "POTENCIAL" }, "geometry": { "type": "Point", "coordinates": [ -47.371363, -20.526553 ] } },
{ "type": "Feature", "properties": { "CNPJ": 58228251000108, "AGENTE": "JULIANA_SOUZA_DE_OLIVEIRA", "ACAO": "REALIZAR_PRIMEIRA_VISITA_POTENCIAL", "RAZAO_SOCIAL": "58.228.251_THAIS_ROBERTA_FLORENTINO_OLIVEIRA_BERTONI", "ENDERECO": "RUA_HEDD_LAMAR_RIBEIRO_2220_RESIDENCIAL_SAN_DIEGO_FRANCA_BRASIL", "CIDADE": "FRANCA", "LATITUDE": -20.568251, "LONGITUDE": -47.3967979, "BASE": "POTENCIAL" }, "geometry": { "type": "Point", "coordinates": [ -47.3967979, -20.568251 ] } },
{ "type": "Feature", "properties": { "CNPJ": 40183753000102, "AGENTE": "JULIANA_SOUZA_DE_OLIVEIRA", "ACAO": "REALIZAR_PRIMEIRA_VISITA_POTENCIAL", "RAZAO_SOCIAL": "40.183.753_LEONARDO_BORGES_LIMEIRA_PINTO", "ENDERECO": "RUA_HEITOR_DOS_PRAZERES_781_PARQUE_RESIDENCIAL_NOVA_FRANCA_FRANCA_BRASIL", "CIDADE": "FRANCA", "LATITUDE": -20.5052754, "LONGITUDE": -47.3906012, "BASE": "POTENCIAL" }, "geometry": { "type": "Point", "coordinates": [ -47.3906012, -20.5052754 ] } },
{ "type": "Feature", "properties": { "CNPJ": 54460374000119, "AGENTE": "JULIANA_SOUZA_DE_OLIVEIRA", "ACAO": "REALIZAR_PRIMEIRA_VISITA_POTENCIAL", "RAZAO_SOCIAL": "54.460.374_YURI_BANDIM_RESENDE_ARAUJO", "ENDERECO": "RUA_HERCILIO_BATISTA_DE_AVELAR_968_PROLONGAMENTO_JARDIM_LIMA_FRANCA_BRASIL", "CIDADE": "FRANCA", "LATITUDE": -20.5589468, "LONGITUDE": -47.3983018, "BASE": "POTENCIAL" }, "geometry": { "type": "Point", "coordinates": [ -47.3983018, -20.5589468 ] } },
{ "type": "Feature", "properties": { "CNPJ": 56903257000108, "AGENTE": "JULIANA_SOUZA_DE_OLIVEIRA", "ACAO": "REALIZAR_PRIMEIRA_VISITA_POTENCIAL", "RAZAO_SOCIAL": "56.903.257_KEROLAINE_HONORIO_AVELINO_FRANCA", "ENDERECO": "RUA_HERMOGENES_DE_MELLO_690_PROLONGAMENTO_VILA_DUQUE_DE_CAXIAS_FRANCA_BRASIL", "CIDADE": "FRANCA", "LATITUDE": -20.5240007, "LONGITUDE": -47.3989413, "BASE": "POTENCIAL" }, "geometry": { "type": "Point", "coordinates": [ -47.3989413, -20.5240007 ] } },
{ "type": "Feature", "properties": { "CNPJ": 56098245000158, "AGENTE": "JULIANA_SOUZA_DE_OLIVEIRA", "ACAO": "REALIZAR_PRIMEIRA_VISITA_POTENCIAL", "RAZAO_SOCIAL": "56.098.245_HUGO_LUIS_LOURENCO", "ENDERECO": "RUA_HORACIO_BORGES_DE_OLIVEIRA_3256_RESIDENCIAL_IRINEU_ZANETTI_FRANCA_BRASIL", "CIDADE": "FRANCA", "LATITUDE": -20.565498, "LONGITUDE": -47.349943, "BASE": "POTENCIAL" }, "geometry": { "type": "Point", "coordinates": [ -47.349943, -20.565498 ] } },
{ "type": "Feature", "properties": { "CNPJ": 51612189000104, "AGENTE": "JULIANA_SOUZA_DE_OLIVEIRA", "ACAO": "REALIZAR_PRIMEIRA_VISITA_POTENCIAL", "RAZAO_SOCIAL": "51.612.189_NILSON_LAYBER", "ENDERECO": "RUA_IRACY_PEREIRA_GOULART_3235_JARDIM_TROPICAL_FRANCA_BRASIL", "CIDADE": "FRANCA", "LATITUDE": -20.503457, "LONGITUDE": -47.4174249, "BASE": "POTENCIAL" }, "geometry": { "type": "Point", "coordinates": [ -47.4174249, -20.503457 ] } },
{ "type": "Feature", "properties": { "CNPJ": 57972164000106, "AGENTE": "JULIANA_SOUZA_DE_OLIVEIRA", "ACAO": "REALIZAR_PRIMEIRA_VISITA_POTENCIAL", "RAZAO_SOCIAL": "57.972.164_RAUCIMA_MOREIRA_DE_SOUSA", "ENDERECO": "RUA_IRMAOS_ANTUNES_1011_JARDIM_MARIA_ROSA_FRANCA_BRASIL", "CIDADE": "FRANCA", "LATITUDE": -20.5165623, "LONGITUDE": -47.4149704, "BASE": "POTENCIAL" }, "geometry": { "type": "Point", "coordinates": [ -47.4149704, -20.5165623 ] } },
{ "type": "Feature", "properties": { "CNPJ": 41448311000103, "AGENTE": "JULIANA_SOUZA_DE_OLIVEIRA", "ACAO": "REALIZAR_PRIMEIRA_VISITA_POTENCIAL", "RAZAO_SOCIAL": "41.448.311_YANA_CAROLINE_FERREIRA_GONCALVES", "ENDERECO": "RUA_ISSA_ASTUN_2130_JARDIM_LIBANO_FRANCA_BRASIL", "CIDADE": "FRANCA", "LATITUDE": -20.5349236, "LONGITUDE": -47.3675566, "BASE": "POTENCIAL" }, "geometry": { "type": "Point", "coordinates": [ -47.3675566, -20.5349236 ] } },
{ "type": "Feature", "properties": { "CNPJ": 35723389000188, "AGENTE": "JULIANA_SOUZA_DE_OLIVEIRA", "ACAO": "REALIZAR_PRIMEIRA_VISITA_POTENCIAL", "RAZAO_SOCIAL": "35.723.389_EDVALDO_DIAS", "ENDERECO": "RUA_JERONIMO_FORTUNATO_BARBOSA_1115_JARDIM_ROSELANDIA_FRANCA_BRASIL", "CIDADE": "FRANCA", "LATITUDE": -20.5468805, "LONGITUDE": -47.4140633, "BASE": "POTENCIAL" }, "geometry": { "type": "Point", "coordinates": [ -47.4140633, -20.5468805 ] } },
{ "type": "Feature", "properties": { "CNPJ": 46840271000156, "AGENTE": "JULIANA_SOUZA_DE_OLIVEIRA", "ACAO": "REALIZAR_PRIMEIRA_VISITA_POTENCIAL", "RAZAO_SOCIAL": "46.840.271_KELLY_CRISTINA_SILVA_SANTOS", "ENDERECO": "RUA_JOAO_QUIRINO_DE_SOUZA_1277_VILA_INDUSTRIAL_FRANCA_BRASIL", "CIDADE": "FRANCA", "LATITUDE": -20.5461979, "LONGITUDE": -47.3952486, "BASE": "POTENCIAL" }, "geometry": { "type": "Point", "coordinates": [ -47.3952486, -20.5461979 ] } },
{ "type": "Feature", "properties": { "CNPJ": 46972321000159, "AGENTE": "JULIANA_SOUZA_DE_OLIVEIRA", "ACAO": "REALIZAR_PRIMEIRA_VISITA_POTENCIAL", "RAZAO_SOCIAL": "46.972.321_RAFAEL_SOARES_DOS_SANTOS", "ENDERECO": "RUA_JOAQUIM_GARCIA_DE_SOUZA_5865_JARDIM_PARATY_FRANCA_BRASIL", "CIDADE": "FRANCA", "LATITUDE": -20.5544954, "LONGITUDE": -47.363928, "BASE": "POTENCIAL" }, "geometry": { "type": "Point", "coordinates": [ -47.363928, -20.5544954 ] } },
{ "type": "Feature", "properties": { "CNPJ": 51054862000138, "AGENTE": "JULIANA_SOUZA_DE_OLIVEIRA", "ACAO": "REALIZAR_PRIMEIRA_VISITA_POTENCIAL", "RAZAO_SOCIAL": "51.054.862_TIAGO_RAMOS_RODRIGUES", "ENDERECO": "RUA_JORGE_BARSOTELLI_1894_JARDIM_RIVIERA_FRANCA_BRASIL", "CIDADE": "FRANCA", "LATITUDE": -20.5161176, "LONGITUDE": -47.387844, "BASE": "POTENCIAL" }, "geometry": { "type": "Point", "coordinates": [ -47.387844, -20.5161176 ] } },
{ "type": "Feature", "properties": { "CNPJ": 23887232000109, "AGENTE": "JULIANA_SOUZA_DE_OLIVEIRA", "ACAO": "REALIZAR_PRIMEIRA_VISITA_POTENCIAL", "RAZAO_SOCIAL": "GUSTAVO_DE_OLIVEIRA_SOUZA_42871968802", "ENDERECO": "RUA_JOSE_ABRAO_DA_SILVA_2253_PARQUE_PROGRESSO_FRANCA_BRASIL", "CIDADE": "FRANCA", "LATITUDE": -20.562744, "LONGITUDE": -47.398049, "BASE": "POTENCIAL" }, "geometry": { "type": "Point", "coordinates": [ -47.398049, -20.562744 ] } },
{ "type": "Feature", "properties": { "CNPJ": 53843862000142, "AGENTE": "JULIANA_SOUZA_DE_OLIVEIRA", "ACAO": "REALIZAR_PRIMEIRA_VISITA_POTENCIAL", "RAZAO_SOCIAL": "53.843.862_LORENA_DE_SOUZA_RIBEIRO", "ENDERECO": "RUA_JOSE_GARCIA_BARBOSA_2726_JARDIM_LUIZA_FRANCA_BRASIL", "CIDADE": "FRANCA", "LATITUDE": -20.4888526, "LONGITUDE": -47.4210767, "BASE": "POTENCIAL" }, "geometry": { "type": "Point", "coordinates": [ -47.4210767, -20.4888526 ] } },
{ "type": "Feature", "properties": { "CNPJ": 54536820000121, "AGENTE": "JULIANA_SOUZA_DE_OLIVEIRA", "ACAO": "REALIZAR_PRIMEIRA_VISITA_POTENCIAL", "RAZAO_SOCIAL": "54.536.820_PAULO_ROBERTO_BARBEIRO", "ENDERECO": "RUA_JOSE_HENRIQUE_DE_ALMEIDA_3961_PARQUE_SANTA_HILDA_FRANCA_BRASIL", "CIDADE": "FRANCA", "LATITUDE": -20.5499262, "LONGITUDE": -47.3732179, "BASE": "POTENCIAL" }, "geometry": { "type": "Point", "coordinates": [ -47.3732179, -20.5499262 ] } },
{ "type": "Feature", "properties": { "CNPJ": 36268113000110, "AGENTE": "JULIANA_SOUZA_DE_OLIVEIRA", "ACAO": "REALIZAR_PRIMEIRA_VISITA_POTENCIAL", "RAZAO_SOCIAL": "36.268.113_GILSON_PEREIRA_DOS_SANTOS", "ENDERECO": "RUA_JOSE_MARIA_JACINTHO_REBELO_5932_JARDIM_REDENTOR_FRANCA_BRASIL", "CIDADE": "FRANCA", "LATITUDE": -20.4962523, "LONGITUDE": -47.4037197, "BASE": "POTENCIAL" }, "geometry": { "type": "Point", "coordinates": [ -47.4037197, -20.4962523 ] } },
{ "type": "Feature", "properties": { "CNPJ": 23158331000150, "AGENTE": "JULIANA_SOUZA_DE_OLIVEIRA", "ACAO": "REALIZAR_PRIMEIRA_VISITA_POTENCIAL", "RAZAO_SOCIAL": "JJA_COMUNICACAO_E_EMPREENDIMENTOS_LTDA", "ENDERECO": "RUA_JOSE_OSMAR_LEITE_637_RESIDENCIAL_ITAPUA_FRANCA_BRASIL", "CIDADE": "FRANCA", "LATITUDE": -20.5434005, "LONGITUDE": -47.4305429, "BASE": "POTENCIAL" }, "geometry": { "type": "Point", "coordinates": [ -47.4305429, -20.5434005 ] } },
{ "type": "Feature", "properties": { "CNPJ": 51351446000100, "AGENTE": "JULIANA_SOUZA_DE_OLIVEIRA", "ACAO": "REALIZAR_PRIMEIRA_VISITA_POTENCIAL", "RAZAO_SOCIAL": "51.351.446_LUCAS_HENRIQUE_OLIVEIRA_CINTRA", "ENDERECO": "RUA_JOSE_REIS_973_JARDIM_PAULISTANO_FRANCA_BRASIL", "CIDADE": "FRANCA", "LATITUDE": -20.5242292, "LONGITUDE": -47.3555924, "BASE": "POTENCIAL" }, "geometry": { "type": "Point", "coordinates": [ -47.3555924, -20.5242292 ] } },
{ "type": "Feature", "properties": { "CNPJ": 33711972000143, "AGENTE": "JULIANA_SOUZA_DE_OLIVEIRA", "ACAO": "REALIZAR_PRIMEIRA_VISITA_POTENCIAL", "RAZAO_SOCIAL": "EDERSON_ELIAS_DE_SOUSA", "ENDERECO": "RUA_JOSE_SATURI_5921_PROLONGAMENTO_RESIDENCIAL_ANA_DOROTHEA_FRANCA_BRASIL", "CIDADE": "FRANCA", "LATITUDE": -20.5414842, "LONGITUDE": -47.359439, "BASE": "POTENCIAL" }, "geometry": { "type": "Point", "coordinates": [ -47.359439, -20.5414842 ] } },
{ "type": "Feature", "properties": { "CNPJ": 22105879000179, "AGENTE": "JULIANA_SOUZA_DE_OLIVEIRA", "ACAO": "REALIZAR_PRIMEIRA_VISITA_POTENCIAL", "RAZAO_SOCIAL": "22.105.879_MARCO_ANTONIO_MARCAL", "ENDERECO": "RUA_JOSUE_DOMINGOS_DE_CAMPOS_602_RESIDENCIAL_JARDIM_VERA_CRUZ_FRANCA_BRASIL", "CIDADE": "FRANCA", "LATITUDE": -20.490531, "LONGITUDE": -47.408907, "BASE": "POTENCIAL" }, "geometry": { "type": "Point", "coordinates": [ -47.408907, -20.490531 ] } },
{ "type": "Feature", "properties": { "CNPJ": 32954784000183, "AGENTE": "JULIANA_SOUZA_DE_OLIVEIRA", "ACAO": "REALIZAR_PRIMEIRA_VISITA_POTENCIAL", "RAZAO_SOCIAL": "IGOR_ZANELLI_DO_CARMO_33225103870", "ENDERECO": "RUA_JOVIANO_SOARES_2661_VILA_EUROPA_FRANCA_BRASIL", "CIDADE": "FRANCA", "LATITUDE": -20.5603104, "LONGITUDE": -47.3944204, "BASE": "POTENCIAL" }, "geometry": { "type": "Point", "coordinates": [ -47.3944204, -20.5603104 ] } },
{ "type": "Feature", "properties": { "CNPJ": 60356981000136, "AGENTE": "JULIANA_SOUZA_DE_OLIVEIRA", "ACAO": "REALIZAR_PRIMEIRA_VISITA_POTENCIAL", "RAZAO_SOCIAL": "60.356.981_WALYSSON_PAULO_EXPEDITO_LOPES", "ENDERECO": "RUA_JUIZ_DE_FORA_101_JARDIM_BRASILANDIA_FRANCA_BRASIL", "CIDADE": "FRANCA", "LATITUDE": -20.5280246, "LONGITUDE": -47.3675481, "BASE": "POTENCIAL" }, "geometry": { "type": "Point", "coordinates": [ -47.3675481, -20.5280246 ] } },
{ "type": "Feature", "properties": { "CNPJ": 55662330000134, "AGENTE": "JULIANA_SOUZA_DE_OLIVEIRA", "ACAO": "REALIZAR_PRIMEIRA_VISITA_POTENCIAL", "RAZAO_SOCIAL": "55.662.330_KELVYN_RIBEIRO_ROSA", "ENDERECO": "RUA_JULITA_MARTINS_FERREIRA_3249_VILA_SCARABUCCI_FRANCA_BRASIL", "CIDADE": "FRANCA", "LATITUDE": -20.5475344, "LONGITUDE": -47.3870719, "BASE": "POTENCIAL" }, "geometry": { "type": "Point", "coordinates": [ -47.3870719, -20.5475344 ] } },
{ "type": "Feature", "properties": { "CNPJ": 59063319000109, "AGENTE": "JULIANA_SOUZA_DE_OLIVEIRA", "ACAO": "REALIZAR_PRIMEIRA_VISITA_POTENCIAL", "RAZAO_SOCIAL": "59.063.319_CLEMERSON_RODRIGO_DE_CASTRO_MELO", "ENDERECO": "RUA_LAURA_GUERNER_GUIMARAES_2489_VILA_SANTA_CRUZ_FRANCA_BRASIL", "CIDADE": "FRANCA", "LATITUDE": -20.5426033, "LONGITUDE": -47.3893246, "BASE": "POTENCIAL" }, "geometry": { "type": "Point", "coordinates": [ -47.3893246, -20.5426033 ] } },
{ "type": "Feature", "properties": { "CNPJ": 19288283000147, "AGENTE": "JULIANA_SOUZA_DE_OLIVEIRA", "ACAO": "REALIZAR_PRIMEIRA_VISITA_POTENCIAL", "RAZAO_SOCIAL": "VIVIANE_BEATRIZ_DA_SILVA_GONCALVES_37857130885", "ENDERECO": "RUA_LEANDRO_FERNANDES_MARTINS_1727_JARDIM_AEROPORTO_III_FRANCA_BRASIL", "CIDADE": "FRANCA", "LATITUDE": -20.5918429, "LONGITUDE": -47.3725375, "BASE": "POTENCIAL" }, "geometry": { "type": "Point", "coordinates": [ -47.3725375, -20.5918429 ] } },
{ "type": "Feature", "properties": { "CNPJ": 60271543000175, "AGENTE": "JULIANA_SOUZA_DE_OLIVEIRA", "ACAO": "REALIZAR_PRIMEIRA_VISITA_POTENCIAL", "RAZAO_SOCIAL": "60.271.543_BRUNO_HENRIQUE_BORGES_FALEIROS", "ENDERECO": "RUA_LUIZ_ESTEPHANELLI_4050_LOTEAMENTO_QUINTA_DO_OESTE_FRANCA_BRASIL", "CIDADE": "FRANCA", "LATITUDE": -20.5203651, "LONGITUDE": -47.455699, "BASE": "POTENCIAL" }, "geometry": { "type": "Point", "coordinates": [ -47.455699, -20.5203651 ] } },
{ "type": "Feature", "properties": { "CNPJ": 56874036000159, "AGENTE": "JULIANA_SOUZA_DE_OLIVEIRA", "ACAO": "REALIZAR_PRIMEIRA_VISITA_POTENCIAL", "RAZAO_SOCIAL": "56.874.036_FERNANDA_APARECIDA_FERNANDES", "ENDERECO": "RUA_LUIZ_MILANI_2775_JARDIM_LUIZA_FRANCA_BRASIL", "CIDADE": "FRANCA", "LATITUDE": -20.4874047, "LONGITUDE": -47.4203238, "BASE": "POTENCIAL" }, "geometry": { "type": "Point", "coordinates": [ -47.4203238, -20.4874047 ] } },
{ "type": "Feature", "properties": { "CNPJ": 39830166000170, "AGENTE": "JULIANA_SOUZA_DE_OLIVEIRA", "ACAO": "REALIZAR_PRIMEIRA_VISITA_POTENCIAL", "RAZAO_SOCIAL": "JESSICA_TAMIRES_INACIO_CHIQUETTO_42871966869", "ENDERECO": "RUA_MADRE_MARIA_VILLAC_1973_JARDIM_AEROPORTO_III_FRANCA_BRASIL", "CIDADE": "FRANCA", "LATITUDE": -20.5914327, "LONGITUDE": -47.372721, "BASE": "POTENCIAL" }, "geometry": { "type": "Point", "coordinates": [ -47.372721, -20.5914327 ] } },
{ "type": "Feature", "properties": { "CNPJ": 29707333000137, "AGENTE": "JULIANA_SOUZA_DE_OLIVEIRA", "ACAO": "REALIZAR_PRIMEIRA_VISITA_POTENCIAL", "RAZAO_SOCIAL": "29.707.333_LUCAS_SANTOS_SANTANA", "ENDERECO": "RUA_MAJOR_CLAUDIANO_2110_CENTRO_FRANCA_BRASIL", "CIDADE": "FRANCA", "LATITUDE": -20.535165, "LONGITUDE": -47.4000245, "BASE": "POTENCIAL" }, "geometry": { "type": "Point", "coordinates": [ -47.4000245, -20.535165 ] } },
{ "type": "Feature", "properties": { "CNPJ": 29472058000110, "AGENTE": "JULIANA_SOUZA_DE_OLIVEIRA", "ACAO": "REALIZAR_PRIMEIRA_VISITA_POTENCIAL", "RAZAO_SOCIAL": "29.472.058_CARLOS_ROBERTO_DA_SILVA", "ENDERECO": "RUA_MAJOR_MOURA_MATTOS_821_VILA_REZENDE_FRANCA_BRASIL", "CIDADE": "FRANCA", "LATITUDE": -20.5289655, "LONGITUDE": -47.4288443, "BASE": "POTENCIAL" }, "geometry": { "type": "Point", "coordinates": [ -47.4288443, -20.5289655 ] } },
{ "type": "Feature", "properties": { "CNPJ": 48068653000139, "AGENTE": "JULIANA_SOUZA_DE_OLIVEIRA", "ACAO": "REALIZAR_PRIMEIRA_VISITA_POTENCIAL", "RAZAO_SOCIAL": "MARCIO_MORAES_DOS_SANTOS_45982579890", "ENDERECO": "RUA_MAJOR_MOURA_MATTOS_852_VILA_REZENDE_FRANCA_BRASIL", "CIDADE": "FRANCA", "LATITUDE": -20.5286229, "LONGITUDE": -47.4288053, "BASE": "POTENCIAL" }, "geometry": { "type": "Point", "coordinates": [ -47.4288053, -20.5286229 ] } },
{ "type": "Feature", "properties": { "CNPJ": 46009228000143, "AGENTE": "JULIANA_SOUZA_DE_OLIVEIRA", "ACAO": "REALIZAR_PRIMEIRA_VISITA_POTENCIAL", "RAZAO_SOCIAL": "MICHEL_MESSIAS_COSTA_LTDA", "ENDERECO": "RUA_MARIA_APARECIDA_DE_BARROS_PONCE_2976_JARDIM_LUIZA_FRANCA_BRASIL", "CIDADE": "FRANCA", "LATITUDE": -20.4868556, "LONGITUDE": -47.423387, "BASE": "POTENCIAL" }, "geometry": { "type": "Point", "coordinates": [ -47.423387, -20.4868556 ] } },
{ "type": "Feature", "properties": { "CNPJ": 25259459000135, "AGENTE": "JULIANA_SOUZA_DE_OLIVEIRA", "ACAO": "REALIZAR_PRIMEIRA_VISITA_POTENCIAL", "RAZAO_SOCIAL": "FENIX_SUCOS_LTDA", "ENDERECO": "RUA_MARIA_CECILIA_TAVEIRA_4650_RESIDENCIAL_ANA_DOROTHEA_FRANCA_BRASIL", "CIDADE": "FRANCA", "LATITUDE": -20.553883, "LONGITUDE": -47.356924, "BASE": "POTENCIAL" }, "geometry": { "type": "Point", "coordinates": [ -47.356924, -20.553883 ] } },
{ "type": "Feature", "properties": { "CNPJ": 52732851000122, "AGENTE": "JULIANA_SOUZA_DE_OLIVEIRA", "ACAO": "REALIZAR_PRIMEIRA_VISITA_POTENCIAL", "RAZAO_SOCIAL": "52.732.851_VANESSA_CRISTINA_AMORIM_NASCIMENTO", "ENDERECO": "RUA_MARIANA_RUFINO_DOS_SANTOS_3259_JARDIM_LUIZA_II_FRANCA_BRASIL", "CIDADE": "FRANCA", "LATITUDE": -20.4840372, "LONGITUDE": -47.4235703, "BASE": "POTENCIAL" }, "geometry": { "type": "Point", "coordinates": [ -47.4235703, -20.4840372 ] } },
{ "type": "Feature", "properties": { "CNPJ": 43848139000100, "AGENTE": "JULIANA_SOUZA_DE_OLIVEIRA", "ACAO": "REALIZAR_PRIMEIRA_VISITA_POTENCIAL", "RAZAO_SOCIAL": "43.848.139_FERNANDA_CARDOSO_BARBOSA", "ENDERECO": "RUA_MICHEL_ASTUN_JUNIOR_540_PROLONGAMENTO_PARQUE_DAS_ESMERALDAS_FRANCA_BRASIL", "CIDADE": "FRANCA", "LATITUDE": -20.5419112, "LONGITUDE": -47.4528127, "BASE": "POTENCIAL" }, "geometry": { "type": "Point", "coordinates": [ -47.4528127, -20.5419112 ] } },
{ "type": "Feature", "properties": { "CNPJ": 39318833000130, "AGENTE": "JULIANA_SOUZA_DE_OLIVEIRA", "ACAO": "REALIZAR_PRIMEIRA_VISITA_POTENCIAL", "RAZAO_SOCIAL": "TEMPERO_D_MAE_RESTAURANTE_LTDA", "ENDERECO": "RUA_MINAS_GERAIS_427_VILA_APARECIDA_FRANCA_BRASIL", "CIDADE": "FRANCA", "LATITUDE": -20.5258105, "LONGITUDE": -47.3877117, "BASE": "POTENCIAL" }, "geometry": { "type": "Point", "coordinates": [ -47.3877117, -20.5258105 ] } },
{ "type": "Feature", "properties": { "CNPJ": 13539497000162, "AGENTE": "JULIANA_SOUZA_DE_OLIVEIRA", "ACAO": "REALIZAR_PRIMEIRA_VISITA_POTENCIAL", "RAZAO_SOCIAL": "13.539.497_CLEBER_EURIPEDES_CARETA", "ENDERECO": "RUA_MINAS_GERAIS_487_VILA_APARECIDA_FRANCA_BRASIL", "CIDADE": "FRANCA", "LATITUDE": -20.5258406, "LONGITUDE": -47.3872478, "BASE": "POTENCIAL" }, "geometry": { "type": "Point", "coordinates": [ -47.3872478, -20.5258406 ] } },
{ "type": "Feature", "properties": { "CNPJ": 40378281000135, "AGENTE": "JULIANA_SOUZA_DE_OLIVEIRA", "ACAO": "REALIZAR_PRIMEIRA_VISITA_POTENCIAL", "RAZAO_SOCIAL": "C.M.R_CALCADOS_LTDA", "ENDERECO": "RUA_MIRIAN_REGINA_PEREIRA_5590_JARDIM_TRES_COLINAS_FRANCA_BRASIL", "CIDADE": "FRANCA", "LATITUDE": -20.5618064, "LONGITUDE": -47.3656152, "BASE": "POTENCIAL" }, "geometry": { "type": "Point", "coordinates": [ -47.3656152, -20.5618064 ] } },
{ "type": "Feature", "properties": { "CNPJ": 48716868000119, "AGENTE": "JULIANA_SOUZA_DE_OLIVEIRA", "ACAO": "REALIZAR_PRIMEIRA_VISITA_POTENCIAL", "RAZAO_SOCIAL": "48.716.868_CELSO_ABRAO_MIGUEL_JUNIOR", "ENDERECO": "RUA_MONSENHOR_ROSA_2613_CENTRO_FRANCA_BRASIL", "CIDADE": "FRANCA", "LATITUDE": -20.5306225, "LONGITUDE": -47.3996516, "BASE": "POTENCIAL" }, "geometry": { "type": "Point", "coordinates": [ -47.3996516, -20.5306225 ] } },
{ "type": "Feature", "properties": { "CNPJ": 48801608000141, "AGENTE": "JULIANA_SOUZA_DE_OLIVEIRA", "ACAO": "REALIZAR_PRIMEIRA_VISITA_POTENCIAL", "RAZAO_SOCIAL": "48.801.608_LARISSA_CARILO_DA_SILVA", "ENDERECO": "RUA_NATIVO_BORGES_DA_SILVA_6040_VILLA_REAL_FRANCA_BRASIL", "CIDADE": "FRANCA", "LATITUDE": -20.5678906, "LONGITUDE": -47.3674143, "BASE": "POTENCIAL" }, "geometry": { "type": "Point", "coordinates": [ -47.3674143, -20.5678906 ] } },
{ "type": "Feature", "properties": { "CNPJ": 40677952000169, "AGENTE": "JULIANA_SOUZA_DE_OLIVEIRA", "ACAO": "REALIZAR_PRIMEIRA_VISITA_POTENCIAL", "RAZAO_SOCIAL": "ISRAEL_AUGUSTO_GABRIEL_DIAS_MACHADO_47605029802", "ENDERECO": "RUA_NOSSA_SENHORA_DE_FATIMA_1819_VILA_SANTA_RITA_FRANCA_BRASIL", "CIDADE": "FRANCA", "LATITUDE": -20.5487995, "LONGITUDE": -47.3913937, "BASE": "POTENCIAL" }, "geometry": { "type": "Point", "coordinates": [ -47.3913937, -20.5487995 ] } },
{ "type": "Feature", "properties": { "CNPJ": 55266583000199, "AGENTE": "JULIANA_SOUZA_DE_OLIVEIRA", "ACAO": "REALIZAR_PRIMEIRA_VISITA_POTENCIAL", "RAZAO_SOCIAL": "55.266.583_FERNANDO_LUCAS_MARIANO_DA_SILVA", "ENDERECO": "RUA_OSWALDO_GASPAR_925_JARDIM_SANTA_LUCIA_FRANCA_BRASIL", "CIDADE": "FRANCA", "LATITUDE": -20.5641787, "LONGITUDE": -47.3875272, "BASE": "POTENCIAL" }, "geometry": { "type": "Point", "coordinates": [ -47.3875272, -20.5641787 ] } },
{ "type": "Feature", "properties": { "CNPJ": 33924669000129, "AGENTE": "JULIANA_SOUZA_DE_OLIVEIRA", "ACAO": "REALIZAR_PRIMEIRA_VISITA_POTENCIAL", "RAZAO_SOCIAL": "FABRICIO_JOSE_DA_SILVA_39365498856", "ENDERECO": "RUA_PAOLO_GAUDENZI_(RESIDENCIAL_JARDIM_COPACABANA)_3821_JARDIM_BONSUCESSO_FRANCA_BRASIL", "CIDADE": "FRANCA", "LATITUDE": -20.5307454, "LONGITUDE": -47.4499684, "BASE": "POTENCIAL" }, "geometry": { "type": "Point", "coordinates": [ -47.4499684, -20.5307454 ] } },
{ "type": "Feature", "properties": { "CNPJ": 40818689000180, "AGENTE": "JULIANA_SOUZA_DE_OLIVEIRA", "ACAO": "REALIZAR_PRIMEIRA_VISITA_POTENCIAL", "RAZAO_SOCIAL": "RBM_FITNESS_LTDA", "ENDERECO": "RUA_PAULINO_LIBONI_1020_SAO_JOAQUIM_FRANCA_BRASIL", "CIDADE": "FRANCA", "LATITUDE": -20.5383675, "LONGITUDE": -47.4314297, "BASE": "POTENCIAL" }, "geometry": { "type": "Point", "coordinates": [ -47.4314297, -20.5383675 ] } },
{ "type": "Feature", "properties": { "CNPJ": 53649979000190, "AGENTE": "JULIANA_SOUZA_DE_OLIVEIRA", "ACAO": "REALIZAR_PRIMEIRA_VISITA_POTENCIAL", "RAZAO_SOCIAL": "53.649.979_WILLIAN_OLIVEIRA_PIRES", "ENDERECO": "RUA_PEDRO_AGUILA_GARCIA_2715_RESIDENCIAL_JULIO_D'ELIA_FRANCA_BRASIL", "CIDADE": "FRANCA", "LATITUDE": -20.5240511, "LONGITUDE": -47.4471674, "BASE": "POTENCIAL" }, "geometry": { "type": "Point", "coordinates": [ -47.4471674, -20.5240511 ] } },
{ "type": "Feature", "properties": { "CNPJ": 56685919000110, "AGENTE": "JULIANA_SOUZA_DE_OLIVEIRA", "ACAO": "REALIZAR_PRIMEIRA_VISITA_POTENCIAL", "RAZAO_SOCIAL": "56.685.919_BRUNO_CARVALHO_SARDANHA", "ENDERECO": "RUA_PEDRO_CUSTODIO_DE_SOUZA_275_JARDIM_AEROPORTO_II_FRANCA_BRASIL", "CIDADE": "FRANCA", "LATITUDE": -20.5836024, "LONGITUDE": -47.3691352, "BASE": "POTENCIAL" }, "geometry": { "type": "Point", "coordinates": [ -47.3691352, -20.5836024 ] } },
{ "type": "Feature", "properties": { "CNPJ": 55610830000122, "AGENTE": "JULIANA_SOUZA_DE_OLIVEIRA", "ACAO": "REALIZAR_PRIMEIRA_VISITA_POTENCIAL", "RAZAO_SOCIAL": "55.610.830_GUILHERME_COSTA_DE_OLIVEIRA", "ENDERECO": "RUA_PEDRO_NUNES_ROCHA_638_PROLONGAMENTO_JARDIM_LIMA_FRANCA_BRASIL", "CIDADE": "FRANCA", "LATITUDE": -20.5558137, "LONGITUDE": -47.3984238, "BASE": "POTENCIAL" }, "geometry": { "type": "Point", "coordinates": [ -47.3984238, -20.5558137 ] } },
{ "type": "Feature", "properties": { "CNPJ": 57117838000187, "AGENTE": "JULIANA_SOUZA_DE_OLIVEIRA", "ACAO": "REALIZAR_PRIMEIRA_VISITA_POTENCIAL", "RAZAO_SOCIAL": "57.117.838_POLINE_SILVA_LOPES", "ENDERECO": "RUA_PEDRO_SPESSOTO_2534_VILA_SANTA_CRUZ_FRANCA_BRASIL", "CIDADE": "FRANCA", "LATITUDE": -20.5412036, "LONGITUDE": -47.3855356, "BASE": "POTENCIAL" }, "geometry": { "type": "Point", "coordinates": [ -47.3855356, -20.5412036 ] } },
{ "type": "Feature", "properties": { "CNPJ": 28093648000179, "AGENTE": "JULIANA_SOUZA_DE_OLIVEIRA", "ACAO": "REALIZAR_PRIMEIRA_VISITA_POTENCIAL", "RAZAO_SOCIAL": "DIGITAL_SHOES_VARIEDADES_E-COMMERCE_LTDA", "ENDERECO": "RUA_PERNAMBUCO_1259_VILA_APARECIDA_FRANCA_BRASIL", "CIDADE": "FRANCA", "LATITUDE": -20.5291663, "LONGITUDE": -47.3858867, "BASE": "POTENCIAL" }, "geometry": { "type": "Point", "coordinates": [ -47.3858867, -20.5291663 ] } },
{ "type": "Feature", "properties": { "CNPJ": 44946757000148, "AGENTE": "JULIANA_SOUZA_DE_OLIVEIRA", "ACAO": "REALIZAR_PRIMEIRA_VISITA_POTENCIAL", "RAZAO_SOCIAL": "NEW_FOX_COMERCIO_DE_CALCADOS_E_ARTIGOS_DO_VESTUARIO_LTDA", "ENDERECO": "RUA_PORTO_ALEGRE_2584_JARDIM_BRASILANDIA_FRANCA_BRASIL", "CIDADE": "FRANCA", "LATITUDE": -20.5195719, "LONGITUDE": -47.3673656, "BASE": "POTENCIAL" }, "geometry": { "type": "Point", "coordinates": [ -47.3673656, -20.5195719 ] } },
{ "type": "Feature", "properties": { "CNPJ": 47729860000124, "AGENTE": "JULIANA_SOUZA_DE_OLIVEIRA", "ACAO": "REALIZAR_PRIMEIRA_VISITA_POTENCIAL", "RAZAO_SOCIAL": "47.729.860_DHIONATAN_WAYLON_FELICIANO_DAVID", "ENDERECO": "RUA_PRIMO_PIZZO_2425_RESIDENCIAL_PALERMO_FRANCA_BRASIL", "CIDADE": "FRANCA", "LATITUDE": -20.5092215, "LONGITUDE": -47.437273, "BASE": "POTENCIAL" }, "geometry": { "type": "Point", "coordinates": [ -47.437273, -20.5092215 ] } },
{ "type": "Feature", "properties": { "CNPJ": 54391459000192, "AGENTE": "JULIANA_SOUZA_DE_OLIVEIRA", "ACAO": "REALIZAR_PRIMEIRA_VISITA_POTENCIAL", "RAZAO_SOCIAL": "54.391.459_LEANDRO_NICOLAU_SCHULZ_DA_COSTA", "ENDERECO": "RUA_PROFESSOR_CARMELINO_CORREA_JUNIOR_354_SAO_JOSE_FRANCA_BRASIL", "CIDADE": "FRANCA", "LATITUDE": -20.5352152, "LONGITUDE": -47.3897622, "BASE": "POTENCIAL" }, "geometry": { "type": "Point", "coordinates": [ -47.3897622, -20.5352152 ] } },
{ "type": "Feature", "properties": { "CNPJ": 50392404000146, "AGENTE": "JULIANA_SOUZA_DE_OLIVEIRA", "ACAO": "REALIZAR_PRIMEIRA_VISITA_POTENCIAL", "RAZAO_SOCIAL": "50.392.404_GIANE_CRISTINA_DE_SOUSA_FERNANDES", "ENDERECO": "RUA_PROFESSOR_GERALDO_MALTA_870_JARDIM_PAULISTANO_FRANCA_BRASIL", "CIDADE": "FRANCA", "LATITUDE": -20.5232033, "LONGITUDE": -47.354815, "BASE": "POTENCIAL" }, "geometry": { "type": "Point", "coordinates": [ -47.354815, -20.5232033 ] } },
{ "type": "Feature", "properties": { "CNPJ": 47004285000100, "AGENTE": "JULIANA_SOUZA_DE_OLIVEIRA", "ACAO": "REALIZAR_PRIMEIRA_VISITA_POTENCIAL", "RAZAO_SOCIAL": "47.004.285_PEDRO_HENRIQUE_FELIPE", "ENDERECO": "RUA_PROFESSORA_MARIA_CONCEICAO_TASSO_38_JARDIM_SAO_FRANCISCO_FRANCA_BRASIL", "CIDADE": "FRANCA", "LATITUDE": -20.5145702, "LONGITUDE": -47.3491211, "BASE": "POTENCIAL" }, "geometry": { "type": "Point", "coordinates": [ -47.3491211, -20.5145702 ] } },
{ "type": "Feature", "properties": { "CNPJ": 56240124000107, "AGENTE": "JULIANA_SOUZA_DE_OLIVEIRA", "ACAO": "REALIZAR_PRIMEIRA_VISITA_POTENCIAL", "RAZAO_SOCIAL": "56.240.124_ILMA_MARIA_DE_SANTANA_GALVANI", "ENDERECO": "RUA_PROFESSORA_MARIA_FALLEIROS_1323_VILA_INDUSTRIAL_FRANCA_BRASIL", "CIDADE": "FRANCA", "LATITUDE": -20.5478874, "LONGITUDE": -47.3941988, "BASE": "POTENCIAL" }, "geometry": { "type": "Point", "coordinates": [ -47.3941988, -20.5478874 ] } },
{ "type": "Feature", "properties": { "CNPJ": 50901477000116, "AGENTE": "JULIANA_SOUZA_DE_OLIVEIRA", "ACAO": "REALIZAR_PRIMEIRA_VISITA_POTENCIAL", "RAZAO_SOCIAL": "50.901.477_ANGELA_MARIA_DA_SILVA_GOMES", "ENDERECO": "RUA_REGIS_SIMARO_1120_JARDIM_PORTINARI_FRANCA_BRASIL", "CIDADE": "FRANCA", "LATITUDE": -20.5008993, "LONGITUDE": -47.4242203, "BASE": "POTENCIAL" }, "geometry": { "type": "Point", "coordinates": [ -47.4242203, -20.5008993 ] } },
{ "type": "Feature", "properties": { "CNPJ": 57731310000101, "AGENTE": "JULIANA_SOUZA_DE_OLIVEIRA", "ACAO": "REALIZAR_PRIMEIRA_VISITA_POTENCIAL", "RAZAO_SOCIAL": "57.731.310_DIOGO_APARECIDO_DA_COSTA_PRZYBYSZESKI", "ENDERECO": "RUA_REYNALDO_CHIOCA_999_PARQUE_PROGRESSO_FRANCA_BRASIL", "CIDADE": "FRANCA", "LATITUDE": -20.5635911, "LONGITUDE": -47.3946088, "BASE": "POTENCIAL" }, "geometry": { "type": "Point", "coordinates": [ -47.3946088, -20.5635911 ] } },
{ "type": "Feature", "properties": { "CNPJ": 24009648000197, "AGENTE": "JULIANA_SOUZA_DE_OLIVEIRA", "ACAO": "REALIZAR_PRIMEIRA_VISITA_POTENCIAL", "RAZAO_SOCIAL": "SPACE_ADS_ECOM_LTDA", "ENDERECO": "RUA_RIO_ICA_1609_RESIDENCIAL_AMAZONAS_FRANCA_BRASIL", "CIDADE": "FRANCA", "LATITUDE": -20.5553764, "LONGITUDE": -47.4153964, "BASE": "POTENCIAL" }, "geometry": { "type": "Point", "coordinates": [ -47.4153964, -20.5553764 ] } },
{ "type": "Feature", "properties": { "CNPJ": 60005586000109, "AGENTE": "JULIANA_SOUZA_DE_OLIVEIRA", "ACAO": "REALIZAR_PRIMEIRA_VISITA_POTENCIAL", "RAZAO_SOCIAL": "60.005.586_GEOVAN_SOUZA_DA_SILVA", "ENDERECO": "RUA_ROSA_CANDELARIA_OLER_SOTO_180_JARDIM_LIMA_FRANCA_BRASIL", "CIDADE": "FRANCA", "LATITUDE": -20.5526177, "LONGITUDE": -47.4031928, "BASE": "POTENCIAL" }, "geometry": { "type": "Point", "coordinates": [ -47.4031928, -20.5526177 ] } },
{ "type": "Feature", "properties": { "CNPJ": 44055905000134, "AGENTE": "JULIANA_SOUZA_DE_OLIVEIRA", "ACAO": "REALIZAR_PRIMEIRA_VISITA_POTENCIAL", "RAZAO_SOCIAL": "MICHELLE_P_ACESSORIOS_LTDA", "ENDERECO": "RUA_SALDANHA_MARINHO_1025_VILA_FLORES_FRANCA_BRASIL", "CIDADE": "FRANCA", "LATITUDE": -20.5380388, "LONGITUDE": -47.406279, "BASE": "POTENCIAL" }, "geometry": { "type": "Point", "coordinates": [ -47.406279, -20.5380388 ] } },
{ "type": "Feature", "properties": { "CNPJ": 51572260000172, "AGENTE": "JULIANA_SOUZA_DE_OLIVEIRA", "ACAO": "REALIZAR_PRIMEIRA_VISITA_POTENCIAL", "RAZAO_SOCIAL": "G&F_-_COMERCIAL_LTDA", "ENDERECO": "RUA_SALDANHA_MARINHO_1477_VILA_FLORES_FRANCA_BRASIL", "CIDADE": "FRANCA", "LATITUDE": -20.5391655, "LONGITUDE": -47.402058, "BASE": "POTENCIAL" }, "geometry": { "type": "Point", "coordinates": [ -47.402058, -20.5391655 ] } },
{ "type": "Feature", "properties": { "CNPJ": 51204293000160, "AGENTE": "JULIANA_SOUZA_DE_OLIVEIRA", "ACAO": "REALIZAR_PRIMEIRA_VISITA_POTENCIAL", "RAZAO_SOCIAL": "51.204.293_MATEUS_BERTELI_FLORINDO", "ENDERECO": "RUA_SALIM_EMER_1001_SAO_JOAQUIM_FRANCA_BRASIL", "CIDADE": "FRANCA", "LATITUDE": -20.538281, "LONGITUDE": -47.4308671, "BASE": "POTENCIAL" }, "geometry": { "type": "Point", "coordinates": [ -47.4308671, -20.538281 ] } },
{ "type": "Feature", "properties": { "CNPJ": 59129107000187, "AGENTE": "JULIANA_SOUZA_DE_OLIVEIRA", "ACAO": "REALIZAR_PRIMEIRA_VISITA_POTENCIAL", "RAZAO_SOCIAL": "59.129.107_MATHEUS_GONCALVES_PANDOLFI", "ENDERECO": "RUA_SARGENTO_FRANCISCO_DE_ASSIS_MONTEIRO_NUNES_1200_RESIDENCIAL_SAO_JOAO_BATISTA_FRANCA_BRASIL", "CIDADE": "FRANCA", "LATITUDE": -20.5286482, "LONGITUDE": -47.4532231, "BASE": "POTENCIAL" }, "geometry": { "type": "Point", "coordinates": [ -47.4532231, -20.5286482 ] } },
{ "type": "Feature", "properties": { "CNPJ": 57585638000159, "AGENTE": "JULIANA_SOUZA_DE_OLIVEIRA", "ACAO": "REALIZAR_PRIMEIRA_VISITA_POTENCIAL", "RAZAO_SOCIAL": "57.585.638_NAIHANE_ROSSI_SILVA", "ENDERECO": "RUA_TEOFILO_DE_ARAUJO_FILHO_1800_PARQUE_MOEMA_FRANCA_BRASIL", "CIDADE": "FRANCA", "LATITUDE": -20.5174585, "LONGITUDE": -47.3961595, "BASE": "POTENCIAL" }, "geometry": { "type": "Point", "coordinates": [ -47.3961595, -20.5174585 ] } },
{ "type": "Feature", "properties": { "CNPJ": 47255305000108, "AGENTE": "JULIANA_SOUZA_DE_OLIVEIRA", "ACAO": "REALIZAR_PRIMEIRA_VISITA_POTENCIAL", "RAZAO_SOCIAL": "PHOENIX_DEV_PUBLICIDADE_LTDA", "ENDERECO": "RUA_THEREZA_MOSCARDINI_740_PROLONGAMENTO_JARDIM_FLORIDA_FRANCA_BRASIL", "CIDADE": "FRANCA", "LATITUDE": -20.5653914, "LONGITUDE": -47.3844915, "BASE": "POTENCIAL" }, "geometry": { "type": "Point", "coordinates": [ -47.3844915, -20.5653914 ] } },
{ "type": "Feature", "properties": { "CNPJ": 22326255000181, "AGENTE": "JULIANA_SOUZA_DE_OLIVEIRA", "ACAO": "REALIZAR_PRIMEIRA_VISITA_POTENCIAL", "RAZAO_SOCIAL": "VANIA_BEATRIZ_ELIAS", "ENDERECO": "RUA_TIRADENTES_1652_CENTRO_FRANCA_BRASIL", "CIDADE": "FRANCA", "LATITUDE": -20.5338156, "LONGITUDE": -47.3981479, "BASE": "POTENCIAL" }, "geometry": { "type": "Point", "coordinates": [ -47.3981479, -20.5338156 ] } },
{ "type": "Feature", "properties": { "CNPJ": 46725038000122, "AGENTE": "JULIANA_SOUZA_DE_OLIVEIRA", "ACAO": "REALIZAR_PRIMEIRA_VISITA_POTENCIAL", "RAZAO_SOCIAL": "CORTEZ_DESENVOLVIMENTO_DE_SOFTWARES_LTDA", "ENDERECO": "RUA_TOBIAS_DIAS_FERNANDES_1180_PARQUE_VICENTE_LEPORACE_I_FRANCA_BRASIL", "CIDADE": "FRANCA", "LATITUDE": -20.4959807, "LONGITUDE": -47.4163818, "BASE": "POTENCIAL" }, "geometry": { "type": "Point", "coordinates": [ -47.4163818, -20.4959807 ] } },
{ "type": "Feature", "properties": { "CNPJ": 59584464000135, "AGENTE": "JULIANA_SOUZA_DE_OLIVEIRA", "ACAO": "REALIZAR_PRIMEIRA_VISITA_POTENCIAL", "RAZAO_SOCIAL": "59.584.464_NATALI_CELINE_DE_AGUIAR_PIMENTA", "ENDERECO": "RUA_VALDECIR_DONIZETI_RUFINI_3175_RESIDENCIAL_IRINEU_ZANETTI_FRANCA_BRASIL", "CIDADE": "FRANCA", "LATITUDE": -20.564942, "LONGITUDE": -47.3437516, "BASE": "POTENCIAL" }, "geometry": { "type": "Point", "coordinates": [ -47.3437516, -20.564942 ] } },
{ "type": "Feature", "properties": { "CNPJ": 28927324000199, "AGENTE": "JULIANA_SOUZA_DE_OLIVEIRA", "ACAO": "REALIZAR_PRIMEIRA_VISITA_POTENCIAL", "RAZAO_SOCIAL": "SG_LOGISTICA_DE_TRANSPORTES_LTDA", "ENDERECO": "RUA_VALTER_CHINAGLIA_3209_JARDIM_LUIZA_II_FRANCA_BRASIL", "CIDADE": "FRANCA", "LATITUDE": -20.4834981, "LONGITUDE": -47.4215268, "BASE": "POTENCIAL" }, "geometry": { "type": "Point", "coordinates": [ -47.4215268, -20.4834981 ] } },
{ "type": "Feature", "properties": { "CNPJ": 57816326000109, "AGENTE": "JULIANA_SOUZA_DE_OLIVEIRA", "ACAO": "REALIZAR_PRIMEIRA_VISITA_POTENCIAL", "RAZAO_SOCIAL": "57.816.326_QUEDMA_DA_SILVA_ONORIO", "ENDERECO": "RUA_VEREADOR_DIJALVO_BRAGA_1620_JARDIM_CAMBUI_FRANCA_BRASIL", "CIDADE": "FRANCA", "LATITUDE": -20.4849232, "LONGITUDE": -47.4041227, "BASE": "POTENCIAL" }, "geometry": { "type": "Point", "coordinates": [ -47.4041227, -20.4849232 ] } },
{ "type": "Feature", "properties": { "CNPJ": 45787402000116, "AGENTE": "JULIANA_SOUZA_DE_OLIVEIRA", "ACAO": "REALIZAR_PRIMEIRA_VISITA_POTENCIAL", "RAZAO_SOCIAL": "45.787.402_FLAVIA_BARCAROLI_JUSTINO", "ENDERECO": "RUA_VOLUNTARIO_ADRIANO_CINTRA_350_VILA_SANTOS_DUMONT_FRANCA_BRASIL", "CIDADE": "FRANCA", "LATITUDE": -20.5292366, "LONGITUDE": -47.4235893, "BASE": "POTENCIAL" }, "geometry": { "type": "Point", "coordinates": [ -47.4235893, -20.5292366 ] } },
{ "type": "Feature", "properties": { "CNPJ": 51229703000127, "AGENTE": "JULIANA_SOUZA_DE_OLIVEIRA", "ACAO": "REALIZAR_PRIMEIRA_VISITA_POTENCIAL", "RAZAO_SOCIAL": "51.229.703_MONIQUE_DANIELE_DA_SILVA", "ENDERECO": "RUA_VOLUNTARIO_ADRIANO_CINTRA_969_VILA_PANDOLFO_FRANCA_BRASIL", "CIDADE": "FRANCA", "LATITUDE": -20.5301717, "LONGITUDE": -47.4206028, "BASE": "POTENCIAL" }, "geometry": { "type": "Point", "coordinates": [ -47.4206028, -20.5301717 ] } },
{ "type": "Feature", "properties": { "CNPJ": 47385195000107, "AGENTE": "JULIANA_SOUZA_DE_OLIVEIRA", "ACAO": "REALIZAR_PRIMEIRA_VISITA_POTENCIAL", "RAZAO_SOCIAL": "JJ_RODRIGUES_TEIXEIRA_LTDA", "ENDERECO": "RUA_ANA_MARIA_SOLA_TELLINI_2960_PROLONGAMENTO_JARDIM_ANGELA_ROSA_FRANCA_BRASIL", "CIDADE": "FRANCA", "LATITUDE": -20.5443898, "LONGITUDE": -47.3762706, "BASE": "POTENCIAL" }, "geometry": { "type": "Point", "coordinates": [ -47.3762706, -20.5443898 ] } },
{ "type": "Feature", "properties": { "CNPJ": 48092319000110, "AGENTE": "JULIANA_SOUZA_DE_OLIVEIRA", "ACAO": "REALIZAR_PRIMEIRA_VISITA_POTENCIAL", "RAZAO_SOCIAL": "EGE_WEAR_E-COMMERCE_LTDA", "ENDERECO": "RUA_JOAO_TRENTINO_ZILLER_2341_JARDIM_ALVORADA_FRANCA_BRASIL", "CIDADE": "FRANCA", "LATITUDE": -20.5651186, "LONGITUDE": -47.3958221, "BASE": "POTENCIAL" }, "geometry": { "type": "Point", "coordinates": [ -47.3958221, -20.5651186 ] } },
{ "type": "Feature", "properties": { "CNPJ": 55477232000127, "AGENTE": "JULIANA_SOUZA_DE_OLIVEIRA", "ACAO": "REALIZAR_PRIMEIRA_VISITA_POTENCIAL", "RAZAO_SOCIAL": "55.477.232_CAIO_SERGIO_FLORO_E_SILVA", "ENDERECO": "RUA_ALCEU_DOMINGOS_DE_CASTRO_191_PARQUE_DAS_ESMERALDAS_FRANCA_BRASIL", "CIDADE": "FRANCA", "LATITUDE": -20.5423395, "LONGITUDE": -47.4584845, "BASE": "POTENCIAL" }, "geometry": { "type": "Point", "coordinates": [ -47.4584845, -20.5423395 ] } },
{ "type": "Feature", "properties": { "CNPJ": 46246817000145, "AGENTE": "JULIANA_SOUZA_DE_OLIVEIRA", "ACAO": "REALIZAR_PRIMEIRA_VISITA_POTENCIAL", "RAZAO_SOCIAL": "SILEIDE_DOS_REIS_FERREIRA", "ENDERECO": "RUA_DO_COMERCIO_1981_CENTRO_FRANCA_BRASIL", "CIDADE": "FRANCA", "LATITUDE": -20.5359188, "LONGITUDE": -47.4017099, "BASE": "POTENCIAL" }, "geometry": { "type": "Point", "coordinates": [ -47.4017099, -20.5359188 ] } },
{ "type": "Feature", "properties": { "CNPJ": 40146616000190, "AGENTE": "JULIANA_SOUZA_DE_OLIVEIRA", "ACAO": "REALIZAR_PRIMEIRA_VISITA_POTENCIAL", "RAZAO_SOCIAL": "ROBERT_DE_SOUZA_BARBOSA_43894075899", "ENDERECO": "RUA_JOSE_BULHOES_250_JARDIM_PANORAMA_FRANCA_BRASIL", "CIDADE": "FRANCA", "LATITUDE": -20.5165181, "LONGITUDE": -47.3550061, "BASE": "POTENCIAL" }, "geometry": { "type": "Point", "coordinates": [ -47.3550061, -20.5165181 ] } },
{ "type": "Feature", "properties": { "CNPJ": 50627443000185, "AGENTE": "JULIANA_SOUZA_DE_OLIVEIRA", "ACAO": "REALIZAR_PRIMEIRA_VISITA_POTENCIAL", "RAZAO_SOCIAL": "50.627.443_ANTONIO_DONIZETTI_LEITE", "ENDERECO": "RUA_OUVIDOR_FREIRE_255_CENTRO_FRANCA_BRASIL", "CIDADE": "FRANCA", "LATITUDE": -20.5510183, "LONGITUDE": -47.4065437, "BASE": "POTENCIAL" }, "geometry": { "type": "Point", "coordinates": [ -47.4065437, -20.5510183 ] } },
{ "type": "Feature", "properties": { "CNPJ": 39774499000120, "AGENTE": "JULIANA_SOUZA_DE_OLIVEIRA", "ACAO": "REALIZAR_PRIMEIRA_VISITA_POTENCIAL", "RAZAO_SOCIAL": "PLIN_MARKETING_DIRETO_PUBLICIDADE_E_COMERCIO_VAREJISTA_LTDA", "ENDERECO": "RUA_JOAO_FERREIRA_FONTELAS_330_VILA_CHICO_JULIO_FRANCA_BRASIL", "CIDADE": "FRANCA", "LATITUDE": -20.5247353, "LONGITUDE": -47.4083402, "BASE": "POTENCIAL" }, "geometry": { "type": "Point", "coordinates": [ -47.4083402, -20.5247353 ] } },
{ "type": "Feature", "properties": { "CNPJ": 47073951000154, "AGENTE": "JULIANA_SOUZA_DE_OLIVEIRA", "ACAO": "REALIZAR_PRIMEIRA_VISITA_POTENCIAL", "RAZAO_SOCIAL": "HUGO_HYPPOLITO_CANDIDO_51903609895", "ENDERECO": "RUA_HOMERO_PACHECO_ALVES_1600_CENTRO_FRANCA_BRASIL", "CIDADE": "FRANCA", "LATITUDE": -20.5388283, "LONGITUDE": -47.4067327, "BASE": "POTENCIAL" }, "geometry": { "type": "Point", "coordinates": [ -47.4067327, -20.5388283 ] } },
{ "type": "Feature", "properties": { "CNPJ": 47680036000127, "AGENTE": "JULIANA_SOUZA_DE_OLIVEIRA", "ACAO": "REALIZAR_PRIMEIRA_VISITA_POTENCIAL", "RAZAO_SOCIAL": "JOSIANE_PRISCILA_PEIXOTO_39019874870", "ENDERECO": "RUA_GUERINO_ALFREDO_MINERVINO_17_VILA_REZENDE_FRANCA_BRASIL", "CIDADE": "FRANCA", "LATITUDE": -20.5338181, "LONGITUDE": -47.4268355, "BASE": "POTENCIAL" }, "geometry": { "type": "Point", "coordinates": [ -47.4268355, -20.5338181 ] } },
{ "type": "Feature", "properties": { "CNPJ": 49199390000160, "AGENTE": "JULIANA_SOUZA_DE_OLIVEIRA", "ACAO": "REALIZAR_PRIMEIRA_VISITA_POTENCIAL", "RAZAO_SOCIAL": "49.199.390_ANA_CAROLINA_ROCHA_DOS_SANTOS", "ENDERECO": "RUA_JOAO_BATISTA_D'ELIA_1068_PROLONGAMENTO_JARDIM_LIMA_FRANCA_BRASIL", "CIDADE": "FRANCA", "LATITUDE": -20.5599994, "LONGITUDE": -47.3991331, "BASE": "POTENCIAL" }, "geometry": { "type": "Point", "coordinates": [ -47.3991331, -20.5599994 ] } },
{ "type": "Feature", "properties": { "CNPJ": 43703492000194, "AGENTE": "JULIANA_SOUZA_DE_OLIVEIRA", "ACAO": "REALIZAR_PRIMEIRA_VISITA_POTENCIAL", "RAZAO_SOCIAL": "LUCIANA_ALVES_BATISTA_DA_SILVA_27748602883", "ENDERECO": "RUA_CAPITAO_URIAS_BATISTA_DE_AVELAR_3890_VILA_CHICO_JULIO_FRANCA_BRASIL", "CIDADE": "FRANCA", "LATITUDE": -20.5176093, "LONGITUDE": -47.405999, "BASE": "POTENCIAL" }, "geometry": { "type": "Point", "coordinates": [ -47.405999, -20.5176093 ] } },
{ "type": "Feature", "properties": { "CNPJ": 51421095000158, "AGENTE": "JULIANA_SOUZA_DE_OLIVEIRA", "ACAO": "REALIZAR_PRIMEIRA_VISITA_POTENCIAL", "RAZAO_SOCIAL": "HAWAY_COMERCIO_DE_CALCADOS_LTDA", "ENDERECO": "RUA_OSWALDO_BORGES_DE_FREITAS_2250_JARDIM_SAO_LUIZ_II_FRANCA_BRASIL", "CIDADE": "FRANCA", "LATITUDE": -20.535771, "LONGITUDE": -47.3616386, "BASE": "POTENCIAL" }, "geometry": { "type": "Point", "coordinates": [ -47.3616386, -20.535771 ] } },
{ "type": "Feature", "properties": { "CNPJ": 50776711000120, "AGENTE": "JULIANA_SOUZA_DE_OLIVEIRA", "ACAO": "REALIZAR_PRIMEIRA_VISITA_POTENCIAL", "RAZAO_SOCIAL": "50.776.711_ALEX_JUNIOR_GURGEL", "ENDERECO": "AVENIDA_SAO_FRANCISCO_DE_ASSIS_1071_JARDIM_MARAMBAIA_FRANCA_BRASIL", "CIDADE": "FRANCA", "LATITUDE": -20.4828752, "LONGITUDE": -47.4004758, "BASE": "POTENCIAL" }, "geometry": { "type": "Point", "coordinates": [ -47.4004758, -20.4828752 ] } },
{ "type": "Feature", "properties": { "CNPJ": 53782674000151, "AGENTE": "JULIANA_SOUZA_DE_OLIVEIRA", "ACAO": "REALIZAR_PRIMEIRA_VISITA_POTENCIAL", "RAZAO_SOCIAL": "F.J._NOGUEIRA_ARTIGOS_RECREATIVOS_PARA_PETS_LTDA", "ENDERECO": "RUA_JOSE_ABRAO_DA_SILVA_2250_PARQUE_PROGRESSO_FRANCA_BRASIL", "CIDADE": "FRANCA", "LATITUDE": -20.5630255, "LONGITUDE": -47.3981419, "BASE": "POTENCIAL" }, "geometry": { "type": "Point", "coordinates": [ -47.3981419, -20.5630255 ] } },
{ "type": "Feature", "properties": { "CNPJ": 45699536000185, "AGENTE": "JULIANA_SOUZA_DE_OLIVEIRA", "ACAO": "REALIZAR_PRIMEIRA_VISITA_POTENCIAL", "RAZAO_SOCIAL": "45.699.536_LARISSA_DE_ALMEIDA_CARVALHO", "ENDERECO": "RUA_PADRE_ANCHIETA_1715_CENTRO_FRANCA_BRASIL", "CIDADE": "FRANCA", "LATITUDE": -20.539027, "LONGITUDE": -47.3985046, "BASE": "POTENCIAL" }, "geometry": { "type": "Point", "coordinates": [ -47.3985046, -20.539027 ] } },
{ "type": "Feature", "properties": { "CNPJ": 11642801000177, "AGENTE": "JULIANA_SOUZA_DE_OLIVEIRA", "ACAO": "REALIZAR_PRIMEIRA_VISITA_POTENCIAL", "RAZAO_SOCIAL": "CONEXAO_DARINI_CORRETORA_DE_SEGUROS_LTDA", "ENDERECO": "AVENIDA_DOUTOR_CHAFIC_FACURY_3900_PROLONGAMENTO_JARDIM_ANGELA_ROSA_FRANCA_BRASIL", "CIDADE": "FRANCA", "LATITUDE": -20.5493296, "LONGITUDE": -47.3731605, "BASE": "POTENCIAL" }, "geometry": { "type": "Point", "coordinates": [ -47.3731605, -20.5493296 ] } },
{ "type": "Feature", "properties": { "CNPJ": 54691378000108, "AGENTE": "JULIANA_SOUZA_DE_OLIVEIRA", "ACAO": "REALIZAR_PRIMEIRA_VISITA_POTENCIAL", "RAZAO_SOCIAL": "54.691.378_PEDRO_ALVES_SOUZA", "ENDERECO": "AVENIDA_CESAR_MARTINS_PIRAJA_1229_JARDIM_AEROPORTO_III_FRANCA_BRASIL", "CIDADE": "FRANCA", "LATITUDE": -20.585225, "LONGITUDE": -47.3741125, "BASE": "POTENCIAL" }, "geometry": { "type": "Point", "coordinates": [ -47.3741125, -20.585225 ] } },
{ "type": "Feature", "properties": { "CNPJ": 21098961000150, "AGENTE": "JULIANA_SOUZA_DE_OLIVEIRA", "ACAO": "REALIZAR_PRIMEIRA_VISITA_POTENCIAL", "RAZAO_SOCIAL": "BETERRABA_COMERCIO_E_SERVICOS_LTDA", "ENDERECO": "AVENIDA_MAJOR_NICACIO_2136_CENTRO_FRANCA_BRASIL", "CIDADE": "FRANCA", "LATITUDE": -20.5360946, "LONGITUDE": -47.3931673, "BASE": "POTENCIAL" }, "geometry": { "type": "Point", "coordinates": [ -47.3931673, -20.5360946 ] } },
{ "type": "Feature", "properties": { "CNPJ": 20286692000193, "AGENTE": "JULIANA_SOUZA_DE_OLIVEIRA", "ACAO": "REALIZAR_PRIMEIRA_VISITA_POTENCIAL", "RAZAO_SOCIAL": "FABRICIO_AUGUSTO_PEREIRA_26511587800", "ENDERECO": "RUA_ALVARO_ABRANCHES_333_CIDADE_NOVA_FRANCA_BRASIL", "CIDADE": "FRANCA", "LATITUDE": -20.5291221, "LONGITUDE": -47.3969243, "BASE": "POTENCIAL" }, "geometry": { "type": "Point", "coordinates": [ -47.3969243, -20.5291221 ] } },
{ "type": "Feature", "properties": { "CNPJ": 29886507000176, "AGENTE": "JULIANA_SOUZA_DE_OLIVEIRA", "ACAO": "REALIZAR_PRIMEIRA_VISITA_POTENCIAL", "RAZAO_SOCIAL": "GRILL_NAZZA_LTDA", "ENDERECO": "AVENIDA_JAIME_TELLINI_6365_PROLONGAMENTO_RESIDENCIAL_ANA_DOROTHEA_FRANCA_BRASIL", "CIDADE": "FRANCA", "LATITUDE": -20.5405374, "LONGITUDE": -47.3602528, "BASE": "POTENCIAL" }, "geometry": { "type": "Point", "coordinates": [ -47.3602528, -20.5405374 ] } },
{ "type": "Feature", "properties": { "CNPJ": 32560478000162, "AGENTE": "JULIANA_SOUZA_DE_OLIVEIRA", "ACAO": "REALIZAR_PRIMEIRA_VISITA_POTENCIAL", "RAZAO_SOCIAL": "LA_MURE_OUTLET_FRANCA_LTDA", "ENDERECO": "RUA_PRUDENTE_DE_MORAIS_744_CIDADE_NOVA_FRANCA_BRASIL", "CIDADE": "FRANCA", "LATITUDE": -20.5273973, "LONGITUDE": -47.3931491, "BASE": "POTENCIAL" }, "geometry": { "type": "Point", "coordinates": [ -47.3931491, -20.5273973 ] } },
{ "type": "Feature", "properties": { "CNPJ": 41062831000175, "AGENTE": "JULIANA_SOUZA_DE_OLIVEIRA", "ACAO": "REALIZAR_PRIMEIRA_VISITA_POTENCIAL", "RAZAO_SOCIAL": "SMTK_FRANCA_LTDA", "ENDERECO": "AVENIDA_PRESIDENTE_VARGAS_495_CIDADE_NOVA_FRANCA_BRASIL", "CIDADE": "FRANCA", "LATITUDE": -20.5296065, "LONGITUDE": -47.3941143, "BASE": "POTENCIAL" }, "geometry": { "type": "Point", "coordinates": [ -47.3941143, -20.5296065 ] } },
{ "type": "Feature", "properties": { "CNPJ": 13878562000184, "AGENTE": "JULIANA_SOUZA_DE_OLIVEIRA", "ACAO": "REALIZAR_PRIMEIRA_VISITA_POTENCIAL", "RAZAO_SOCIAL": "D._B._MAGRIN_IMPRESSAO_LTDA", "ENDERECO": "RUA_GERALDO_GARCIA_DO_NASCIMENTO_2411_DISTRITO_INDUSTRIAL_ANTONIO_DELLA_-_TORRE_FRANCA_BRASIL", "CIDADE": "FRANCA", "LATITUDE": -20.5509378, "LONGITUDE": -47.4344767, "BASE": "POTENCIAL" }, "geometry": { "type": "Point", "coordinates": [ -47.4344767, -20.5509378 ] } },
{ "type": "Feature", "properties": { "CNPJ": 46006799000124, "AGENTE": "JULIANA_SOUZA_DE_OLIVEIRA", "ACAO": "REALIZAR_PRIMEIRA_VISITA_POTENCIAL", "RAZAO_SOCIAL": "ALTITUDO_COMERCIO_DE_PRODUTOS_LTDA", "ENDERECO": "AVENIDA_DOUTOR_ISMAEL_ALONSO_Y._ALONSO_1219_CENTRO_FRANCA_BRASIL", "CIDADE": "FRANCA", "LATITUDE": -20.5449582, "LONGITUDE": -47.3982563, "BASE": "POTENCIAL" }, "geometry": { "type": "Point", "coordinates": [ -47.3982563, -20.5449582 ] } },
{ "type": "Feature", "properties": { "CNPJ": 31340716000161, "AGENTE": "JULIANA_SOUZA_DE_OLIVEIRA", "ACAO": "REALIZAR_PRIMEIRA_VISITA_POTENCIAL", "RAZAO_SOCIAL": "CITY_CAR_CENTRO_ESTETICO_AUTOMOTIVO_LTDA", "ENDERECO": "RUA_MINAS_GERAIS_2227_VILA_APARECIDA_FRANCA_BRASIL", "CIDADE": "FRANCA", "LATITUDE": -20.5244956, "LONGITUDE": -47.3704717, "BASE": "POTENCIAL" }, "geometry": { "type": "Point", "coordinates": [ -47.3704717, -20.5244956 ] } },
{ "type": "Feature", "properties": { "CNPJ": 11616437000170, "AGENTE": "JULIANA_SOUZA_DE_OLIVEIRA", "ACAO": "REALIZAR_PRIMEIRA_VISITA_POTENCIAL", "RAZAO_SOCIAL": "CLARA_CONTABILIDADE_LTDA", "ENDERECO": "RUA_JOAO_DA_SILVA_RANHEL_1700_NUCLEO_AGRICOLA_ALPHA_FRANCA_BRASIL", "CIDADE": "FRANCA", "LATITUDE": -20.5656015, "LONGITUDE": -47.3997965, "BASE": "POTENCIAL" }, "geometry": { "type": "Point", "coordinates": [ -47.3997965, -20.5656015 ] } },
{ "type": "Feature", "properties": { "CNPJ": 58345315000150, "AGENTE": "JULIANA_SOUZA_DE_OLIVEIRA", "ACAO": "REALIZAR_PRIMEIRA_VISITA_POTENCIAL", "RAZAO_SOCIAL": "COZINHAS_CARDOSO_DE_FRANCA_LTDA", "ENDERECO": "RUA_JOSE_GARCIA_BOTELHO_4041_PQ_STA_HILDA_FRANCA_BRASIL", "CIDADE": "FRANCA", "LATITUDE": -20.5505407, "LONGITUDE": -47.3715499, "BASE": "POTENCIAL" }, "geometry": { "type": "Point", "coordinates": [ -47.3715499, -20.5505407 ] } },
{ "type": "Feature", "properties": { "CNPJ": 528659000115, "AGENTE": "JULIANA_SOUZA_DE_OLIVEIRA", "ACAO": "REALIZAR_PRIMEIRA_VISITA_POTENCIAL", "RAZAO_SOCIAL": "ISABEL_CRISTINA_BORTOLOTO_FRANCA", "ENDERECO": "AVENIDA_ADHEMAR_PEREIRA_DE_BARROS_1516_PROLONGAMENTO_VILA_APARECIDA_II_FRANCA_BRASIL", "CIDADE": "FRANCA", "LATITUDE": -20.5274091, "LONGITUDE": -47.3693742, "BASE": "POTENCIAL" }, "geometry": { "type": "Point", "coordinates": [ -47.3693742, -20.5274091 ] } },
{ "type": "Feature", "properties": { "CNPJ": 7760565000116, "AGENTE": "JULIANA_SOUZA_DE_OLIVEIRA", "ACAO": "REALIZAR_PRIMEIRA_VISITA_POTENCIAL", "RAZAO_SOCIAL": "JOSE_AUGUSTO_VIEIRA_FELICIO", "ENDERECO": "RUA_MARIO_DAVID_1231_JARDIM_FRANCANO_FRANCA_BRASIL", "CIDADE": "FRANCA", "LATITUDE": -20.5477101, "LONGITUDE": -47.4140947, "BASE": "POTENCIAL" }, "geometry": { "type": "Point", "coordinates": [ -47.4140947, -20.5477101 ] } },
{ "type": "Feature", "properties": { "CNPJ": 2517754000149, "AGENTE": "JULIANA_SOUZA_DE_OLIVEIRA", "ACAO": "REALIZAR_PRIMEIRA_VISITA_POTENCIAL", "RAZAO_SOCIAL": "MELO_-_SHOPPING_DA_BELEZA_LTDA", "ENDERECO": "RUA_MAJOR_CLAUDIANO_1334_CENTRO_FRANCA_BRASIL", "CIDADE": "FRANCA", "LATITUDE": -20.5420767, "LONGITUDE": -47.4014801, "BASE": "POTENCIAL" }, "geometry": { "type": "Point", "coordinates": [ -47.4014801, -20.5420767 ] } },
{ "type": "Feature", "properties": { "CNPJ": 38068385000100, "AGENTE": "JULIANA_SOUZA_DE_OLIVEIRA", "ACAO": "REALIZAR_PRIMEIRA_VISITA_POTENCIAL", "RAZAO_SOCIAL": "NCBF_FRANCA_COMERCIO_LTDA", "ENDERECO": "RUA_IRMAO_BASILIO_ZAMODZKI_2245_VILA_TOTOLI_FRANCA_BRASIL", "CIDADE": "FRANCA", "LATITUDE": -20.5122845, "LONGITUDE": -47.3901309, "BASE": "POTENCIAL" }, "geometry": { "type": "Point", "coordinates": [ -47.3901309, -20.5122845 ] } },
{ "type": "Feature", "properties": { "CNPJ": 53413839000118, "AGENTE": "JULIANA_SOUZA_DE_OLIVEIRA", "ACAO": "REALIZAR_PRIMEIRA_VISITA_POTENCIAL", "RAZAO_SOCIAL": "O2_NUTRICAO_LTDA", "ENDERECO": "RUA_FLORIANO_PEIXOTO_1910_CENTRO_FRANCA_BRASIL", "CIDADE": "FRANCA", "LATITUDE": -20.5380391, "LONGITUDE": -47.3958182, "BASE": "POTENCIAL" }, "geometry": { "type": "Point", "coordinates": [ -47.3958182, -20.5380391 ] } },
{ "type": "Feature", "properties": { "CNPJ": 11616377000196, "AGENTE": "JULIANA_SOUZA_DE_OLIVEIRA", "ACAO": "REALIZAR_PRIMEIRA_VISITA_POTENCIAL", "RAZAO_SOCIAL": "ORTHOCALCE_INDUSTRIA_DE_CALCADOS_LTDA", "ENDERECO": "RUA_DOUTOR_WASHINGTON_LUIZ_1431_JARDIM_BOA_ESPERANCA_FRANCA_BRASIL", "CIDADE": "FRANCA", "LATITUDE": -20.5221604, "LONGITUDE": -47.3881458, "BASE": "POTENCIAL" }, "geometry": { "type": "Point", "coordinates": [ -47.3881458, -20.5221604 ] } },
{ "type": "Feature", "properties": { "CNPJ": 20240470000130, "AGENTE": "JULIANA_SOUZA_DE_OLIVEIRA", "ACAO": "REALIZAR_PRIMEIRA_VISITA_POTENCIAL", "RAZAO_SOCIAL": "R.A.C._CUNHA_MATERIAIS_P/_CONSTRUCAO_LTDA", "ENDERECO": "RUA_MAJOR_DUARTE_175_RESIDENCIAL_BALDASSARI_FRANCA_BRASIL", "CIDADE": "FRANCA", "LATITUDE": -20.5343306, "LONGITUDE": -47.393483, "BASE": "POTENCIAL" }, "geometry": { "type": "Point", "coordinates": [ -47.393483, -20.5343306 ] } },
{ "type": "Feature", "properties": { "CNPJ": 15026304000103, "AGENTE": "JULIANA_SOUZA_DE_OLIVEIRA", "ACAO": "REALIZAR_PRIMEIRA_VISITA_POTENCIAL", "RAZAO_SOCIAL": "SOLUCOES_TERMICAS_LTDA", "ENDERECO": "RUA_DOS_AYMORES_1140_JARDIM_MARTINS_FRANCA_BRASIL", "CIDADE": "FRANCA", "LATITUDE": -20.5209988, "LONGITUDE": -47.4340076, "BASE": "POTENCIAL" }, "geometry": { "type": "Point", "coordinates": [ -47.4340076, -20.5209988 ] } },
{ "type": "Feature", "properties": { "CNPJ": 12599574000107, "AGENTE": "JULIANA_SOUZA_DE_OLIVEIRA", "ACAO": "REALIZAR_PRIMEIRA_VISITA_POTENCIAL", "RAZAO_SOCIAL": "NIVALDO_DOS_SANTOS_FERREIRA", "ENDERECO": "RUA_AMARO_ALVES_DA_SILVA_1905_CENTRO_ITIRAPUA_BRASIL", "CIDADE": "FRANCA", "LATITUDE": -20.6471594, "LONGITUDE": -47.2224548, "BASE": "POTENCIAL" }, "geometry": { "type": "Point", "coordinates": [ -47.2224548, -20.6471594 ] } },
{ "type": "Feature", "properties": { "CNPJ": 38171620000166, "AGENTE": "JULIANA_SOUZA_DE_OLIVEIRA", "ACAO": "REALIZAR_PRIMEIRA_VISITA_POTENCIAL", "RAZAO_SOCIAL": "JOSE_MAIA_DA_SILVA_SOBRINHO_JUNIOR", "ENDERECO": "RUA_CORONEL_MESSIAS_ROSA_5135_CENTRO_ITIRAPUA_BRASIL", "CIDADE": "FRANCA", "LATITUDE": -20.6413018, "LONGITUDE": -47.2203684, "BASE": "POTENCIAL" }, "geometry": { "type": "Point", "coordinates": [ -47.2203684, -20.6413018 ] } },
{ "type": "Feature", "properties": { "CNPJ": 39146202000181, "AGENTE": "JULIANA_SOUZA_DE_OLIVEIRA", "ACAO": "REALIZAR_PRIMEIRA_VISITA_POTENCIAL", "RAZAO_SOCIAL": "VIVIANE_CHRISTINA_OLIVEIRA_STEFANI", "ENDERECO": "RUA_ITUVERAVA_468_ITUVERAVA_ITUVERAVA_BRASIL", "CIDADE": "FRANCA", "LATITUDE": -20.3358968, "LONGITUDE": -47.7909635, "BASE": "POTENCIAL" }, "geometry": { "type": "Point", "coordinates": [ -47.7909635, -20.3358968 ] } },
{ "type": "Feature", "properties": { "CNPJ": 49506387000141, "AGENTE": "JULIANA_SOUZA_DE_OLIVEIRA", "ACAO": "REALIZAR_PRIMEIRA_VISITA_POTENCIAL", "RAZAO_SOCIAL": "SONIA_TURRA", "ENDERECO": "RUA_FRANCISCO_VOLPE_582_JARDIM_KENNEDY_JABOTICABAL_BRASIL", "CIDADE": "FRANCA", "LATITUDE": -21.2671575, "LONGITUDE": -48.3307289, "BASE": "POTENCIAL" }, "geometry": { "type": "Point", "coordinates": [ -48.3307289, -21.2671575 ] } },
{ "type": "Feature", "properties": { "CNPJ": 47351875000100, "AGENTE": "JULIANA_SOUZA_DE_OLIVEIRA", "ACAO": "REALIZAR_PRIMEIRA_VISITA_POTENCIAL", "RAZAO_SOCIAL": "CELSO_GABRIEL_DA_COSTA_MUNIZ", "ENDERECO": "RUA_CAUIM_162_BOTUJURU_JACUPIRANGA_BRASIL", "CIDADE": "FRANCA", "LATITUDE": -24.711822, "LONGITUDE": -48.0048777, "BASE": "POTENCIAL" }, "geometry": { "type": "Point", "coordinates": [ -48.0048777, -24.711822 ] } },
{ "type": "Feature", "properties": { "CNPJ": 44475756000162, "AGENTE": "JULIANA_SOUZA_DE_OLIVEIRA", "ACAO": "REALIZAR_PRIMEIRA_VISITA_POTENCIAL", "RAZAO_SOCIAL": "JESSICA_BATISTA_PEREIRA", "ENDERECO": "RUA_BRUNO_RISCALI_725_VILA_HIPICA_OLIMPIA_BRASIL", "CIDADE": "FRANCA", "LATITUDE": -20.7455171, "LONGITUDE": -48.8991014, "BASE": "POTENCIAL" }, "geometry": { "type": "Point", "coordinates": [ -48.8991014, -20.7455171 ] } },
{ "type": "Feature", "properties": { "CNPJ": 29959425000104, "AGENTE": "JULIANA_SOUZA_DE_OLIVEIRA", "ACAO": "REALIZAR_PRIMEIRA_VISITA_POTENCIAL", "RAZAO_SOCIAL": "JOYCE_DE_SOUZA_SILVA", "ENDERECO": "RUA_ALEXANDRE_ROCHA_LOPES_2920_JOAO_LOPES_PATROCINIO_PAULISTA_BRASIL", "CIDADE": "FRANCA", "LATITUDE": -20.6587994, "LONGITUDE": -47.2975094, "BASE": "POTENCIAL" }, "geometry": { "type": "Point", "coordinates": [ -47.2975094, -20.6587994 ] } },
{ "type": "Feature", "properties": { "CNPJ": 42417413000116, "AGENTE": "JULIANA_SOUZA_DE_OLIVEIRA", "ACAO": "REALIZAR_PRIMEIRA_VISITA_POTENCIAL", "RAZAO_SOCIAL": "LUCAS_FERREIRA_CAVALCANTE", "ENDERECO": "RUA_VOLUNTARIOS_PAULISTAS_1698_CENTRO_PATROCINIO_PAULISTA_BRASIL", "CIDADE": "FRANCA", "LATITUDE": -20.6386811, "LONGITUDE": -47.2821222, "BASE": "POTENCIAL" }, "geometry": { "type": "Point", "coordinates": [ -47.2821222, -20.6386811 ] } },
{ "type": "Feature", "properties": { "CNPJ": 46885124000100, "AGENTE": "JULIANA_SOUZA_DE_OLIVEIRA", "ACAO": "REALIZAR_PRIMEIRA_VISITA_POTENCIAL", "RAZAO_SOCIAL": "CRISTIANE_DA_SILVA_ANDRADE_SOARES", "ENDERECO": "RUA_3_197_SANTA_MARIA_I_SAO_SEBASTIAO_DA_GRAMA_BRASIL", "CIDADE": "FRANCA", "LATITUDE": -21.7145029, "LONGITUDE": -46.8234676, "BASE": "POTENCIAL" }, "geometry": { "type": "Point", "coordinates": [ -46.8234676, -21.7145029 ] } },
{ "type": "Feature", "properties": { "CNPJ": 47756966000117, "AGENTE": "JULIANA_SOUZA_DE_OLIVEIRA", "ACAO": "REALIZAR_PRIMEIRA_VISITA_POTENCIAL", "RAZAO_SOCIAL": "LUCIANO_LIMONTI_TAVEIRA", "ENDERECO": "ALAMEDA_ARMINDA_NOGUEIRA_2362_VILA_INDUSTRIAL_FRANCA_BRASIL", "CIDADE": "FRANCA", "LATITUDE": -20.544835, "LONGITUDE": -47.3950039, "BASE": "POTENCIAL" }, "geometry": { "type": "Point", "coordinates": [ -47.3950039, -20.544835 ] } },
{ "type": "Feature", "properties": { "CNPJ": 41919049000120, "AGENTE": "JULIANA_SOUZA_DE_OLIVEIRA", "ACAO": "REALIZAR_PRIMEIRA_VISITA_POTENCIAL", "RAZAO_SOCIAL": "JOSE_LUIZ_DE_MELO", "ENDERECO": "ALAMEDA_ARMINDA_NOGUEIRA_2562_VILA_INDUSTRIAL_FRANCA_BRASIL", "CIDADE": "FRANCA", "LATITUDE": -20.5461646, "LONGITUDE": -47.3940856, "BASE": "POTENCIAL" }, "geometry": { "type": "Point", "coordinates": [ -47.3940856, -20.5461646 ] } },
{ "type": "Feature", "properties": { "CNPJ": 24340536000114, "AGENTE": "JULIANA_SOUZA_DE_OLIVEIRA", "ACAO": "REALIZAR_PRIMEIRA_VISITA_POTENCIAL", "RAZAO_SOCIAL": "AFETO_CENTRO_DE_DESENVOLVIMENTO_HUMANO_LTDA.", "ENDERECO": "AVENIDA_ADHEMAR_PEREIRA_DE_BARROS_2295_JARDIM_PIRATININGA_II_FRANCA_BRASIL", "CIDADE": "FRANCA", "LATITUDE": -20.5360815, "LONGITUDE": -47.3642084, "BASE": "POTENCIAL" }, "geometry": { "type": "Point", "coordinates": [ -47.3642084, -20.5360815 ] } },
{ "type": "Feature", "properties": { "CNPJ": 49910401000178, "AGENTE": "JULIANA_SOUZA_DE_OLIVEIRA", "ACAO": "REALIZAR_PRIMEIRA_VISITA_POTENCIAL", "RAZAO_SOCIAL": "EDILAMAR_ESTER_FERNANDES_DE_FIGUEIREDO", "ENDERECO": "AVENIDA_ALAGOAS_1173_JARDIM_PAULISTA_FRANCA_BRASIL", "CIDADE": "FRANCA", "LATITUDE": -20.5276821, "LONGITUDE": -47.3763351, "BASE": "POTENCIAL" }, "geometry": { "type": "Point", "coordinates": [ -47.3763351, -20.5276821 ] } },
{ "type": "Feature", "properties": { "CNPJ": 44794252000105, "AGENTE": "JULIANA_SOUZA_DE_OLIVEIRA", "ACAO": "REALIZAR_PRIMEIRA_VISITA_POTENCIAL", "RAZAO_SOCIAL": "NOEMY_CARDOSO_BOORATI", "ENDERECO": "AVENIDA_ANGELO_PEDRO_3266_SAO_JOSE_FRANCA_BRASIL", "CIDADE": "FRANCA", "LATITUDE": -20.548182, "LONGITUDE": -47.3904084, "BASE": "POTENCIAL" }, "geometry": { "type": "Point", "coordinates": [ -47.3904084, -20.548182 ] } },
{ "type": "Feature", "properties": { "CNPJ": 41971993000126, "AGENTE": "JULIANA_SOUZA_DE_OLIVEIRA", "ACAO": "REALIZAR_PRIMEIRA_VISITA_POTENCIAL", "RAZAO_SOCIAL": "RAYLA_BERNARDES_CHAVES_PIMENTA", "ENDERECO": "AVENIDA_ANTONIO_RODRIGUES_NETTO_1147_VILA_NOSSA_SENHORA_DAS_GRACAS_FRANCA_BRASIL", "CIDADE": "FRANCA", "LATITUDE": -20.5216621, "LONGITUDE": -47.3945901, "BASE": "POTENCIAL" }, "geometry": { "type": "Point", "coordinates": [ -47.3945901, -20.5216621 ] } },
{ "type": "Feature", "properties": { "CNPJ": 52732718000176, "AGENTE": "JULIANA_SOUZA_DE_OLIVEIRA", "ACAO": "REALIZAR_PRIMEIRA_VISITA_POTENCIAL", "RAZAO_SOCIAL": "52.732.718_FRANSERGIO_ALVES_GARCIA", "ENDERECO": "AVENIDA_BRASIL_2263_VILA_APARECIDA_FRANCA_BRASIL", "CIDADE": "FRANCA", "LATITUDE": -20.5255799, "LONGITUDE": -47.3703686, "BASE": "POTENCIAL" }, "geometry": { "type": "Point", "coordinates": [ -47.3703686, -20.5255799 ] } },
{ "type": "Feature", "properties": { "CNPJ": 52025611000198, "AGENTE": "JULIANA_SOUZA_DE_OLIVEIRA", "ACAO": "REALIZAR_PRIMEIRA_VISITA_POTENCIAL", "RAZAO_SOCIAL": "VERSAT_ABRASIVOS_E_LIXAS_LTDA", "ENDERECO": "AVENIDA_DOM_PEDRO_I_1820_RESIDENCIAL_NOVA_FRANCA_FRANCA_BRASIL", "CIDADE": "FRANCA", "LATITUDE": -20.5065277, "LONGITUDE": -47.3950198, "BASE": "POTENCIAL" }, "geometry": { "type": "Point", "coordinates": [ -47.3950198, -20.5065277 ] } },
{ "type": "Feature", "properties": { "CNPJ": 47204815000156, "AGENTE": "JULIANA_SOUZA_DE_OLIVEIRA", "ACAO": "REALIZAR_PRIMEIRA_VISITA_POTENCIAL", "RAZAO_SOCIAL": "FELIPE_HENRIQUE_COLOSIO", "ENDERECO": "AVENIDA_DOMINGOS_SANNA_771_SAO_JOAQUIM_FRANCA_BRASIL", "CIDADE": "FRANCA", "LATITUDE": -20.5408508, "LONGITUDE": -47.4300822, "BASE": "POTENCIAL" }, "geometry": { "type": "Point", "coordinates": [ -47.4300822, -20.5408508 ] } },
{ "type": "Feature", "properties": { "CNPJ": 14342573000108, "AGENTE": "JULIANA_SOUZA_DE_OLIVEIRA", "ACAO": "REALIZAR_PRIMEIRA_VISITA_POTENCIAL", "RAZAO_SOCIAL": "CARLOS_HENRIQUE_CARDOSO", "ENDERECO": "AVENIDA_DOUTOR_HELIO_PALERMO_-_DE_2876_AO_FIM_-_LADO_PAR_NULL_PROLONGAMENTO_VILA_DUQUE_DE_CAXIAS_FRANCA_BRASIL", "CIDADE": "FRANCA", "LATITUDE": -20.5270654, "LONGITUDE": -47.4021255, "BASE": "POTENCIAL" }, "geometry": { "type": "Point", "coordinates": [ -47.4021255, -20.5270654 ] } },
{ "type": "Feature", "properties": { "CNPJ": 39634348000176, "AGENTE": "JULIANA_SOUZA_DE_OLIVEIRA", "ACAO": "REALIZAR_PRIMEIRA_VISITA_POTENCIAL", "RAZAO_SOCIAL": "NANOBOOST_CIENCIA_TECNOLOGIA_E_COMERCIO_LTDA", "ENDERECO": "AVENIDA_ELISA_VERZOLA_GOSUEN_2103_PROLONGAMENTO_VILA_SANTA_CRUZ_FRANCA_BRASIL", "CIDADE": "FRANCA", "LATITUDE": -20.5437964, "LONGITUDE": -47.3892023, "BASE": "POTENCIAL" }, "geometry": { "type": "Point", "coordinates": [ -47.3892023, -20.5437964 ] } },
{ "type": "Feature", "properties": { "CNPJ": 46952690000180, "AGENTE": "JULIANA_SOUZA_DE_OLIVEIRA", "ACAO": "REALIZAR_PRIMEIRA_VISITA_POTENCIAL", "RAZAO_SOCIAL": "NATALIA_GOMES_DOS_SANTOS_ABREU", "ENDERECO": "AVENIDA_GERALDA_ROCHA_SILVA_3207_PARQUE_VICENTE_LEPORACE_I_FRANCA_BRASIL", "CIDADE": "FRANCA", "LATITUDE": -20.5035698, "LONGITUDE": -47.4154689, "BASE": "POTENCIAL" }, "geometry": { "type": "Point", "coordinates": [ -47.4154689, -20.5035698 ] } },