{
"type": "FeatureCollection",
"name": "LILIA_VIANNA",
"crs": { "type": "name", "properties": { "name": "urn:ogc:def:crs:OGC:1.3:CRS84" } },
"xy_coordinate_resolution": 1e-15,
"features": [
{ "type": "Feature", "properties": { "CNPJ": 630139000119, "AGENTE": "LILIA_VIANNA", "ACAO": "REALIZAR_PRIMEIRA_VISITA", "RAZAO_SOCIAL": "BAR_E_MERCEARIA_RECORDACOES_NORDESTINAS_LTDA", "ENDERECO": "AVENIDA_SAPOPEMBA_16048_JARDIM_ADUTORA_SAO_PAULO", "CIDADE": "SAO_PAULO", "LATITUDE": -23.6236589, "LONGITUDE": -46.4612985 }, "geometry": { "type": "Point", "coordinates": [ -46.4612985, -23.6236589 ] } },
{ "type": "Feature", "properties": { "CNPJ": 296290000162, "AGENTE": "LILIA_VIANNA", "ACAO": "REALIZAR_PRIMEIRA_VISITA", "RAZAO_SOCIAL": "SOLI_INSTRUMENTOS_DE_MEDICAO_LTDA", "ENDERECO": "AVENIDA_SATELITE_461_CIDADE_SATELITE_SANTA_BARBARA_SAO_PAULO", "CIDADE": "SAO_PAULO", "LATITUDE": -23.6121405, "LONGITUDE": -46.4673693 }, "geometry": { "type": "Point", "coordinates": [ -46.4673693, -23.6121405 ] } },
{ "type": "Feature", "properties": { "CNPJ": 96411335000171, "AGENTE": "LILIA_VIANNA", "ACAO": "REALIZAR_PRIMEIRA_VISITA", "RAZAO_SOCIAL": "CLINICA_MEDICA_E_DIAGNOSTICA_SOLER_LTDA", "ENDERECO": "AVENIDA_SATELITE_84_CIDADE_SATELITE_SANTA_BARBARA_SAO_PAULO", "CIDADE": "SAO_PAULO", "LATITUDE": -23.6138996, "LONGITUDE": -46.4703619 }, "geometry": { "type": "Point", "coordinates": [ -46.4703619, -23.6138996 ] } },
{ "type": "Feature", "properties": { "CNPJ": 40008711000127, "AGENTE": "LILIA_VIANNA", "ACAO": "REALIZAR_PRIMEIRA_VISITA", "RAZAO_SOCIAL": "BARONESA_REVESTIMENTOS_COMERCIAL_LTDA", "ENDERECO": "RUA_PAULO_NUNES_FELIX_16_PARQUE_SAO_RAFAEL_SAO_PAULO", "CIDADE": "SAO_PAULO", "LATITUDE": -23.622943, "LONGITUDE": -46.4774652 }, "geometry": { "type": "Point", "coordinates": [ -46.4774652, -23.622943 ] } },
{ "type": "Feature", "properties": { "CNPJ": 34975210000117, "AGENTE": "LILIA_VIANNA", "ACAO": "REALIZAR_SEGUNDA_VISITA", "RAZAO_SOCIAL": "DIEGO_ZAVAN_MENDES_-_TINTAS_METALURGICOS", "ENDERECO": "AVENIDA_DOS_METALURGICOS_264_CIDADE_TIRADENTES_SAO_PAULO", "CIDADE": "SAO_PAULO", "LATITUDE": -23.5872071, "LONGITUDE": -46.4092747 }, "geometry": { "type": "Point", "coordinates": [ -46.4092747, -23.5872071 ] } },
{ "type": "Feature", "properties": { "CNPJ": 32608680000117, "AGENTE": "LILIA_VIANNA", "ACAO": "REALIZAR_SEGUNDA_VISITA", "RAZAO_SOCIAL": "ALEX_ROGERIO_CARLETO_CALCADOS_-_BANANA_SHOCK", "ENDERECO": "AVENIDA_MARECHAL_TITO_1069_SAO_MIGUEL_PAULISTA_SAO_PAULO", "CIDADE": "SAO_PAULO", "LATITUDE": -23.4950291, "LONGITUDE": -46.435421 }, "geometry": { "type": "Point", "coordinates": [ -46.435421, -23.4950291 ] } },
{ "type": "Feature", "properties": { "CNPJ": 38046549000190, "AGENTE": "LILIA_VIANNA", "ACAO": "REALIZAR_SEGUNDA_VISITA", "RAZAO_SOCIAL": "KOMFORTHOUSE_SOFAS_LTDA_-_CONFORT_HOUSE", "ENDERECO": "AVENIDA_MARECHAL_TITO_1401_SAO_MIGUEL_PAULISTA_SAO_PAULO", "CIDADE": "SAO_PAULO", "LATITUDE": -23.4952634, "LONGITUDE": -46.4321923 }, "geometry": { "type": "Point", "coordinates": [ -46.4321923, -23.4952634 ] } },
{ "type": "Feature", "properties": { "CNPJ": 1355008000133, "AGENTE": "LILIA_VIANNA", "ACAO": "REALIZAR_SEGUNDA_VISITA", "RAZAO_SOCIAL": "LANCHONETE_G.M.D._LTDA_-_LANCHONETE_GMD", "ENDERECO": "AVENIDA_MARECHAL_TITO_2615_SAO_MIGUEL_PAULISTA_SAO_PAULO", "CIDADE": "SAO_PAULO", "LATITUDE": -23.4938766, "LONGITUDE": -46.4204026 }, "geometry": { "type": "Point", "coordinates": [ -46.4204026, -23.4938766 ] } },
{ "type": "Feature", "properties": { "CNPJ": 56069683000198, "AGENTE": "LILIA_VIANNA", "ACAO": "REALIZAR_SEGUNDA_VISITA", "RAZAO_SOCIAL": "LUXO_OUTLET_STORE_LTDA_-_LUXO_STORE", "ENDERECO": "AVENIDA_MARECHAL_TITO_283_SAO_MIGUEL_PAULISTA_SAO_PAULO", "CIDADE": "SAO_PAULO", "LATITUDE": -23.4934017, "LONGITUDE": -46.442834 }, "geometry": { "type": "Point", "coordinates": [ -46.442834, -23.4934017 ] } },
{ "type": "Feature", "properties": { "CNPJ": 21884616000142, "AGENTE": "LILIA_VIANNA", "ACAO": "REALIZAR_SEGUNDA_VISITA", "RAZAO_SOCIAL": "LUCAS_ALVES_SANTOS_40336471807_-_NICK_CELLB_CONSERTO_CELULAR", "ENDERECO": "AVENIDA_MARECHAL_TITO_955_SAO_MIGUEL_PAULISTA_SAO_PAULO", "CIDADE": "SAO_PAULO", "LATITUDE": -23.4948998, "LONGITUDE": -46.4365131 }, "geometry": { "type": "Point", "coordinates": [ -46.4365131, -23.4948998 ] } },
{ "type": "Feature", "properties": { "CNPJ": 50279921000103, "AGENTE": "LILIA_VIANNA", "ACAO": "REALIZAR_SEGUNDA_VISITA", "RAZAO_SOCIAL": "50.279.921_THAIS_FERNANDA_RAFAEL_DOS_SANTOS_-_ATELIE_THAIS_FERNANDA", "ENDERECO": "AVENIDA_MIGUEL_ACHIOLE_DA_FONSECA_1331_JARDIM_SAO_PAULO_SAO_PAULO", "CIDADE": "SAO_PAULO", "LATITUDE": -23.5591555, "LONGITUDE": -46.4021938 }, "geometry": { "type": "Point", "coordinates": [ -46.4021938, -23.5591555 ] } },
{ "type": "Feature", "properties": { "CNPJ": 50849747000197, "AGENTE": "LILIA_VIANNA", "ACAO": "REALIZAR_SEGUNDA_VISITA", "RAZAO_SOCIAL": "ACADEMIA_CAIMAN_MONSTER_FIT_LTDA_-_ACADEMIA_CAIMAM_MONSTER_FIT", "ENDERECO": "AVENIDA_MIGUEL_DA_FONSECA_1502_JARDIM_SAO_PAULO_SAO_PAULO", "CIDADE": "SAO_PAULO", "LATITUDE": -23.5590508, "LONGITUDE": -46.4037286 }, "geometry": { "type": "Point", "coordinates": [ -46.4037286, -23.5590508 ] } },
{ "type": "Feature", "properties": { "CNPJ": 39964186000134, "AGENTE": "LILIA_VIANNA", "ACAO": "REALIZAR_SEGUNDA_VISITA", "RAZAO_SOCIAL": "39.964.186_AILTON_ROSA_-_SUPRIMENTOS", "ENDERECO": "AVENIDA_RAGUEB_CHOHFI_4531_JARDIM_IGUATEMI_SAO_PAULO", "CIDADE": "SAO_PAULO", "LATITUDE": -23.5945431, "LONGITUDE": -46.442029 }, "geometry": { "type": "Point", "coordinates": [ -46.442029, -23.5945431 ] } },
{ "type": "Feature", "properties": { "CNPJ": 55063896000140, "AGENTE": "LILIA_VIANNA", "ACAO": "REALIZAR_SEGUNDA_VISITA", "RAZAO_SOCIAL": "XUE_CEL_COMERCIO_E_ACESSORIOS_LTDA_-_XUE_CELL", "ENDERECO": "AVENIDA_RODOLFO_PIRANI_223_JARDIM_RODOLFO_PIRANI_SAO_PAULO", "CIDADE": "SAO_PAULO", "LATITUDE": -23.6276276, "LONGITUDE": -46.4621097 }, "geometry": { "type": "Point", "coordinates": [ -46.4621097, -23.6276276 ] } },
{ "type": "Feature", "properties": { "CNPJ": 56000416000164, "AGENTE": "LILIA_VIANNA", "ACAO": "REALIZAR_SEGUNDA_VISITA", "RAZAO_SOCIAL": "J_M_L_FERRARI_RESTAURANTE_LTDA_-_BOM_PALAR", "ENDERECO": "AVENIDA_SAPOPEMBA_14658_JARDIM_VERA_CRUZ_SAO_PAULO", "CIDADE": "SAO_PAULO", "LATITUDE": -23.6173382, "LONGITUDE": -46.4689437 }, "geometry": { "type": "Point", "coordinates": [ -46.4689437, -23.6173382 ] } },
{ "type": "Feature", "properties": { "CNPJ": 2184210000102, "AGENTE": "LILIA_VIANNA", "ACAO": "REALIZAR_SEGUNDA_VISITA", "RAZAO_SOCIAL": "MARCEVAN_FREIOS_LTDA_-_MARCEVAN_FREIOS", "ENDERECO": "AVENIDA_SAPOPEMBA_15574_JARDIM_VERA_CRUZ_SAO_PAULO", "CIDADE": "SAO_PAULO", "LATITUDE": -23.6243565, "LONGITUDE": -46.4645162 }, "geometry": { "type": "Point", "coordinates": [ -46.4645162, -23.6243565 ] } },
{ "type": "Feature", "properties": { "CNPJ": 49218038000124, "AGENTE": "LILIA_VIANNA", "ACAO": "REALIZAR_SEGUNDA_VISITA", "RAZAO_SOCIAL": "49.218.038_MARCELO_GOMES_MARQUES_-_TERRA_RESTAURANTE", "ENDERECO": "AVENIDA_SAPOPEMBA_16158_JARDIM_RODOLFO_PIRANI_SAO_PAULO", "CIDADE": "SAO_PAULO", "LATITUDE": -23.6227034, "LONGITUDE": -46.4619399 }, "geometry": { "type": "Point", "coordinates": [ -46.4619399, -23.6227034 ] } },
{ "type": "Feature", "properties": { "CNPJ": 55813914000163, "AGENTE": "LILIA_VIANNA", "ACAO": "REALIZAR_SEGUNDA_VISITA", "RAZAO_SOCIAL": "DR_PASTEL_LTDA_-_DR_PASTEL", "ENDERECO": "AVENIDA_SATELITE_442_CIDADE_SATELITE_SANTA_BARBARA_SAO_PAULO", "CIDADE": "SAO_PAULO", "LATITUDE": -23.6125023, "LONGITUDE": -46.4671348 }, "geometry": { "type": "Point", "coordinates": [ -46.4671348, -23.6125023 ] } },
{ "type": "Feature", "properties": { "CNPJ": 42962870000191, "AGENTE": "LILIA_VIANNA", "ACAO": "REALIZAR_SEGUNDA_VISITA", "RAZAO_SOCIAL": "42.962.870_MIRELLA_DEUSA_PINHEIRO_PINTO_-_TANIA_KIDS", "ENDERECO": "AVENIDA_SOUZA_RAMOS_478_GUAIANASES_SAO_PAULO", "CIDADE": "SAO_PAULO", "LATITUDE": -23.5824977, "LONGITUDE": -46.4094648 }, "geometry": { "type": "Point", "coordinates": [ -46.4094648, -23.5824977 ] } },
{ "type": "Feature", "properties": { "CNPJ": 41388245000115, "AGENTE": "LILIA_VIANNA", "ACAO": "REALIZAR_SEGUNDA_VISITA", "RAZAO_SOCIAL": "FELLYPE_EDGARD_ARAUJO_DA_SILVA_13569926761_-_DM_MODAS", "ENDERECO": "AVENIDA_SOUZA_RAMOS_813_GUAIANASES_SAO_PAULO", "CIDADE": "SAO_PAULO", "LATITUDE": -23.581043, "LONGITUDE": -46.4110293 }, "geometry": { "type": "Point", "coordinates": [ -46.4110293, -23.581043 ] } },
{ "type": "Feature", "properties": { "CNPJ": 22283845000174, "AGENTE": "LILIA_VIANNA", "ACAO": "REALIZAR_SEGUNDA_VISITA", "RAZAO_SOCIAL": "JOSE_CARLOS_BRANDAO_GOMES_35904947860_-_JOSE_CARLOS_BRANDAO", "ENDERECO": "ESTRADA_NOSSA_SENHORA_DA_FONTE_20_JARDIM_MARPU_SAO_PAULO", "CIDADE": "SAO_PAULO", "LATITUDE": -23.5443824, "LONGITUDE": -46.411999 }, "geometry": { "type": "Point", "coordinates": [ -46.411999, -23.5443824 ] } },
{ "type": "Feature", "properties": { "CNPJ": 34524135000178, "AGENTE": "LILIA_VIANNA", "ACAO": "REALIZAR_SEGUNDA_VISITA", "RAZAO_SOCIAL": "JOIA_PRESENTES_E_UTILIDADES_LTDA_-_JOIAS_PRESENTES", "ENDERECO": "RUA_ABNER_RIBEIRO_BORGES_37_JARDIM_ROSELI_SAO_PAULO", "CIDADE": "SAO_PAULO", "LATITUDE": -23.5950188, "LONGITUDE": -46.4423063 }, "geometry": { "type": "Point", "coordinates": [ -46.4423063, -23.5950188 ] } },
{ "type": "Feature", "properties": { "CNPJ": 60343696000180, "AGENTE": "LILIA_VIANNA", "ACAO": "REALIZAR_SEGUNDA_VISITA", "RAZAO_SOCIAL": "FEST_CAR_COMERCIO_DE_AUTO_PECAS_LTDA_-_FAST_CAR", "ENDERECO": "RUA_ARNALDO_BONAVENTURA_15_CIDADE_TIRADENTES_SAO_PAULO", "CIDADE": "SAO_PAULO", "LATITUDE": -23.5847577, "LONGITUDE": -46.4087888 }, "geometry": { "type": "Point", "coordinates": [ -46.4087888, -23.5847577 ] } },
{ "type": "Feature", "properties": { "CNPJ": 54299587000100, "AGENTE": "LILIA_VIANNA", "ACAO": "REALIZAR_SEGUNDA_VISITA", "RAZAO_SOCIAL": "54.299.587_FERNANDO_LIMA_DA_SILVA_-_SMART_NERD", "ENDERECO": "RUA_ARNALDO_BONAVENTURA_227_CIDADE_TIRADENTES_SAO_PAULO", "CIDADE": "SAO_PAULO", "LATITUDE": -23.5866689, "LONGITUDE": -46.409025 }, "geometry": { "type": "Point", "coordinates": [ -46.409025, -23.5866689 ] } },
{ "type": "Feature", "properties": { "CNPJ": 12358197000114, "AGENTE": "LILIA_VIANNA", "ACAO": "REALIZAR_SEGUNDA_VISITA", "RAZAO_SOCIAL": "ADILSON_TEDESCO_BIJUTERIAS_-_BONITA", "ENDERECO": "RUA_ARNALDO_BONAVENTURA_245_CIDADE_TIRADENTES_SAO_PAULO", "CIDADE": "SAO_PAULO", "LATITUDE": -23.5868216, "LONGITUDE": -46.4090652 }, "geometry": { "type": "Point", "coordinates": [ -46.4090652, -23.5868216 ] } },
{ "type": "Feature", "properties": { "CNPJ": 8150263000199, "AGENTE": "LILIA_VIANNA", "ACAO": "REALIZAR_SEGUNDA_VISITA", "RAZAO_SOCIAL": "NEUZA_DE_JESUS_SANTOS_-_NATHALIA__MODAS", "ENDERECO": "RUA_ARNALDO_BONAVENTURA_273_CIDADE_TIRADENTES_SAO_PAULO", "CIDADE": "SAO_PAULO", "LATITUDE": -23.5870477, "LONGITUDE": -46.4090041 }, "geometry": { "type": "Point", "coordinates": [ -46.4090041, -23.5870477 ] } },
{ "type": "Feature", "properties": { "CNPJ": 21066313000112, "AGENTE": "LILIA_VIANNA", "ACAO": "REALIZAR_SEGUNDA_VISITA", "RAZAO_SOCIAL": "MATUSALEM_ABREU_DOS_SANTOS_66240646334_-_ASSISTEC_INFORMATICA", "ENDERECO": "RUA_ARNALDO_BONAVENTURA_303_CIDADE_TIRADENTES_SAO_PAULO", "CIDADE": "SAO_PAULO", "LATITUDE": -23.5873203, "LONGITUDE": -46.4090046 }, "geometry": { "type": "Point", "coordinates": [ -46.4090046, -23.5873203 ] } },
{ "type": "Feature", "properties": { "CNPJ": 59061898000150, "AGENTE": "LILIA_VIANNA", "ACAO": "REALIZAR_SEGUNDA_VISITA", "RAZAO_SOCIAL": "59.061.898_FABIANE_DOS_SANTOS_SILVA_-_CAFETEIRA_YELLON_COFFEE", "ENDERECO": "RUA_ARNALDO_BONAVENTURA_37_CIDADE_TIRADENTES_SAO_PAULO", "CIDADE": "SAO_PAULO", "LATITUDE": -23.5850238, "LONGITUDE": -46.4088244 }, "geometry": { "type": "Point", "coordinates": [ -46.4088244, -23.5850238 ] } },
{ "type": "Feature", "properties": { "CNPJ": 67748335000163, "AGENTE": "LILIA_VIANNA", "ACAO": "REALIZAR_SEGUNDA_VISITA", "RAZAO_SOCIAL": "LEILA_FELIX_DA_SILVA_PIMENTA_-_LILI_MODAS", "ENDERECO": "RUA_ARNALDO_BONAVENTURA_475_CIDADE_TIRADENTES_SAO_PAULO", "CIDADE": "SAO_PAULO", "LATITUDE": -23.5888259, "LONGITUDE": -46.4085421 }, "geometry": { "type": "Point", "coordinates": [ -46.4085421, -23.5888259 ] } },
{ "type": "Feature", "properties": { "CNPJ": 14210360000122, "AGENTE": "LILIA_VIANNA", "ACAO": "REALIZAR_SEGUNDA_VISITA", "RAZAO_SOCIAL": "NELSON_NUNES_DE_SOUSA_FILHO_-_GAMES_-_GAMES_TR_NEL", "ENDERECO": "RUA_ARNALDO_BONAVENTURA_481_CIDADE_TIRADENTES_SAO_PAULO", "CIDADE": "SAO_PAULO", "LATITUDE": -23.5888767, "LONGITUDE": -46.4084981 }, "geometry": { "type": "Point", "coordinates": [ -46.4084981, -23.5888767 ] } },
{ "type": "Feature", "properties": { "CNPJ": 7764591000112, "AGENTE": "LILIA_VIANNA", "ACAO": "REALIZAR_SEGUNDA_VISITA", "RAZAO_SOCIAL": "LEIDIOMAR_DE_ARAUJO_F._NOBREGA_-_LARISSA_FLASHION", "ENDERECO": "RUA_ARNALDO_BONAVENTURA_485_CIDADE_TIRADENTES_SAO_PAULO", "CIDADE": "SAO_PAULO", "LATITUDE": -23.5888898, "LONGITUDE": -46.4084713 }, "geometry": { "type": "Point", "coordinates": [ -46.4084713, -23.5888898 ] } },
{ "type": "Feature", "properties": { "CNPJ": 44103161000186, "AGENTE": "LILIA_VIANNA", "ACAO": "REALIZAR_SEGUNDA_VISITA", "RAZAO_SOCIAL": "FERNANDA_MARIA_DE_OLIVEIRA_32870055889_-_ESTILO_AFRO", "ENDERECO": "RUA_ARNALDO_BONAVENTURA_505_CIDADE_TIRADENTES_SAO_PAULO", "CIDADE": "SAO_PAULO", "LATITUDE": -23.589063, "LONGITUDE": -46.4081789 }, "geometry": { "type": "Point", "coordinates": [ -46.4081789, -23.589063 ] } },
{ "type": "Feature", "properties": { "CNPJ": 23868606000149, "AGENTE": "LILIA_VIANNA", "ACAO": "REALIZAR_SEGUNDA_VISITA", "RAZAO_SOCIAL": "TIAGO_NUNES_DA_SILVA_NETO_31757750800_-_TATTOO_DOS_REINO", "ENDERECO": "RUA_ARNALDO_BONAVENTURA_525_CIDADE_TIRADENTES_SAO_PAULO", "CIDADE": "SAO_PAULO", "LATITUDE": -23.5891951, "LONGITUDE": -46.4081989 }, "geometry": { "type": "Point", "coordinates": [ -46.4081989, -23.5891951 ] } },
{ "type": "Feature", "properties": { "CNPJ": 44775456000107, "AGENTE": "LILIA_VIANNA", "ACAO": "REALIZAR_SEGUNDA_VISITA", "RAZAO_SOCIAL": "44.775.456_ALYSSON_MESSIAS_SILVA_ALVES_-_SALGATERIANK", "ENDERECO": "RUA_BARAO_ANTONIO_LUIS_DE_TEFE_3_GUAIANASES_SAO_PAULO", "CIDADE": "SAO_PAULO", "LATITUDE": -23.5662381, "LONGITUDE": -46.4097988 }, "geometry": { "type": "Point", "coordinates": [ -46.4097988, -23.5662381 ] } },
{ "type": "Feature", "properties": { "CNPJ": 23614154000179, "AGENTE": "LILIA_VIANNA", "ACAO": "REALIZAR_SEGUNDA_VISITA", "RAZAO_SOCIAL": "ESTELITA_ROSA_DE_JESUS_FERREIRA_02952455813_-_SPACO_ESTER_FERREIRA", "ENDERECO": "RUA_CABOCLA_DA_LUA_NOVA_57_CONJUNTO_HABITACIONAL_CASTRO_ALVES_SAO_PAULO", "CIDADE": "SAO_PAULO", "LATITUDE": -23.5810372, "LONGITUDE": -46.404085 }, "geometry": { "type": "Point", "coordinates": [ -46.404085, -23.5810372 ] } },
{ "type": "Feature", "properties": { "CNPJ": 58385433000192, "AGENTE": "LILIA_VIANNA", "ACAO": "REALIZAR_SEGUNDA_VISITA", "RAZAO_SOCIAL": "58.385.433_EDNILSON_OLIVEIRA_SANTOS_-_EDINILSON_OLIVEIRA_SANTOS", "ENDERECO": "RUA_CACHOEIRA_CAMALEAO_46_CONJUNTO_HABITACIONAL_INACIO_MONTEIRO_SAO_PAULO", "CIDADE": "SAO_PAULO", "LATITUDE": -23.5693353, "LONGITUDE": -46.4011898 }, "geometry": { "type": "Point", "coordinates": [ -46.4011898, -23.5693353 ] } },
{ "type": "Feature", "properties": { "CNPJ": 8795034000121, "AGENTE": "LILIA_VIANNA", "ACAO": "REALIZAR_SEGUNDA_VISITA", "RAZAO_SOCIAL": "JOSE_EVILEUDO_FERNANDES_DE_SOUSA_-_LEO_VARIEDADES", "ENDERECO": "RUA_CACHOEIRA_MACARANDUBA_100_CONJUNTO_HABITACIONAL_INACIO_MONTEIRO_SAO_PAULO", "CIDADE": "SAO_PAULO", "LATITUDE": -23.5726473, "LONGITUDE": -46.3994785 }, "geometry": { "type": "Point", "coordinates": [ -46.3994785, -23.5726473 ] } },
{ "type": "Feature", "properties": { "CNPJ": 20247900000145, "AGENTE": "LILIA_VIANNA", "ACAO": "REALIZAR_SEGUNDA_VISITA", "RAZAO_SOCIAL": "OPTICAS_ADONAI_LTDA_-_OPTICAS_ADONAI_LTDA", "ENDERECO": "RUA_CAXIU_3_CIDADE_ANTONIO_ESTEVAO_DE_CARVALHO_SAO_PAULO", "CIDADE": "SAO_PAULO", "LATITUDE": -23.5354132, "LONGITUDE": -46.467997 }, "geometry": { "type": "Point", "coordinates": [ -46.467997, -23.5354132 ] } },
{ "type": "Feature", "properties": { "CNPJ": 25292329000102, "AGENTE": "LILIA_VIANNA", "ACAO": "REALIZAR_SEGUNDA_VISITA", "RAZAO_SOCIAL": "MARIA_CHRISTINA_DE_AMORIM_DISTRIBUIDORA_DE_PECAS_-_RADIADORES_CURUCA", "ENDERECO": "RUA_CEMBIRA_1420_VILA_CURUCA_SAO_PAULO", "CIDADE": "SAO_PAULO", "LATITUDE": -23.5090098, "LONGITUDE": -46.429445 }, "geometry": { "type": "Point", "coordinates": [ -46.429445, -23.5090098 ] } },
{ "type": "Feature", "properties": { "CNPJ": 37970525000160, "AGENTE": "LILIA_VIANNA", "ACAO": "REALIZAR_SEGUNDA_VISITA", "RAZAO_SOCIAL": "37.970.525_GRAZIELE_VICENTE_FERREIRA_-_COMIDA_CASEIRA_DA_VILA", "ENDERECO": "RUA_COUTINHO_E_MELO_7084_CONJUNTO_HABITACIONAL_SITIO_CO_SAO_PAULO", "CIDADE": "SAO_PAULO", "LATITUDE": -23.5803599, "LONGITUDE": -46.3874201 }, "geometry": { "type": "Point", "coordinates": [ -46.3874201, -23.5803599 ] } },
{ "type": "Feature", "properties": { "CNPJ": 27949511000100, "AGENTE": "LILIA_VIANNA", "ACAO": "REALIZAR_SEGUNDA_VISITA", "RAZAO_SOCIAL": "SUSANA_PEREIRA_MACEDO_DOS_SANTOS_38490851808_-_CANTINHO_DA_SUZAN", "ENDERECO": "RUA_CRISTIANO_LOBE_188_CIDADE_TIRADENTES_SAO_PAULO", "CIDADE": "SAO_PAULO", "LATITUDE": -23.5919475, "LONGITUDE": -46.3997088 }, "geometry": { "type": "Point", "coordinates": [ -46.3997088, -23.5919475 ] } },
{ "type": "Feature", "properties": { "CNPJ": 53928703000140, "AGENTE": "LILIA_VIANNA", "ACAO": "REALIZAR_SEGUNDA_VISITA", "RAZAO_SOCIAL": "53.928.703_ANDREIA_CRISTINA_MOLINA_SILVA_-_DM_MARMITARIA", "ENDERECO": "RUA_DONA_ELOA_DO_VALLE_QUADROS_5_CIDADE_TIRADENTES_SAO_PAULO", "CIDADE": "SAO_PAULO", "LATITUDE": -23.5873751, "LONGITUDE": -46.4094072 }, "geometry": { "type": "Point", "coordinates": [ -46.4094072, -23.5873751 ] } },
{ "type": "Feature", "properties": { "CNPJ": 25345243000192, "AGENTE": "LILIA_VIANNA", "ACAO": "REALIZAR_SEGUNDA_VISITA", "RAZAO_SOCIAL": "MARCOS_MATEUS_SANTOS_LOPES_02887433504_-_MV_CAR", "ENDERECO": "RUA_DONA_ELOA_DO_VALLE_QUADROS_9_CIDADE_TIRADENTES_SAO_PAULO", "CIDADE": "SAO_PAULO", "LATITUDE": -23.5874426, "LONGITUDE": -46.4095431 }, "geometry": { "type": "Point", "coordinates": [ -46.4095431, -23.5874426 ] } },
{ "type": "Feature", "properties": { "CNPJ": 7279390000120, "AGENTE": "LILIA_VIANNA", "ACAO": "REALIZAR_SEGUNDA_VISITA", "RAZAO_SOCIAL": "CARINA_MOTA_DEZUANI_PECAS_-_AUTO_PECAS_1000_RAO", "ENDERECO": "RUA_DONA_ELOA_DO_VALLE_QUADROS_9_CIDADE_TIRADENTES_SAO_PAULO", "CIDADE": "SAO_PAULO", "LATITUDE": -23.5875314, "LONGITUDE": -46.4095061 }, "geometry": { "type": "Point", "coordinates": [ -46.4095061, -23.5875314 ] } },
{ "type": "Feature", "properties": { "CNPJ": 1077308000106, "AGENTE": "LILIA_VIANNA", "ACAO": "REALIZAR_SEGUNDA_VISITA", "RAZAO_SOCIAL": "JOSE_MARIA_ALVES_PEREIRA_BAR_E_LANCHONETE_-_AMICOS_BAR", "ENDERECO": "RUA_DOS_MARCENEIROS_81_CIDADE_TIRADENTES_SAO_PAULO", "CIDADE": "SAO_PAULO", "LATITUDE": -23.5994194, "LONGITUDE": -46.3991355 }, "geometry": { "type": "Point", "coordinates": [ -46.3991355, -23.5994194 ] } },
{ "type": "Feature", "properties": { "CNPJ": 45904650000108, "AGENTE": "LILIA_VIANNA", "ACAO": "REALIZAR_SEGUNDA_VISITA", "RAZAO_SOCIAL": "45.904.650_ANDRE_MENEZES_DOS_SANTOS_-_ANDRE_MENEZES", "ENDERECO": "RUA_IGARAPE_DA_BELA_AURORA_11_CONJUNTO_HABITACIONAL_INACIO_MONTEIRO_SAO_PAULO", "CIDADE": "SAO_PAULO", "LATITUDE": -23.5729839, "LONGITUDE": -46.3995748 }, "geometry": { "type": "Point", "coordinates": [ -46.3995748, -23.5729839 ] } },
{ "type": "Feature", "properties": { "CNPJ": 23500530000102, "AGENTE": "LILIA_VIANNA", "ACAO": "REALIZAR_SEGUNDA_VISITA", "RAZAO_SOCIAL": "MARINHO_BAZAR_&_PAPELARIA_LTDA_-_BAZAR_MARINHO_E_BAZAR_PAPELARIA", "ENDERECO": "RUA_IGARAPE_DA_BELA_AURORA_11_CONJUNTO_HABITACIONAL_INACIO_MONTEIRO_SAO_PAULO", "CIDADE": "SAO_PAULO", "LATITUDE": -23.5729921, "LONGITUDE": -46.3996127 }, "geometry": { "type": "Point", "coordinates": [ -46.3996127, -23.5729921 ] } },
{ "type": "Feature", "properties": { "CNPJ": 58132547000120, "AGENTE": "LILIA_VIANNA", "ACAO": "REALIZAR_SEGUNDA_VISITA", "RAZAO_SOCIAL": "58.132.547_PAULO_ALMIR_DE_LIMA_-_COLMEIA_RESTAURANTE", "ENDERECO": "RUA_IGARAPE_DA_DIANA_103_CONJUNTO_HABITACIONAL_INACIO_MONTEIRO_SAO_PAULO", "CIDADE": "SAO_PAULO", "LATITUDE": -23.5718301, "LONGITUDE": -46.4036095 }, "geometry": { "type": "Point", "coordinates": [ -46.4036095, -23.5718301 ] } },
{ "type": "Feature", "properties": { "CNPJ": 30997179000164, "AGENTE": "LILIA_VIANNA", "ACAO": "REALIZAR_SEGUNDA_VISITA", "RAZAO_SOCIAL": "FABIO_DA_COSTA_17417525822_-_SOUD_GARAGEM", "ENDERECO": "RUA_IGARAPE_SANTA_CRUZ_291_CONJUNTO_HABITACIONAL_INACIO_MONTEIRO_SAO_PAULO", "CIDADE": "SAO_PAULO", "LATITUDE": -23.5703574, "LONGITUDE": -46.4040288 }, "geometry": { "type": "Point", "coordinates": [ -46.4040288, -23.5703574 ] } },
{ "type": "Feature", "properties": { "CNPJ": 33183478000153, "AGENTE": "LILIA_VIANNA", "ACAO": "REALIZAR_SEGUNDA_VISITA", "RAZAO_SOCIAL": "33.183.478_DUANE_ANGELICA_DA_CUNHA_-_CESTAS_MELL", "ENDERECO": "RUA_ITAGIMIRIM_26_JARDIM_CLEIDE_SAO_PAULO", "CIDADE": "SAO_PAULO", "LATITUDE": -23.5375025, "LONGITUDE": -46.4567978 }, "geometry": { "type": "Point", "coordinates": [ -46.4567978, -23.5375025 ] } },
{ "type": "Feature", "properties": { "CNPJ": 18973928000118, "AGENTE": "LILIA_VIANNA", "ACAO": "REALIZAR_SEGUNDA_VISITA", "RAZAO_SOCIAL": "JULIANA_LILIA_DOS_SANTOS_OLIMPIO_32933321882_-_JULIANA_LILIA", "ENDERECO": "RUA_JOAO_DA_COSTA_PIMENTA_17_CIDADE_TIRADENTES_SAO_PAULO", "CIDADE": "SAO_PAULO", "LATITUDE": -23.5993739, "LONGITUDE": -46.3993688 }, "geometry": { "type": "Point", "coordinates": [ -46.3993688, -23.5993739 ] } },
{ "type": "Feature", "properties": { "CNPJ": 33698730000167, "AGENTE": "LILIA_VIANNA", "ACAO": "REALIZAR_SEGUNDA_VISITA", "RAZAO_SOCIAL": "JONATAS_NOGUEIRA_DE_SOUZA_45622451825_-_MJ_ACESSORIOS", "ENDERECO": "RUA_JOAO_DA_COSTA_PIMENTA_4_CIDADE_TIRADENTES_SAO_PAULO", "CIDADE": "SAO_PAULO", "LATITUDE": -23.5993191, "LONGITUDE": -46.3991295 }, "geometry": { "type": "Point", "coordinates": [ -46.3991295, -23.5993191 ] } },
{ "type": "Feature", "properties": { "CNPJ": 61351184000129, "AGENTE": "LILIA_VIANNA", "ACAO": "REALIZAR_SEGUNDA_VISITA", "RAZAO_SOCIAL": "SLYFLEX_MANGUEIRAS_E_CONEXOES_LTDA_-_SLYFKEX_MANGUEIRAS", "ENDERECO": "RUA_JOHN_SPEERS_1001_JARDIM_HELIAN_SAO_PAULO", "CIDADE": "SAO_PAULO", "LATITUDE": -23.5688817, "LONGITUDE": -46.4588003 }, "geometry": { "type": "Point", "coordinates": [ -46.4588003, -23.5688817 ] } },
{ "type": "Feature", "properties": { "CNPJ": 42376909000199, "AGENTE": "LILIA_VIANNA", "ACAO": "REALIZAR_SEGUNDA_VISITA", "RAZAO_SOCIAL": "MERCADO_FAN_HOBBIES_LTDA_-_MERCADO_FAM", "ENDERECO": "RUA_JOHN_SPEERS_1363_JARDIM_NOSSA_SENHORA_DO_CARMO_SAO_PAULO", "CIDADE": "SAO_PAULO", "LATITUDE": -23.5675214, "LONGITUDE": -46.4579097 }, "geometry": { "type": "Point", "coordinates": [ -46.4579097, -23.5675214 ] } },
{ "type": "Feature", "properties": { "CNPJ": 4678495000163, "AGENTE": "LILIA_VIANNA", "ACAO": "REALIZAR_SEGUNDA_VISITA", "RAZAO_SOCIAL": "RRA_PALLETS_E_EMBALAGENS_DE_MADEIRA_LTDA_-_RRA_PALLETS", "ENDERECO": "RUA_JOHN_SPEERS_1420_JARDIM_NOSSA_SENHORA_DO_CARMO_SAO_PAULO", "CIDADE": "SAO_PAULO", "LATITUDE": -23.5670094, "LONGITUDE": -46.4576283 }, "geometry": { "type": "Point", "coordinates": [ -46.4576283, -23.5670094 ] } },
{ "type": "Feature", "properties": { "CNPJ": 65443145000102, "AGENTE": "LILIA_VIANNA", "ACAO": "REALIZAR_SEGUNDA_VISITA", "RAZAO_SOCIAL": "VANELLI_COMERCIO_DE_MATERIAIS_PARA_CONSTRUCAO_E_AGUA_MINERAL_LIMITADA_-_VANELLI", "ENDERECO": "RUA_JOHN_SPEERS_1450_JARDIM_NOSSA_SENHORA_DO_CARMO_SAO_PAULO", "CIDADE": "SAO_PAULO", "LATITUDE": -23.5668387, "LONGITUDE": -46.4576082 }, "geometry": { "type": "Point", "coordinates": [ -46.4576082, -23.5668387 ] } },
{ "type": "Feature", "properties": { "CNPJ": 26670313000140, "AGENTE": "LILIA_VIANNA", "ACAO": "REALIZAR_SEGUNDA_VISITA", "RAZAO_SOCIAL": "MARIA_ALCIONE_DA_COSTA_FIGUEIREDO_SANTOS_26160600869_-_MF_CENTRO_AUTOMOTIVO", "ENDERECO": "RUA_JOHN_SPEERS_2007_JARDIM_NOSSA_SENHORA_DO_CARMO_SAO_PAULO", "CIDADE": "SAO_PAULO", "LATITUDE": -23.5663089, "LONGITUDE": -46.4573324 }, "geometry": { "type": "Point", "coordinates": [ -46.4573324, -23.5663089 ] } },
{ "type": "Feature", "properties": { "CNPJ": 53544782000196, "AGENTE": "LILIA_VIANNA", "ACAO": "REALIZAR_SEGUNDA_VISITA", "RAZAO_SOCIAL": "53.544.782_TELMA_DE_OLIVEIRA_MIRANDA_-_TELMA_DE_OLIVEIRA_MIRANDA", "ENDERECO": "RUA_JOSE_ARIGO_109_JARDIM_NOSSA_SENHORA_DO_CARMO_SAO_PAULO", "CIDADE": "SAO_PAULO", "LATITUDE": -23.5658965, "LONGITUDE": -46.4575449 }, "geometry": { "type": "Point", "coordinates": [ -46.4575449, -23.5658965 ] } },
{ "type": "Feature", "properties": { "CNPJ": 22629270000107, "AGENTE": "LILIA_VIANNA", "ACAO": "REALIZAR_SEGUNDA_VISITA", "RAZAO_SOCIAL": "LANCHONETE_TOP_BURGUER_LTDA_-_CHAPARRAL", "ENDERECO": "RUA_JOSE_OTONI_31_SAO_MIGUEL_PAULISTA_SAO_PAULO", "CIDADE": "SAO_PAULO", "LATITUDE": -23.4933585, "LONGITUDE": -46.440339 }, "geometry": { "type": "Point", "coordinates": [ -46.440339, -23.4933585 ] } },
{ "type": "Feature", "properties": { "CNPJ": 59890461000120, "AGENTE": "LILIA_VIANNA", "ACAO": "REALIZAR_SEGUNDA_VISITA", "RAZAO_SOCIAL": "59.890.461_RENATA_SALIMENI_PEDROZO_-_HOME_BELEZA", "ENDERECO": "RUA_JOSE_OTONI_80_SAO_MIGUEL_PAULISTA_SAO_PAULO", "CIDADE": "SAO_PAULO", "LATITUDE": -23.4932024, "LONGITUDE": -46.4399996 }, "geometry": { "type": "Point", "coordinates": [ -46.4399996, -23.4932024 ] } },
{ "type": "Feature", "properties": { "CNPJ": 32463063000170, "AGENTE": "LILIA_VIANNA", "ACAO": "REALIZAR_SEGUNDA_VISITA", "RAZAO_SOCIAL": "SIMONE_DOS_SANTOS_SILVA_28469885871_-_STUDIO_TELLES", "ENDERECO": "RUA_LUIZ_AMORIM_COSTA_23_VILA_CAROLINA_SAO_PAULO", "CIDADE": "SAO_PAULO", "LATITUDE": -23.5058291, "LONGITUDE": -46.4430802 }, "geometry": { "type": "Point", "coordinates": [ -46.4430802, -23.5058291 ] } },
{ "type": "Feature", "properties": { "CNPJ": 1050792000171, "AGENTE": "LILIA_VIANNA", "ACAO": "REALIZAR_SEGUNDA_VISITA", "RAZAO_SOCIAL": "RESTAURANTE_E_LANCHONETE_IRMAOS_MOITINHO_LTDA_-_OS_MANOS", "ENDERECO": "RUA_MIGUEL_ANGELO_LAPENA_179_SAO_MIGUEL_PAULISTA_SAO_PAULO", "CIDADE": "SAO_PAULO", "LATITUDE": -23.4919558, "LONGITUDE": -46.4419436 }, "geometry": { "type": "Point", "coordinates": [ -46.4419436, -23.4919558 ] } },
{ "type": "Feature", "properties": { "CNPJ": 27232717000115, "AGENTE": "LILIA_VIANNA", "ACAO": "REALIZAR_SEGUNDA_VISITA", "RAZAO_SOCIAL": "LARISSA_COSTA_FAZOLLO_46122641855_-_LARY_LINGERIE", "ENDERECO": "RUA_OTELO_AUGUSTO_RIBEIRO_318_GUAIANASES_SAO_PAULO", "CIDADE": "SAO_PAULO", "LATITUDE": -23.5465923, "LONGITUDE": -46.4091786 }, "geometry": { "type": "Point", "coordinates": [ -46.4091786, -23.5465923 ] } },
{ "type": "Feature", "properties": { "CNPJ": 47751157000112, "AGENTE": "LILIA_VIANNA", "ACAO": "REALIZAR_SEGUNDA_VISITA", "RAZAO_SOCIAL": "DEK_FIT_ACADEMIA_LTDA_-_DEK_FIT_ACADEMIA", "ENDERECO": "RUA_OTELO_AUGUSTO_RIBEIRO_591_GUAIANASES_SAO_PAULO", "CIDADE": "SAO_PAULO", "LATITUDE": -23.5488886, "LONGITUDE": -46.407779 }, "geometry": { "type": "Point", "coordinates": [ -46.407779, -23.5488886 ] } },
{ "type": "Feature", "properties": { "CNPJ": 45307927000107, "AGENTE": "LILIA_VIANNA", "ACAO": "REALIZAR_SEGUNDA_VISITA", "RAZAO_SOCIAL": "45.307.927_PAULA_DE_JESUS_LIMA_NOGUEIRA_-_PAULINHA_EMBALAGENS_E_FESTAS", "ENDERECO": "RUA_OTELO_AUGUSTO_RIBEIRO_657_GUAIANASES_SAO_PAULO", "CIDADE": "SAO_PAULO", "LATITUDE": -23.5491177, "LONGITUDE": -46.4076924 }, "geometry": { "type": "Point", "coordinates": [ -46.4076924, -23.5491177 ] } },
{ "type": "Feature", "properties": { "CNPJ": 32010953000127, "AGENTE": "LILIA_VIANNA", "ACAO": "REALIZAR_SEGUNDA_VISITA", "RAZAO_SOCIAL": "DOUGLAS_GOMES_BARCELOS_22964107823_-_OTICA_JUDA", "ENDERECO": "RUA_OTELO_AUGUSTO_RIBEIRO_760_GUAIANASES_SAO_PAULO", "CIDADE": "SAO_PAULO", "LATITUDE": -23.5499189, "LONGITUDE": -46.4073598 }, "geometry": { "type": "Point", "coordinates": [ -46.4073598, -23.5499189 ] } },
{ "type": "Feature", "properties": { "CNPJ": 60044997000103, "AGENTE": "LILIA_VIANNA", "ACAO": "REALIZAR_SEGUNDA_VISITA", "RAZAO_SOCIAL": "CASA_DE_AVES_PICHARRO_LTDA_-_CASA_DE_AVES_PIXARO", "ENDERECO": "RUA_PADRE_ALDEMAR_MOREIRA_107_CIDADE_TIRADENTES_SAO_PAULO", "CIDADE": "SAO_PAULO", "LATITUDE": -23.5995749, "LONGITUDE": -46.3993723 }, "geometry": { "type": "Point", "coordinates": [ -46.3993723, -23.5995749 ] } },
{ "type": "Feature", "properties": { "CNPJ": 58906613000172, "AGENTE": "LILIA_VIANNA", "ACAO": "REALIZAR_SEGUNDA_VISITA", "RAZAO_SOCIAL": "58.906.613_INGRID_FERREIRA_RODRIGUES_-_DRA_INGRID_RODRIGUES_ESTETICA_AVANCADA_E_SAUDE", "ENDERECO": "RUA_PROFESSOR_MELO_PAIVA_43_VILA_LOURDES_SAO_PAULO", "CIDADE": "SAO_PAULO", "LATITUDE": -23.5444454, "LONGITUDE": -46.4167844 }, "geometry": { "type": "Point", "coordinates": [ -46.4167844, -23.5444454 ] } },
{ "type": "Feature", "properties": { "CNPJ": 36403866000190, "AGENTE": "LILIA_VIANNA", "ACAO": "REALIZAR_SEGUNDA_VISITA", "RAZAO_SOCIAL": "36.403.866_LUCIANO_MOISES_BATISTA_SOARES_-_PAI_E_FILHO", "ENDERECO": "RUA_REGRESSO_FELIZ_661_CONJUNTO_HABITACIONAL_INACIO_MONTEIRO_SAO_PAULO", "CIDADE": "SAO_PAULO", "LATITUDE": -23.5701415, "LONGITUDE": -46.4011069 }, "geometry": { "type": "Point", "coordinates": [ -46.4011069, -23.5701415 ] } },
{ "type": "Feature", "properties": { "CNPJ": 27937221000147, "AGENTE": "LILIA_VIANNA", "ACAO": "REALIZAR_SEGUNDA_VISITA", "RAZAO_SOCIAL": "NICK_KIDS_MODA_INFANTIL_LTDA_-_NICK_KIDS_MODA_INFANTIL", "ENDERECO": "RUA_SALVADOR_GIANETTI_812_GUAIANASES_SAO_PAULO", "CIDADE": "SAO_PAULO", "LATITUDE": -23.5428881, "LONGITUDE": -46.4145054 }, "geometry": { "type": "Point", "coordinates": [ -46.4145054, -23.5428881 ] } },
{ "type": "Feature", "properties": { "CNPJ": 31527907000137, "AGENTE": "LILIA_VIANNA", "ACAO": "REALIZAR_SEGUNDA_VISITA", "RAZAO_SOCIAL": "RAUL_SCHUMMACHER_DE_SOUSA_-_CASA_DAS_MANTAS", "ENDERECO": "RUA_SAO_JOSE_17_MARANHAO_SAO_PAULO", "CIDADE": "SAO_PAULO", "LATITUDE": -23.5303601, "LONGITUDE": -46.5605013 }, "geometry": { "type": "Point", "coordinates": [ -46.5605013, -23.5303601 ] } },
{ "type": "Feature", "properties": { "CNPJ": 2042757000173, "AGENTE": "LILIA_VIANNA", "ACAO": "REALIZAR_SEGUNDA_VISITA", "RAZAO_SOCIAL": "SILVIA_MARIA_SANTOS_-_PERFUMARIA_-_SATIE", "ENDERECO": "RUA_VICENTE_GUGLIELMI_26_CIDADE_TIRADENTES_SAO_PAULO", "CIDADE": "SAO_PAULO", "LATITUDE": -23.599586, "LONGITUDE": -46.3998302 }, "geometry": { "type": "Point", "coordinates": [ -46.3998302, -23.599586 ] } }
]
}
