{
"type": "FeatureCollection",
"name": "LILIA_VIANNA",
"crs": { "type": "name", "properties": { "name": "urn:ogc:def:crs:OGC:1.3:CRS84" } },
"xy_coordinate_resolution": 1e-15,
"features": [
{ "type": "Feature", "properties": { "CNPJ": 296290000162, "AGENTE": "LILIA_VIANNA", "ACAO": "URGENTE_REALIZAR_PRIMEIRA_VISITA", "RAZAO_SOCIAL": "SOLI_INSTRUMENTOS_DE_MEDICAO_LTDA", "ENDERECO": "AVENIDASATELITE_461_CIDADESATELITESANTABARBARA_SAOPAULO", "CIDADE": "SAO_PAULO", "LATITUDE": -23.6121405, "LONGITUDE": -46.4673693, "BASE": "URGENTE_" }, "geometry": { "type": "Point", "coordinates": [ -46.4673693, -23.6121405 ] } },
{ "type": "Feature", "properties": { "CNPJ": 96411335000171, "AGENTE": "LILIA_VIANNA", "ACAO": "URGENTE_REALIZAR_PRIMEIRA_VISITA", "RAZAO_SOCIAL": "CLINICA_MEDICA_E_DIAGNOSTICA_SOLER_LTDA", "ENDERECO": "AVENIDASATELITE_84_CIDADESATELITESANTABARBARA_SAOPAULO", "CIDADE": "SAO_PAULO", "LATITUDE": -23.6138996, "LONGITUDE": -46.4703619, "BASE": "URGENTE_" }, "geometry": { "type": "Point", "coordinates": [ -46.4703619, -23.6138996 ] } },
{ "type": "Feature", "properties": { "CNPJ": 40008711000127, "AGENTE": "LILIA_VIANNA", "ACAO": "URGENTE_REALIZAR_PRIMEIRA_VISITA", "RAZAO_SOCIAL": "BARONESA_REVESTIMENTOS_COMERCIAL_LTDA", "ENDERECO": "RUAPAULONUNESFELIX_16_PARQUESAORAFAEL_SAOPAULO", "CIDADE": "SAO_PAULO", "LATITUDE": -23.622943, "LONGITUDE": -46.4774652, "BASE": "URGENTE_" }, "geometry": { "type": "Point", "coordinates": [ -46.4774652, -23.622943 ] } },
{ "type": "Feature", "properties": { "CNPJ": 630139000119, "AGENTE": "LILIA_VIANNA", "ACAO": "URGENTE_REALIZAR_PRIMEIRA_VISITA", "RAZAO_SOCIAL": "BAR_E_MERCEARIA_RECORDACOES_NORDESTINAS_LTDA", "ENDERECO": "AVENIDASAPOPEMBA_16048_JARDIMADUTORA_SAOPAULO", "CIDADE": "SAO_PAULO", "LATITUDE": -23.6236589, "LONGITUDE": -46.4612985, "BASE": "URGENTE_" }, "geometry": { "type": "Point", "coordinates": [ -46.4612985, -23.6236589 ] } },
{ "type": "Feature", "properties": { "CNPJ": 45767262000114, "AGENTE": "LILIA_VIANNA", "ACAO": "REALIZAR_SEGUNDA_VISITA", "RAZAO_SOCIAL": "RAR_PLANEJADOS", "ENDERECO": "RUA_GIACOMO_FUOCA_102_CIDADE_TIRADENTES_SAO_PAULO_BRASIL", "CIDADE": "SAO_PAULO", "LATITUDE": -23.6045063, "LONGITUDE": -46.4019988, "BASE": "ATENDIDOS" }, "geometry": { "type": "Point", "coordinates": [ -46.4019988, -23.6045063 ] } },
{ "type": "Feature", "properties": { "CNPJ": 30397375000106, "AGENTE": "LILIA_VIANNA", "ACAO": "REALIZAR_SEGUNDA_VISITA", "RAZAO_SOCIAL": "BAR_MERCEARIA_REI_DAVI", "ENDERECO": "RUA_REI_DAVI_216_CIDADE_TIRADENTES_SAO_PAULO_BRASIL", "CIDADE": "SAO_PAULO", "LATITUDE": -23.6014717, "LONGITUDE": -46.4024629, "BASE": "ATENDIDOS" }, "geometry": { "type": "Point", "coordinates": [ -46.4024629, -23.6014717 ] } },
{ "type": "Feature", "properties": { "CNPJ": 7279390000120, "AGENTE": "LILIA_VIANNA", "ACAO": "REALIZAR_SEGUNDA_VISITA", "RAZAO_SOCIAL": "CARINA_MOTA_DEZUANI_PECAS_-_AUTO_PECAS_1000_RAO", "ENDERECO": "RUADONAELOADOVALLEQUADROS_9_CIDADETIRADENTES_SAOPAULO", "CIDADE": "SAO_PAULO", "LATITUDE": -23.5875314, "LONGITUDE": -46.4095061, "BASE": "ATENDIDOS" }, "geometry": { "type": "Point", "coordinates": [ -46.4095061, -23.5875314 ] } },
{ "type": "Feature", "properties": { "CNPJ": 53544782000196, "AGENTE": "LILIA_VIANNA", "ACAO": "REALIZAR_SEGUNDA_VISITA", "RAZAO_SOCIAL": "53.544.782_TELMA_DE_OLIVEIRA_MIRANDA_-_TELMA_DE_OLIVEIRA_MIRANDA", "ENDERECO": "RUAJOSEARIGO_109_JARDIMNOSSASENHORADOCARMO_SAOPAULO", "CIDADE": "SAO_PAULO", "LATITUDE": -23.5658965, "LONGITUDE": -46.4575449, "BASE": "ATENDIDOS" }, "geometry": { "type": "Point", "coordinates": [ -46.4575449, -23.5658965 ] } },
{ "type": "Feature", "properties": { "CNPJ": 61351184000129, "AGENTE": "LILIA_VIANNA", "ACAO": "REALIZAR_SEGUNDA_VISITA", "RAZAO_SOCIAL": "SLYFLEX_MANGUEIRAS_E_CONEXOES_LTDA_-_SLYFKEX_MANGUEIRAS", "ENDERECO": "RUAJOHNSPEERS_1001_JARDIMHELIAN_SAOPAULO", "CIDADE": "SAO_PAULO", "LATITUDE": -23.5688817, "LONGITUDE": -46.4588003, "BASE": "ATENDIDOS" }, "geometry": { "type": "Point", "coordinates": [ -46.4588003, -23.5688817 ] } },
{ "type": "Feature", "properties": { "CNPJ": 54299587000100, "AGENTE": "LILIA_VIANNA", "ACAO": "REALIZAR_SEGUNDA_VISITA", "RAZAO_SOCIAL": "54.299.587_FERNANDO_LIMA_DA_SILVA_-_SMART_NERD", "ENDERECO": "RUAARNALDOBONAVENTURA_227_CIDADETIRADENTES_SAOPAULO", "CIDADE": "SAO_PAULO", "LATITUDE": -23.5866689, "LONGITUDE": -46.409025, "BASE": "ATENDIDOS" }, "geometry": { "type": "Point", "coordinates": [ -46.409025, -23.5866689 ] } },
{ "type": "Feature", "properties": { "CNPJ": 12358197000114, "AGENTE": "LILIA_VIANNA", "ACAO": "REALIZAR_SEGUNDA_VISITA", "RAZAO_SOCIAL": "ADILSON_TEDESCO_BIJUTERIAS_-_BONITA", "ENDERECO": "RUAARNALDOBONAVENTURA_245_CIDADETIRADENTES_SAOPAULO", "CIDADE": "SAO_PAULO", "LATITUDE": -23.5868216, "LONGITUDE": -46.4090652, "BASE": "ATENDIDOS" }, "geometry": { "type": "Point", "coordinates": [ -46.4090652, -23.5868216 ] } },
{ "type": "Feature", "properties": { "CNPJ": 8150263000199, "AGENTE": "LILIA_VIANNA", "ACAO": "REALIZAR_SEGUNDA_VISITA", "RAZAO_SOCIAL": "NEUZA_DE_JESUS_SANTOS_-_NATHALIA__MODAS", "ENDERECO": "RUAARNALDOBONAVENTURA_273_CIDADETIRADENTES_SAOPAULO", "CIDADE": "SAO_PAULO", "LATITUDE": -23.5870477, "LONGITUDE": -46.4090041, "BASE": "ATENDIDOS" }, "geometry": { "type": "Point", "coordinates": [ -46.4090041, -23.5870477 ] } },
{ "type": "Feature", "properties": { "CNPJ": 34975210000117, "AGENTE": "LILIA_VIANNA", "ACAO": "REALIZAR_SEGUNDA_VISITA", "RAZAO_SOCIAL": "DIEGO_ZAVAN_MENDES_-_TINTAS_METALURGICOS", "ENDERECO": "AVENIDADOSMETALURGICOS_264_CIDADETIRADENTES_SAOPAULO", "CIDADE": "SAO_PAULO", "LATITUDE": -23.5872071, "LONGITUDE": -46.4092747, "BASE": "ATENDIDOS" }, "geometry": { "type": "Point", "coordinates": [ -46.4092747, -23.5872071 ] } },
{ "type": "Feature", "properties": { "CNPJ": 21066313000112, "AGENTE": "LILIA_VIANNA", "ACAO": "REALIZAR_SEGUNDA_VISITA", "RAZAO_SOCIAL": "MATUSALEM_ABREU_DOS_SANTOS_66240646334_-_ASSISTEC_INFORMATICA", "ENDERECO": "RUAARNALDOBONAVENTURA_303_CIDADETIRADENTES_SAOPAULO", "CIDADE": "SAO_PAULO", "LATITUDE": -23.5873203, "LONGITUDE": -46.4090046, "BASE": "ATENDIDOS" }, "geometry": { "type": "Point", "coordinates": [ -46.4090046, -23.5873203 ] } },
{ "type": "Feature", "properties": { "CNPJ": 23868606000149, "AGENTE": "LILIA_VIANNA", "ACAO": "REALIZAR_SEGUNDA_VISITA", "RAZAO_SOCIAL": "TIAGO_NUNES_DA_SILVA_NETO_31757750800_-_TATTOO_DOS_REINO", "ENDERECO": "RUAARNALDOBONAVENTURA_525_CIDADETIRADENTES_SAOPAULO", "CIDADE": "SAO_PAULO", "LATITUDE": -23.5891951, "LONGITUDE": -46.4081989, "BASE": "ATENDIDOS" }, "geometry": { "type": "Point", "coordinates": [ -46.4081989, -23.5891951 ] } },
{ "type": "Feature", "properties": { "CNPJ": 60044997000103, "AGENTE": "LILIA_VIANNA", "ACAO": "REALIZAR_SEGUNDA_VISITA", "RAZAO_SOCIAL": "CASA_DE_AVES_PICHARRO_LTDA_-_CASA_DE_AVES_PIXARO", "ENDERECO": "RUAPADREALDEMARMOREIRA_107_CIDADETIRADENTES_SAOPAULO", "CIDADE": "SAO_PAULO", "LATITUDE": -23.5995749, "LONGITUDE": -46.3993723, "BASE": "ATENDIDOS" }, "geometry": { "type": "Point", "coordinates": [ -46.3993723, -23.5995749 ] } },
{ "type": "Feature", "properties": { "CNPJ": 2042757000173, "AGENTE": "LILIA_VIANNA", "ACAO": "REALIZAR_SEGUNDA_VISITA", "RAZAO_SOCIAL": "SILVIA_MARIA_SANTOS_-_PERFUMARIA_-_SATIE", "ENDERECO": "RUAVICENTEGUGLIELMI_26_CIDADETIRADENTES_SAOPAULO", "CIDADE": "SAO_PAULO", "LATITUDE": -23.599586, "LONGITUDE": -46.3998302, "BASE": "ATENDIDOS" }, "geometry": { "type": "Point", "coordinates": [ -46.3998302, -23.599586 ] } },
{ "type": "Feature", "properties": { "CNPJ": 55813914000163, "AGENTE": "LILIA_VIANNA", "ACAO": "REALIZAR_SEGUNDA_VISITA", "RAZAO_SOCIAL": "DR_PASTEL_LTDA_-_DR_PASTEL", "ENDERECO": "AVENIDASATELITE_442_CIDADESATELITESANTABARBARA_SAOPAULO", "CIDADE": "SAO_PAULO", "LATITUDE": -23.6125023, "LONGITUDE": -46.4671348, "BASE": "ATENDIDOS" }, "geometry": { "type": "Point", "coordinates": [ -46.4671348, -23.6125023 ] } },
{ "type": "Feature", "properties": { "CNPJ": 49218038000124, "AGENTE": "LILIA_VIANNA", "ACAO": "REALIZAR_SEGUNDA_VISITA", "RAZAO_SOCIAL": "49.218.038_MARCELO_GOMES_MARQUES_-_TERRA_RESTAURANTE", "ENDERECO": "AVENIDASAPOPEMBA_16158_JARDIMRODOLFOPIRANI_SAOPAULO", "CIDADE": "SAO_PAULO", "LATITUDE": -23.6227034, "LONGITUDE": -46.4619399, "BASE": "ATENDIDOS" }, "geometry": { "type": "Point", "coordinates": [ -46.4619399, -23.6227034 ] } },
{ "type": "Feature", "properties": { "CNPJ": 2184210000102, "AGENTE": "LILIA_VIANNA", "ACAO": "REALIZAR_SEGUNDA_VISITA", "RAZAO_SOCIAL": "MARCEVAN_FREIOS_LTDA_-_MARCEVAN_FREIOS", "ENDERECO": "AVENIDASAPOPEMBA_15574_JARDIMVERACRUZ_SAOPAULO", "CIDADE": "SAO_PAULO", "LATITUDE": -23.6243565, "LONGITUDE": -46.4645162, "BASE": "ATENDIDOS" }, "geometry": { "type": "Point", "coordinates": [ -46.4645162, -23.6243565 ] } },
{ "type": "Feature", "properties": { "CNPJ": 43051603000125, "AGENTE": "LILIA_VIANNA", "ACAO": "REALIZAR_SEGUNDA_VISITA", "RAZAO_SOCIAL": "ADEGA_SILVAS", "ENDERECO": "RUA_FRANCISCO_JOSE_VIANA_318_CIDADE_TIRADENTES_SAO_PAULO_BRASIL", "CIDADE": "SAO_PAULO", "LATITUDE": -23.6061498, "LONGITUDE": -46.4013526, "BASE": "ATENDIDOS" }, "geometry": { "type": "Point", "coordinates": [ -46.4013526, -23.6061498 ] } },
{ "type": "Feature", "properties": { "CNPJ": 30397375000106, "AGENTE": "LILIA_VIANNA", "ACAO": "REALIZAR_SEGUNDA_VISITA", "RAZAO_SOCIAL": "ROSE_DE_PAULA_LOPES_28851570892", "ENDERECO": "RUA_REI_DAVI_216_C_CIDADE_TIRADENTES_SAO_PAULO_BRASIL", "CIDADE": "SAO_PAULO", "LATITUDE": -23.6014717, "LONGITUDE": -46.4024629, "BASE": "POTENCIAL" }, "geometry": { "type": "Point", "coordinates": [ -46.4024629, -23.6014717 ] } }
]
}
