{
"type": "FeatureCollection",
"name": "LILIA_VIANNA",
"crs": { "type": "name", "properties": { "name": "urn:ogc:def:crs:OGC:1.3:CRS84" } },
"xy_coordinate_resolution": 1e-15,
"features": [
{ "type": "Feature", "properties": { "CNPJ": 630139000119, "AGENTE": "LILIA_VIANNA", "ACAO": "REALIZAR_PRIMEIRA_VISITA", "RAZAO_SOCIAL": "BAR_E_MERCEARIA_RECORDACOES_NORDESTINAS_LTDA", "ENDERECO": "AVENIDA_SAPOPEMBA_16048_JARDIM_ADUTORA_SAO_PAULO", "CIDADE": "SAO_PAULO", "LATITUDE": -23.6236589, "LONGITUDE": -46.4612985 }, "geometry": { "type": "Point", "coordinates": [ -46.4612985, -23.6236589 ] } },
{ "type": "Feature", "properties": { "CNPJ": 296290000162, "AGENTE": "LILIA_VIANNA", "ACAO": "REALIZAR_PRIMEIRA_VISITA", "RAZAO_SOCIAL": "SOLI_INSTRUMENTOS_DE_MEDICAO_LTDA", "ENDERECO": "AVENIDA_SATELITE_461_CIDADE_SATELITE_SANTA_BARBARA_SAO_PAULO", "CIDADE": "SAO_PAULO", "LATITUDE": -23.6121405, "LONGITUDE": -46.4673693 }, "geometry": { "type": "Point", "coordinates": [ -46.4673693, -23.6121405 ] } },
{ "type": "Feature", "properties": { "CNPJ": 96411335000171, "AGENTE": "LILIA_VIANNA", "ACAO": "REALIZAR_PRIMEIRA_VISITA", "RAZAO_SOCIAL": "CLINICA_MEDICA_E_DIAGNOSTICA_SOLER_LTDA", "ENDERECO": "AVENIDA_SATELITE_84_CIDADE_SATELITE_SANTA_BARBARA_SAO_PAULO", "CIDADE": "SAO_PAULO", "LATITUDE": -23.6138996, "LONGITUDE": -46.4703619 }, "geometry": { "type": "Point", "coordinates": [ -46.4703619, -23.6138996 ] } },
{ "type": "Feature", "properties": { "CNPJ": 40008711000127, "AGENTE": "LILIA_VIANNA", "ACAO": "REALIZAR_PRIMEIRA_VISITA", "RAZAO_SOCIAL": "BARONESA_REVESTIMENTOS_COMERCIAL_LTDA", "ENDERECO": "RUA_PAULO_NUNES_FELIX_16_PARQUE_SAO_RAFAEL_SAO_PAULO", "CIDADE": "SAO_PAULO", "LATITUDE": -23.622943, "LONGITUDE": -46.4774652 }, "geometry": { "type": "Point", "coordinates": [ -46.4774652, -23.622943 ] } },
{ "type": "Feature", "properties": { "CNPJ": 34975210000117, "AGENTE": "LILIA_VIANNA", "ACAO": "REALIZAR_SEGUNDA_VISITA", "RAZAO_SOCIAL": "DIEGO_ZAVAN_MENDES_-_TINTAS_METALURGICOS", "ENDERECO": "AVENIDA_DOS_METALURGICOS_264_CIDADE_TIRADENTES_SAO_PAULO", "CIDADE": "SAO_PAULO", "LATITUDE": -23.5872071, "LONGITUDE": -46.4092747 }, "geometry": { "type": "Point", "coordinates": [ -46.4092747, -23.5872071 ] } },
{ "type": "Feature", "properties": { "CNPJ": 32608680000117, "AGENTE": "LILIA_VIANNA", "ACAO": "REALIZAR_SEGUNDA_VISITA", "RAZAO_SOCIAL": "ALEX_ROGERIO_CARLETO_CALCADOS_-_BANANA_SHOCK", "ENDERECO": "AVENIDA_MARECHAL_TITO_1069_SAO_MIGUEL_PAULISTA_SAO_PAULO", "CIDADE": "SAO_PAULO", "LATITUDE": -23.4950291, "LONGITUDE": -46.435421 }, "geometry": { "type": "Point", "coordinates": [ -46.435421, -23.4950291 ] } },
{ "type": "Feature", "properties": { "CNPJ": 38046549000190, "AGENTE": "LILIA_VIANNA", "ACAO": "REALIZAR_SEGUNDA_VISITA", "RAZAO_SOCIAL": "KOMFORTHOUSE_SOFAS_LTDA_-_CONFORT_HOUSE", "ENDERECO": "AVENIDA_MARECHAL_TITO_1401_SAO_MIGUEL_PAULISTA_SAO_PAULO", "CIDADE": "SAO_PAULO", "LATITUDE": -23.4952634, "LONGITUDE": -46.4321923 }, "geometry": { "type": "Point", "coordinates": [ -46.4321923, -23.4952634 ] } },
{ "type": "Feature", "properties": { "CNPJ": 1355008000133, "AGENTE": "LILIA_VIANNA", "ACAO": "REALIZAR_SEGUNDA_VISITA", "RAZAO_SOCIAL": "LANCHONETE_G.M.D._LTDA_-_LANCHONETE_GMD", "ENDERECO": "AVENIDA_MARECHAL_TITO_2615_SAO_MIGUEL_PAULISTA_SAO_PAULO", "CIDADE": "SAO_PAULO", "LATITUDE": -23.4938766, "LONGITUDE": -46.4204026 }, "geometry": { "type": "Point", "coordinates": [ -46.4204026, -23.4938766 ] } },
{ "type": "Feature", "properties": { "CNPJ": 56069683000198, "AGENTE": "LILIA_VIANNA", "ACAO": "REALIZAR_SEGUNDA_VISITA", "RAZAO_SOCIAL": "LUXO_OUTLET_STORE_LTDA_-_LUXO_STORE", "ENDERECO": "AVENIDA_MARECHAL_TITO_283_SAO_MIGUEL_PAULISTA_SAO_PAULO", "CIDADE": "SAO_PAULO", "LATITUDE": -23.4934017, "LONGITUDE": -46.442834 }, "geometry": { "type": "Point", "coordinates": [ -46.442834, -23.4934017 ] } },
{ "type": "Feature", "properties": { "CNPJ": 21884616000142, "AGENTE": "LILIA_VIANNA", "ACAO": "REALIZAR_SEGUNDA_VISITA", "RAZAO_SOCIAL": "LUCAS_ALVES_SANTOS_40336471807_-_NICK_CELLB_CONSERTO_CELULAR", "ENDERECO": "AVENIDA_MARECHAL_TITO_955_SAO_MIGUEL_PAULISTA_SAO_PAULO", "CIDADE": "SAO_PAULO", "LATITUDE": -23.4948998, "LONGITUDE": -46.4365131 }, "geometry": { "type": "Point", "coordinates": [ -46.4365131, -23.4948998 ] } },
{ "type": "Feature", "properties": { "CNPJ": 50279921000103, "AGENTE": "LILIA_VIANNA", "ACAO": "REALIZAR_SEGUNDA_VISITA", "RAZAO_SOCIAL": "50.279.921_THAIS_FERNANDA_RAFAEL_DOS_SANTOS_-_ATELIE_THAIS_FERNANDA", "ENDERECO": "AVENIDA_MIGUEL_ACHIOLE_DA_FONSECA_1331_JARDIM_SAO_PAULO_SAO_PAULO", "CIDADE": "SAO_PAULO", "LATITUDE": -23.5591555, "LONGITUDE": -46.4021938 }, "geometry": { "type": "Point", "coordinates": [ -46.4021938, -23.5591555 ] } },
{ "type": "Feature", "properties": { "CNPJ": 50849747000197, "AGENTE": "LILIA_VIANNA", "ACAO": "REALIZAR_SEGUNDA_VISITA", "RAZAO_SOCIAL": "ACADEMIA_CAIMAN_MONSTER_FIT_LTDA_-_ACADEMIA_CAIMAM_MONSTER_FIT", "ENDERECO": "AVENIDA_MIGUEL_DA_FONSECA_1502_JARDIM_SAO_PAULO_SAO_PAULO", "CIDADE": "SAO_PAULO", "LATITUDE": -23.5590508, "LONGITUDE": -46.4037286 }, "geometry": { "type": "Point", "coordinates": [ -46.4037286, -23.5590508 ] } },
{ "type": "Feature", "properties": { "CNPJ": 55063896000140, "AGENTE": "LILIA_VIANNA", "ACAO": "REALIZAR_SEGUNDA_VISITA", "RAZAO_SOCIAL": "XUE_CEL_COMERCIO_E_ACESSORIOS_LTDA_-_XUE_CELL", "ENDERECO": "AVENIDA_RODOLFO_PIRANI_223_JARDIM_RODOLFO_PIRANI_SAO_PAULO", "CIDADE": "SAO_PAULO", "LATITUDE": -23.6276276, "LONGITUDE": -46.4621097 }, "geometry": { "type": "Point", "coordinates": [ -46.4621097, -23.6276276 ] } },
{ "type": "Feature", "properties": { "CNPJ": 56000416000164, "AGENTE": "LILIA_VIANNA", "ACAO": "REALIZAR_SEGUNDA_VISITA", "RAZAO_SOCIAL": "J_M_L_FERRARI_RESTAURANTE_LTDA_-_BOM_PALAR", "ENDERECO": "AVENIDA_SAPOPEMBA_14658_JARDIM_VERA_CRUZ_SAO_PAULO", "CIDADE": "SAO_PAULO", "LATITUDE": -23.6173382, "LONGITUDE": -46.4689437 }, "geometry": { "type": "Point", "coordinates": [ -46.4689437, -23.6173382 ] } },
{ "type": "Feature", "properties": { "CNPJ": 2184210000102, "AGENTE": "LILIA_VIANNA", "ACAO": "REALIZAR_SEGUNDA_VISITA", "RAZAO_SOCIAL": "MARCEVAN_FREIOS_LTDA_-_MARCEVAN_FREIOS", "ENDERECO": "AVENIDA_SAPOPEMBA_15574_JARDIM_VERA_CRUZ_SAO_PAULO", "CIDADE": "SAO_PAULO", "LATITUDE": -23.6243565, "LONGITUDE": -46.4645162 }, "geometry": { "type": "Point", "coordinates": [ -46.4645162, -23.6243565 ] } },
{ "type": "Feature", "properties": { "CNPJ": 49218038000124, "AGENTE": "LILIA_VIANNA", "ACAO": "REALIZAR_SEGUNDA_VISITA", "RAZAO_SOCIAL": "49.218.038_MARCELO_GOMES_MARQUES_-_TERRA_RESTAURANTE", "ENDERECO": "AVENIDA_SAPOPEMBA_16158_JARDIM_RODOLFO_PIRANI_SAO_PAULO", "CIDADE": "SAO_PAULO", "LATITUDE": -23.6227034, "LONGITUDE": -46.4619399 }, "geometry": { "type": "Point", "coordinates": [ -46.4619399, -23.6227034 ] } },
{ "type": "Feature", "properties": { "CNPJ": 55813914000163, "AGENTE": "LILIA_VIANNA", "ACAO": "REALIZAR_SEGUNDA_VISITA", "RAZAO_SOCIAL": "DR_PASTEL_LTDA_-_DR_PASTEL", "ENDERECO": "AVENIDA_SATELITE_442_CIDADE_SATELITE_SANTA_BARBARA_SAO_PAULO", "CIDADE": "SAO_PAULO", "LATITUDE": -23.6125023, "LONGITUDE": -46.4671348 }, "geometry": { "type": "Point", "coordinates": [ -46.4671348, -23.6125023 ] } },
{ "type": "Feature", "properties": { "CNPJ": 42962870000191, "AGENTE": "LILIA_VIANNA", "ACAO": "REALIZAR_SEGUNDA_VISITA", "RAZAO_SOCIAL": "42.962.870_MIRELLA_DEUSA_PINHEIRO_PINTO_-_TANIA_KIDS", "ENDERECO": "AVENIDA_SOUZA_RAMOS_478_GUAIANASES_SAO_PAULO", "CIDADE": "SAO_PAULO", "LATITUDE": -23.5824977, "LONGITUDE": -46.4094648 }, "geometry": { "type": "Point", "coordinates": [ -46.4094648, -23.5824977 ] } },
{ "type": "Feature", "properties": { "CNPJ": 41388245000115, "AGENTE": "LILIA_VIANNA", "ACAO": "REALIZAR_SEGUNDA_VISITA", "RAZAO_SOCIAL": "FELLYPE_EDGARD_ARAUJO_DA_SILVA_13569926761_-_DM_MODAS", "ENDERECO": "AVENIDA_SOUZA_RAMOS_813_GUAIANASES_SAO_PAULO", "CIDADE": "SAO_PAULO", "LATITUDE": -23.581043, "LONGITUDE": -46.4110293 }, "geometry": { "type": "Point", "coordinates": [ -46.4110293, -23.581043 ] } },
{ "type": "Feature", "properties": { "CNPJ": 22283845000174, "AGENTE": "LILIA_VIANNA", "ACAO": "REALIZAR_SEGUNDA_VISITA", "RAZAO_SOCIAL": "JOSE_CARLOS_BRANDAO_GOMES_35904947860_-_JOSE_CARLOS_BRANDAO", "ENDERECO": "ESTRADA_NOSSA_SENHORA_DA_FONTE_20_JARDIM_MARPU_SAO_PAULO", "CIDADE": "SAO_PAULO", "LATITUDE": -23.5443824, "LONGITUDE": -46.411999 }, "geometry": { "type": "Point", "coordinates": [ -46.411999, -23.5443824 ] } },
{ "type": "Feature", "properties": { "CNPJ": 60343696000180, "AGENTE": "LILIA_VIANNA", "ACAO": "REALIZAR_SEGUNDA_VISITA", "RAZAO_SOCIAL": "FEST_CAR_COMERCIO_DE_AUTO_PECAS_LTDA_-_FAST_CAR", "ENDERECO": "RUA_ARNALDO_BONAVENTURA_15_CIDADE_TIRADENTES_SAO_PAULO", "CIDADE": "SAO_PAULO", "LATITUDE": -23.5847577, "LONGITUDE": -46.4087888 }, "geometry": { "type": "Point", "coordinates": [ -46.4087888, -23.5847577 ] } },
{ "type": "Feature", "properties": { "CNPJ": 54299587000100, "AGENTE": "LILIA_VIANNA", "ACAO": "REALIZAR_SEGUNDA_VISITA", "RAZAO_SOCIAL": "54.299.587_FERNANDO_LIMA_DA_SILVA_-_SMART_NERD", "ENDERECO": "RUA_ARNALDO_BONAVENTURA_227_CIDADE_TIRADENTES_SAO_PAULO", "CIDADE": "SAO_PAULO", "LATITUDE": -23.5866689, "LONGITUDE": -46.409025 }, "geometry": { "type": "Point", "coordinates": [ -46.409025, -23.5866689 ] } },
{ "type": "Feature", "properties": { "CNPJ": 12358197000114, "AGENTE": "LILIA_VIANNA", "ACAO": "REALIZAR_SEGUNDA_VISITA", "RAZAO_SOCIAL": "ADILSON_TEDESCO_BIJUTERIAS_-_BONITA", "ENDERECO": "RUA_ARNALDO_BONAVENTURA_245_CIDADE_TIRADENTES_SAO_PAULO", "CIDADE": "SAO_PAULO", "LATITUDE": -23.5868216, "LONGITUDE": -46.4090652 }, "geometry": { "type": "Point", "coordinates": [ -46.4090652, -23.5868216 ] } },
{ "type": "Feature", "properties": { "CNPJ": 8150263000199, "AGENTE": "LILIA_VIANNA", "ACAO": "REALIZAR_SEGUNDA_VISITA", "RAZAO_SOCIAL": "NEUZA_DE_JESUS_SANTOS_-_NATHALIA__MODAS", "ENDERECO": "RUA_ARNALDO_BONAVENTURA_273_CIDADE_TIRADENTES_SAO_PAULO", "CIDADE": "SAO_PAULO", "LATITUDE": -23.5870477, "LONGITUDE": -46.4090041 }, "geometry": { "type": "Point", "coordinates": [ -46.4090041, -23.5870477 ] } },
{ "type": "Feature", "properties": { "CNPJ": 21066313000112, "AGENTE": "LILIA_VIANNA", "ACAO": "REALIZAR_SEGUNDA_VISITA", "RAZAO_SOCIAL": "MATUSALEM_ABREU_DOS_SANTOS_66240646334_-_ASSISTEC_INFORMATICA", "ENDERECO": "RUA_ARNALDO_BONAVENTURA_303_CIDADE_TIRADENTES_SAO_PAULO", "CIDADE": "SAO_PAULO", "LATITUDE": -23.5873203, "LONGITUDE": -46.4090046 }, "geometry": { "type": "Point", "coordinates": [ -46.4090046, -23.5873203 ] } },
{ "type": "Feature", "properties": { "CNPJ": 59061898000150, "AGENTE": "LILIA_VIANNA", "ACAO": "REALIZAR_SEGUNDA_VISITA", "RAZAO_SOCIAL": "59.061.898_FABIANE_DOS_SANTOS_SILVA_-_CAFETEIRA_YELLON_COFFEE", "ENDERECO": "RUA_ARNALDO_BONAVENTURA_37_CIDADE_TIRADENTES_SAO_PAULO", "CIDADE": "SAO_PAULO", "LATITUDE": -23.5850238, "LONGITUDE": -46.4088244 }, "geometry": { "type": "Point", "coordinates": [ -46.4088244, -23.5850238 ] } },
{ "type": "Feature", "properties": { "CNPJ": 67748335000163, "AGENTE": "LILIA_VIANNA", "ACAO": "REALIZAR_SEGUNDA_VISITA", "RAZAO_SOCIAL": "LEILA_FELIX_DA_SILVA_PIMENTA_-_LILI_MODAS", "ENDERECO": "RUA_ARNALDO_BONAVENTURA_475_CIDADE_TIRADENTES_SAO_PAULO", "CIDADE": "SAO_PAULO", "LATITUDE": -23.5888259, "LONGITUDE": -46.4085421 }, "geometry": { "type": "Point", "coordinates": [ -46.4085421, -23.5888259 ] } },
{ "type": "Feature", "properties": { "CNPJ": 14210360000122, "AGENTE": "LILIA_VIANNA", "ACAO": "REALIZAR_SEGUNDA_VISITA", "RAZAO_SOCIAL": "NELSON_NUNES_DE_SOUSA_FILHO_-_GAMES_-_GAMES_TR_NEL", "ENDERECO": "RUA_ARNALDO_BONAVENTURA_481_CIDADE_TIRADENTES_SAO_PAULO", "CIDADE": "SAO_PAULO", "LATITUDE": -23.5888767, "LONGITUDE": -46.4084981 }, "geometry": { "type": "Point", "coordinates": [ -46.4084981, -23.5888767 ] } },
{ "type": "Feature", "properties": { "CNPJ": 7764591000112, "AGENTE": "LILIA_VIANNA", "ACAO": "REALIZAR_SEGUNDA_VISITA", "RAZAO_SOCIAL": "LEIDIOMAR_DE_ARAUJO_F._NOBREGA_-_LARISSA_FLASHION", "ENDERECO": "RUA_ARNALDO_BONAVENTURA_485_CIDADE_TIRADENTES_SAO_PAULO", "CIDADE": "SAO_PAULO", "LATITUDE": -23.5888898, "LONGITUDE": -46.4084713 }, "geometry": { "type": "Point", "coordinates": [ -46.4084713, -23.5888898 ] } },
{ "type": "Feature", "properties": { "CNPJ": 44103161000186, "AGENTE": "LILIA_VIANNA", "ACAO": "REALIZAR_SEGUNDA_VISITA", "RAZAO_SOCIAL": "FERNANDA_MARIA_DE_OLIVEIRA_32870055889_-_ESTILO_AFRO", "ENDERECO": "RUA_ARNALDO_BONAVENTURA_505_CIDADE_TIRADENTES_SAO_PAULO", "CIDADE": "SAO_PAULO", "LATITUDE": -23.589063, "LONGITUDE": -46.4081789 }, "geometry": { "type": "Point", "coordinates": [ -46.4081789, -23.589063 ] } },
{ "type": "Feature", "properties": { "CNPJ": 23868606000149, "AGENTE": "LILIA_VIANNA", "ACAO": "REALIZAR_SEGUNDA_VISITA", "RAZAO_SOCIAL": "TIAGO_NUNES_DA_SILVA_NETO_31757750800_-_TATTOO_DOS_REINO", "ENDERECO": "RUA_ARNALDO_BONAVENTURA_525_CIDADE_TIRADENTES_SAO_PAULO", "CIDADE": "SAO_PAULO", "LATITUDE": -23.5891951, "LONGITUDE": -46.4081989 }, "geometry": { "type": "Point", "coordinates": [ -46.4081989, -23.5891951 ] } },
{ "type": "Feature", "properties": { "CNPJ": 44775456000107, "AGENTE": "LILIA_VIANNA", "ACAO": "REALIZAR_SEGUNDA_VISITA", "RAZAO_SOCIAL": "44.775.456_ALYSSON_MESSIAS_SILVA_ALVES_-_SALGATERIANK", "ENDERECO": "RUA_BARAO_ANTONIO_LUIS_DE_TEFE_3_GUAIANASES_SAO_PAULO", "CIDADE": "SAO_PAULO", "LATITUDE": -23.5662381, "LONGITUDE": -46.4097988 }, "geometry": { "type": "Point", "coordinates": [ -46.4097988, -23.5662381 ] } },
{ "type": "Feature", "properties": { "CNPJ": 23614154000179, "AGENTE": "LILIA_VIANNA", "ACAO": "REALIZAR_SEGUNDA_VISITA", "RAZAO_SOCIAL": "ESTELITA_ROSA_DE_JESUS_FERREIRA_02952455813_-_SPACO_ESTER_FERREIRA", "ENDERECO": "RUA_CABOCLA_DA_LUA_NOVA_57_CONJUNTO_HABITACIONAL_CASTRO_ALVES_SAO_PAULO", "CIDADE": "SAO_PAULO", "LATITUDE": -23.5810372, "LONGITUDE": -46.404085 }, "geometry": { "type": "Point", "coordinates": [ -46.404085, -23.5810372 ] } },
{ "type": "Feature", "properties": { "CNPJ": 58385433000192, "AGENTE": "LILIA_VIANNA", "ACAO": "REALIZAR_SEGUNDA_VISITA", "RAZAO_SOCIAL": "58.385.433_EDNILSON_OLIVEIRA_SANTOS_-_EDINILSON_OLIVEIRA_SANTOS", "ENDERECO": "RUA_CACHOEIRA_CAMALEAO_46_CONJUNTO_HABITACIONAL_INACIO_MONTEIRO_SAO_PAULO", "CIDADE": "SAO_PAULO", "LATITUDE": -23.5693353, "LONGITUDE": -46.4011898 }, "geometry": { "type": "Point", "coordinates": [ -46.4011898, -23.5693353 ] } },
{ "type": "Feature", "properties": { "CNPJ": 8795034000121, "AGENTE": "LILIA_VIANNA", "ACAO": "REALIZAR_SEGUNDA_VISITA", "RAZAO_SOCIAL": "JOSE_EVILEUDO_FERNANDES_DE_SOUSA_-_LEO_VARIEDADES", "ENDERECO": "RUA_CACHOEIRA_MACARANDUBA_100_CONJUNTO_HABITACIONAL_INACIO_MONTEIRO_SAO_PAULO", "CIDADE": "SAO_PAULO", "LATITUDE": -23.5726473, "LONGITUDE": -46.3994785 }, "geometry": { "type": "Point", "coordinates": [ -46.3994785, -23.5726473 ] } },
{ "type": "Feature", "properties": { "CNPJ": 20247900000145, "AGENTE": "LILIA_VIANNA", "ACAO": "REALIZAR_SEGUNDA_VISITA", "RAZAO_SOCIAL": "OPTICAS_ADONAI_LTDA_-_OPTICAS_ADONAI_LTDA", "ENDERECO": "RUA_CAXIU_3_CIDADE_ANTONIO_ESTEVAO_DE_CARVALHO_SAO_PAULO", "CIDADE": "SAO_PAULO", "LATITUDE": -23.5354132, "LONGITUDE": -46.467997 }, "geometry": { "type": "Point", "coordinates": [ -46.467997, -23.5354132 ] } },
{ "type": "Feature", "properties": { "CNPJ": 25292329000102, "AGENTE": "LILIA_VIANNA", "ACAO": "REALIZAR_SEGUNDA_VISITA", "RAZAO_SOCIAL": "MARIA_CHRISTINA_DE_AMORIM_DISTRIBUIDORA_DE_PECAS_-_RADIADORES_CURUCA", "ENDERECO": "RUA_CEMBIRA_1420_VILA_CURUCA_SAO_PAULO", "CIDADE": "SAO_PAULO", "LATITUDE": -23.5090098, "LONGITUDE": -46.429445 }, "geometry": { "type": "Point", "coordinates": [ -46.429445, -23.5090098 ] } },
{ "type": "Feature", "properties": { "CNPJ": 37970525000160, "AGENTE": "LILIA_VIANNA", "ACAO": "REALIZAR_SEGUNDA_VISITA", "RAZAO_SOCIAL": "37.970.525_GRAZIELE_VICENTE_FERREIRA_-_COMIDA_CASEIRA_DA_VILA", "ENDERECO": "RUA_COUTINHO_E_MELO_7084_CONJUNTO_HABITACIONAL_SITIO_CO_SAO_PAULO", "CIDADE": "SAO_PAULO", "LATITUDE": -23.5803599, "LONGITUDE": -46.3874201 }, "geometry": { "type": "Point", "coordinates": [ -46.3874201, -23.5803599 ] } },
{ "type": "Feature", "properties": { "CNPJ": 27949511000100, "AGENTE": "LILIA_VIANNA", "ACAO": "REALIZAR_SEGUNDA_VISITA", "RAZAO_SOCIAL": "SUSANA_PEREIRA_MACEDO_DOS_SANTOS_38490851808_-_CANTINHO_DA_SUZAN", "ENDERECO": "RUA_CRISTIANO_LOBE_188_CIDADE_TIRADENTES_SAO_PAULO", "CIDADE": "SAO_PAULO", "LATITUDE": -23.5919475, "LONGITUDE": -46.3997088 }, "geometry": { "type": "Point", "coordinates": [ -46.3997088, -23.5919475 ] } },
{ "type": "Feature", "properties": { "CNPJ": 53928703000140, "AGENTE": "LILIA_VIANNA", "ACAO": "REALIZAR_SEGUNDA_VISITA", "RAZAO_SOCIAL": "53.928.703_ANDREIA_CRISTINA_MOLINA_SILVA_-_DM_MARMITARIA", "ENDERECO": "RUA_DONA_ELOA_DO_VALLE_QUADROS_5_CIDADE_TIRADENTES_SAO_PAULO", "CIDADE": "SAO_PAULO", "LATITUDE": -23.5873751, "LONGITUDE": -46.4094072 }, "geometry": { "type": "Point", "coordinates": [ -46.4094072, -23.5873751 ] } },
{ "type": "Feature", "properties": { "CNPJ": 25345243000192, "AGENTE": "LILIA_VIANNA", "ACAO": "REALIZAR_SEGUNDA_VISITA", "RAZAO_SOCIAL": "MARCOS_MATEUS_SANTOS_LOPES_02887433504_-_MV_CAR", "ENDERECO": "RUA_DONA_ELOA_DO_VALLE_QUADROS_9_CIDADE_TIRADENTES_SAO_PAULO", "CIDADE": "SAO_PAULO", "LATITUDE": -23.5874426, "LONGITUDE": -46.4095431 }, "geometry": { "type": "Point", "coordinates": [ -46.4095431, -23.5874426 ] } },
{ "type": "Feature", "properties": { "CNPJ": 7279390000120, "AGENTE": "LILIA_VIANNA", "ACAO": "REALIZAR_SEGUNDA_VISITA", "RAZAO_SOCIAL": "CARINA_MOTA_DEZUANI_PECAS_-_AUTO_PECAS_1000_RAO", "ENDERECO": "RUA_DONA_ELOA_DO_VALLE_QUADROS_9_CIDADE_TIRADENTES_SAO_PAULO", "CIDADE": "SAO_PAULO", "LATITUDE": -23.5875314, "LONGITUDE": -46.4095061 }, "geometry": { "type": "Point", "coordinates": [ -46.4095061, -23.5875314 ] } },
{ "type": "Feature", "properties": { "CNPJ": 1077308000106, "AGENTE": "LILIA_VIANNA", "ACAO": "REALIZAR_SEGUNDA_VISITA", "RAZAO_SOCIAL": "JOSE_MARIA_ALVES_PEREIRA_BAR_E_LANCHONETE_-_AMICOS_BAR", "ENDERECO": "RUA_DOS_MARCENEIROS_81_CIDADE_TIRADENTES_SAO_PAULO", "CIDADE": "SAO_PAULO", "LATITUDE": -23.5994194, "LONGITUDE": -46.3991355 }, "geometry": { "type": "Point", "coordinates": [ -46.3991355, -23.5994194 ] } },
{ "type": "Feature", "properties": { "CNPJ": 45904650000108, "AGENTE": "LILIA_VIANNA", "ACAO": "REALIZAR_SEGUNDA_VISITA", "RAZAO_SOCIAL": "45.904.650_ANDRE_MENEZES_DOS_SANTOS_-_ANDRE_MENEZES", "ENDERECO": "RUA_IGARAPE_DA_BELA_AURORA_11_CONJUNTO_HABITACIONAL_INACIO_MONTEIRO_SAO_PAULO", "CIDADE": "SAO_PAULO", "LATITUDE": -23.5729839, "LONGITUDE": -46.3995748 }, "geometry": { "type": "Point", "coordinates": [ -46.3995748, -23.5729839 ] } },
{ "type": "Feature", "properties": { "CNPJ": 23500530000102, "AGENTE": "LILIA_VIANNA", "ACAO": "REALIZAR_SEGUNDA_VISITA", "RAZAO_SOCIAL": "MARINHO_BAZAR_&_PAPELARIA_LTDA_-_BAZAR_MARINHO_E_BAZAR_PAPELARIA", "ENDERECO": "RUA_IGARAPE_DA_BELA_AURORA_11_CONJUNTO_HABITACIONAL_INACIO_MONTEIRO_SAO_PAULO", "CIDADE": "SAO_PAULO", "LATITUDE": -23.5729921, "LONGITUDE": -46.3996127 }, "geometry": { "type": "Point", "coordinates": [ -46.3996127, -23.5729921 ] } },
{ "type": "Feature", "properties": { "CNPJ": 58132547000120, "AGENTE": "LILIA_VIANNA", "ACAO": "REALIZAR_SEGUNDA_VISITA", "RAZAO_SOCIAL": "58.132.547_PAULO_ALMIR_DE_LIMA_-_COLMEIA_RESTAURANTE", "ENDERECO": "RUA_IGARAPE_DA_DIANA_103_CONJUNTO_HABITACIONAL_INACIO_MONTEIRO_SAO_PAULO", "CIDADE": "SAO_PAULO", "LATITUDE": -23.5718301, "LONGITUDE": -46.4036095 }, "geometry": { "type": "Point", "coordinates": [ -46.4036095, -23.5718301 ] } },
{ "type": "Feature", "properties": { "CNPJ": 30997179000164, "AGENTE": "LILIA_VIANNA", "ACAO": "REALIZAR_SEGUNDA_VISITA", "RAZAO_SOCIAL": "FABIO_DA_COSTA_17417525822_-_SOUD_GARAGEM", "ENDERECO": "RUA_IGARAPE_SANTA_CRUZ_291_CONJUNTO_HABITACIONAL_INACIO_MONTEIRO_SAO_PAULO", "CIDADE": "SAO_PAULO", "LATITUDE": -23.5703574, "LONGITUDE": -46.4040288 }, "geometry": { "type": "Point", "coordinates": [ -46.4040288, -23.5703574 ] } },
{ "type": "Feature", "properties": { "CNPJ": 33183478000153, "AGENTE": "LILIA_VIANNA", "ACAO": "REALIZAR_SEGUNDA_VISITA", "RAZAO_SOCIAL": "33.183.478_DUANE_ANGELICA_DA_CUNHA_-_CESTAS_MELL", "ENDERECO": "RUA_ITAGIMIRIM_26_JARDIM_CLEIDE_SAO_PAULO", "CIDADE": "SAO_PAULO", "LATITUDE": -23.5375025, "LONGITUDE": -46.4567978 }, "geometry": { "type": "Point", "coordinates": [ -46.4567978, -23.5375025 ] } },
{ "type": "Feature", "properties": { "CNPJ": 18973928000118, "AGENTE": "LILIA_VIANNA", "ACAO": "REALIZAR_SEGUNDA_VISITA", "RAZAO_SOCIAL": "JULIANA_LILIA_DOS_SANTOS_OLIMPIO_32933321882_-_JULIANA_LILIA", "ENDERECO": "RUA_JOAO_DA_COSTA_PIMENTA_17_CIDADE_TIRADENTES_SAO_PAULO", "CIDADE": "SAO_PAULO", "LATITUDE": -23.5993739, "LONGITUDE": -46.3993688 }, "geometry": { "type": "Point", "coordinates": [ -46.3993688, -23.5993739 ] } },
{ "type": "Feature", "properties": { "CNPJ": 33698730000167, "AGENTE": "LILIA_VIANNA", "ACAO": "REALIZAR_SEGUNDA_VISITA", "RAZAO_SOCIAL": "JONATAS_NOGUEIRA_DE_SOUZA_45622451825_-_MJ_ACESSORIOS", "ENDERECO": "RUA_JOAO_DA_COSTA_PIMENTA_4_CIDADE_TIRADENTES_SAO_PAULO", "CIDADE": "SAO_PAULO", "LATITUDE": -23.5993191, "LONGITUDE": -46.3991295 }, "geometry": { "type": "Point", "coordinates": [ -46.3991295, -23.5993191 ] } },
{ "type": "Feature", "properties": { "CNPJ": 61351184000129, "AGENTE": "LILIA_VIANNA", "ACAO": "REALIZAR_SEGUNDA_VISITA", "RAZAO_SOCIAL": "SLYFLEX_MANGUEIRAS_E_CONEXOES_LTDA_-_SLYFKEX_MANGUEIRAS", "ENDERECO": "RUA_JOHN_SPEERS_1001_JARDIM_HELIAN_SAO_PAULO", "CIDADE": "SAO_PAULO", "LATITUDE": -23.5688817, "LONGITUDE": -46.4588003 }, "geometry": { "type": "Point", "coordinates": [ -46.4588003, -23.5688817 ] } },
{ "type": "Feature", "properties": { "CNPJ": 26670313000140, "AGENTE": "LILIA_VIANNA", "ACAO": "REALIZAR_SEGUNDA_VISITA", "RAZAO_SOCIAL": "MARIA_ALCIONE_DA_COSTA_FIGUEIREDO_SANTOS_26160600869_-_MF_CENTRO_AUTOMOTIVO", "ENDERECO": "RUA_JOHN_SPEERS_2007_JARDIM_NOSSA_SENHORA_DO_CARMO_SAO_PAULO", "CIDADE": "SAO_PAULO", "LATITUDE": -23.5663089, "LONGITUDE": -46.4573324 }, "geometry": { "type": "Point", "coordinates": [ -46.4573324, -23.5663089 ] } },
{ "type": "Feature", "properties": { "CNPJ": 53544782000196, "AGENTE": "LILIA_VIANNA", "ACAO": "REALIZAR_SEGUNDA_VISITA", "RAZAO_SOCIAL": "53.544.782_TELMA_DE_OLIVEIRA_MIRANDA_-_TELMA_DE_OLIVEIRA_MIRANDA", "ENDERECO": "RUA_JOSE_ARIGO_109_JARDIM_NOSSA_SENHORA_DO_CARMO_SAO_PAULO", "CIDADE": "SAO_PAULO", "LATITUDE": -23.5658965, "LONGITUDE": -46.4575449 }, "geometry": { "type": "Point", "coordinates": [ -46.4575449, -23.5658965 ] } },
{ "type": "Feature", "properties": { "CNPJ": 22629270000107, "AGENTE": "LILIA_VIANNA", "ACAO": "REALIZAR_SEGUNDA_VISITA", "RAZAO_SOCIAL": "LANCHONETE_TOP_BURGUER_LTDA_-_CHAPARRAL", "ENDERECO": "RUA_JOSE_OTONI_31_SAO_MIGUEL_PAULISTA_SAO_PAULO", "CIDADE": "SAO_PAULO", "LATITUDE": -23.4933585, "LONGITUDE": -46.440339 }, "geometry": { "type": "Point", "coordinates": [ -46.440339, -23.4933585 ] } },
{ "type": "Feature", "properties": { "CNPJ": 59890461000120, "AGENTE": "LILIA_VIANNA", "ACAO": "REALIZAR_SEGUNDA_VISITA", "RAZAO_SOCIAL": "59.890.461_RENATA_SALIMENI_PEDROZO_-_HOME_BELEZA", "ENDERECO": "RUA_JOSE_OTONI_80_SAO_MIGUEL_PAULISTA_SAO_PAULO", "CIDADE": "SAO_PAULO", "LATITUDE": -23.4932024, "LONGITUDE": -46.4399996 }, "geometry": { "type": "Point", "coordinates": [ -46.4399996, -23.4932024 ] } },
{ "type": "Feature", "properties": { "CNPJ": 32463063000170, "AGENTE": "LILIA_VIANNA", "ACAO": "REALIZAR_SEGUNDA_VISITA", "RAZAO_SOCIAL": "SIMONE_DOS_SANTOS_SILVA_28469885871_-_STUDIO_TELLES", "ENDERECO": "RUA_LUIZ_AMORIM_COSTA_23_VILA_CAROLINA_SAO_PAULO", "CIDADE": "SAO_PAULO", "LATITUDE": -23.5058291, "LONGITUDE": -46.4430802 }, "geometry": { "type": "Point", "coordinates": [ -46.4430802, -23.5058291 ] } },
{ "type": "Feature", "properties": { "CNPJ": 1050792000171, "AGENTE": "LILIA_VIANNA", "ACAO": "REALIZAR_SEGUNDA_VISITA", "RAZAO_SOCIAL": "RESTAURANTE_E_LANCHONETE_IRMAOS_MOITINHO_LTDA_-_OS_MANOS", "ENDERECO": "RUA_MIGUEL_ANGELO_LAPENA_179_SAO_MIGUEL_PAULISTA_SAO_PAULO", "CIDADE": "SAO_PAULO", "LATITUDE": -23.4919558, "LONGITUDE": -46.4419436 }, "geometry": { "type": "Point", "coordinates": [ -46.4419436, -23.4919558 ] } },
{ "type": "Feature", "properties": { "CNPJ": 27232717000115, "AGENTE": "LILIA_VIANNA", "ACAO": "REALIZAR_SEGUNDA_VISITA", "RAZAO_SOCIAL": "LARISSA_COSTA_FAZOLLO_46122641855_-_LARY_LINGERIE", "ENDERECO": "RUA_OTELO_AUGUSTO_RIBEIRO_318_GUAIANASES_SAO_PAULO", "CIDADE": "SAO_PAULO", "LATITUDE": -23.5465923, "LONGITUDE": -46.4091786 }, "geometry": { "type": "Point", "coordinates": [ -46.4091786, -23.5465923 ] } },
{ "type": "Feature", "properties": { "CNPJ": 47751157000112, "AGENTE": "LILIA_VIANNA", "ACAO": "REALIZAR_SEGUNDA_VISITA", "RAZAO_SOCIAL": "DEK_FIT_ACADEMIA_LTDA_-_DEK_FIT_ACADEMIA", "ENDERECO": "RUA_OTELO_AUGUSTO_RIBEIRO_591_GUAIANASES_SAO_PAULO", "CIDADE": "SAO_PAULO", "LATITUDE": -23.5488886, "LONGITUDE": -46.407779 }, "geometry": { "type": "Point", "coordinates": [ -46.407779, -23.5488886 ] } },
{ "type": "Feature", "properties": { "CNPJ": 45307927000107, "AGENTE": "LILIA_VIANNA", "ACAO": "REALIZAR_SEGUNDA_VISITA", "RAZAO_SOCIAL": "45.307.927_PAULA_DE_JESUS_LIMA_NOGUEIRA_-_PAULINHA_EMBALAGENS_E_FESTAS", "ENDERECO": "RUA_OTELO_AUGUSTO_RIBEIRO_657_GUAIANASES_SAO_PAULO", "CIDADE": "SAO_PAULO", "LATITUDE": -23.5491177, "LONGITUDE": -46.4076924 }, "geometry": { "type": "Point", "coordinates": [ -46.4076924, -23.5491177 ] } },
{ "type": "Feature", "properties": { "CNPJ": 32010953000127, "AGENTE": "LILIA_VIANNA", "ACAO": "REALIZAR_SEGUNDA_VISITA", "RAZAO_SOCIAL": "DOUGLAS_GOMES_BARCELOS_22964107823_-_OTICA_JUDA", "ENDERECO": "RUA_OTELO_AUGUSTO_RIBEIRO_760_GUAIANASES_SAO_PAULO", "CIDADE": "SAO_PAULO", "LATITUDE": -23.5499189, "LONGITUDE": -46.4073598 }, "geometry": { "type": "Point", "coordinates": [ -46.4073598, -23.5499189 ] } },
{ "type": "Feature", "properties": { "CNPJ": 60044997000103, "AGENTE": "LILIA_VIANNA", "ACAO": "REALIZAR_SEGUNDA_VISITA", "RAZAO_SOCIAL": "CASA_DE_AVES_PICHARRO_LTDA_-_CASA_DE_AVES_PIXARO", "ENDERECO": "RUA_PADRE_ALDEMAR_MOREIRA_107_CIDADE_TIRADENTES_SAO_PAULO", "CIDADE": "SAO_PAULO", "LATITUDE": -23.5995749, "LONGITUDE": -46.3993723 }, "geometry": { "type": "Point", "coordinates": [ -46.3993723, -23.5995749 ] } },
{ "type": "Feature", "properties": { "CNPJ": 58906613000172, "AGENTE": "LILIA_VIANNA", "ACAO": "REALIZAR_SEGUNDA_VISITA", "RAZAO_SOCIAL": "58.906.613_INGRID_FERREIRA_RODRIGUES_-_DRA_INGRID_RODRIGUES_ESTETICA_AVANCADA_E_SAUDE", "ENDERECO": "RUA_PROFESSOR_MELO_PAIVA_43_VILA_LOURDES_SAO_PAULO", "CIDADE": "SAO_PAULO", "LATITUDE": -23.5444454, "LONGITUDE": -46.4167844 }, "geometry": { "type": "Point", "coordinates": [ -46.4167844, -23.5444454 ] } },
{ "type": "Feature", "properties": { "CNPJ": 36403866000190, "AGENTE": "LILIA_VIANNA", "ACAO": "REALIZAR_SEGUNDA_VISITA", "RAZAO_SOCIAL": "36.403.866_LUCIANO_MOISES_BATISTA_SOARES_-_PAI_E_FILHO", "ENDERECO": "RUA_REGRESSO_FELIZ_661_CONJUNTO_HABITACIONAL_INACIO_MONTEIRO_SAO_PAULO", "CIDADE": "SAO_PAULO", "LATITUDE": -23.5701415, "LONGITUDE": -46.4011069 }, "geometry": { "type": "Point", "coordinates": [ -46.4011069, -23.5701415 ] } },
{ "type": "Feature", "properties": { "CNPJ": 27937221000147, "AGENTE": "LILIA_VIANNA", "ACAO": "REALIZAR_SEGUNDA_VISITA", "RAZAO_SOCIAL": "NICK_KIDS_MODA_INFANTIL_LTDA_-_NICK_KIDS_MODA_INFANTIL", "ENDERECO": "RUA_SALVADOR_GIANETTI_812_GUAIANASES_SAO_PAULO", "CIDADE": "SAO_PAULO", "LATITUDE": -23.5428881, "LONGITUDE": -46.4145054 }, "geometry": { "type": "Point", "coordinates": [ -46.4145054, -23.5428881 ] } },
{ "type": "Feature", "properties": { "CNPJ": 31527907000137, "AGENTE": "LILIA_VIANNA", "ACAO": "REALIZAR_SEGUNDA_VISITA", "RAZAO_SOCIAL": "RAUL_SCHUMMACHER_DE_SOUSA_-_CASA_DAS_MANTAS", "ENDERECO": "RUA_SAO_JOSE_17_MARANHAO_SAO_PAULO", "CIDADE": "SAO_PAULO", "LATITUDE": -23.5303601, "LONGITUDE": -46.5605013 }, "geometry": { "type": "Point", "coordinates": [ -46.5605013, -23.5303601 ] } },
{ "type": "Feature", "properties": { "CNPJ": 2042757000173, "AGENTE": "LILIA_VIANNA", "ACAO": "REALIZAR_SEGUNDA_VISITA", "RAZAO_SOCIAL": "SILVIA_MARIA_SANTOS_-_PERFUMARIA_-_SATIE", "ENDERECO": "RUA_VICENTE_GUGLIELMI_26_CIDADE_TIRADENTES_SAO_PAULO", "CIDADE": "SAO_PAULO", "LATITUDE": -23.599586, "LONGITUDE": -46.3998302 }, "geometry": { "type": "Point", "coordinates": [ -46.3998302, -23.599586 ] } },
{ "type": "Feature", "properties": { "CNPJ": 43875766000122, "AGENTE": "LILIA_VIANNA", "ACAO": "REALIZAR_PRIMEIRA_VISITA_POTENCIAL", "RAZAO_SOCIAL": "TALITA_V_DE_ALMEIDA_COSMETICOS", "ENDERECO": "RUA_SARA-SARA_25_VILA_HELENA_SAO_PAULO_BRASIL", "CIDADE": "SAO_PAULO", "LATITUDE": -23.4878421, "LONGITUDE": -46.4183491 }, "geometry": { "type": "Point", "coordinates": [ -46.4183491, -23.4878421 ] } },
{ "type": "Feature", "properties": { "CNPJ": 53705959000199, "AGENTE": "LILIA_VIANNA", "ACAO": "REALIZAR_PRIMEIRA_VISITA_POTENCIAL", "RAZAO_SOCIAL": "53.705.959_ALANA_KAWANE_ANDRADE", "ENDERECO": "RUA_MUNIZ_FALCAO_319_PARQUE_PAULISTANO_SAO_PAULO_BRASIL", "CIDADE": "SAO_PAULO", "LATITUDE": -23.488238, "LONGITUDE": -46.431359 }, "geometry": { "type": "Point", "coordinates": [ -46.431359, -23.488238 ] } },
{ "type": "Feature", "properties": { "CNPJ": 3818847600017, "AGENTE": "LILIA_VIANNA", "ACAO": "REALIZAR_PRIMEIRA_VISITA_POTENCIAL", "RAZAO_SOCIAL": "LUCAS_CARDOSO_DOS_SANTOS", "ENDERECO": "RUA_MUNIZ_FALCAO_275_PARQUE_PAULISTANO_SAO_PAULO_BRASIL", "CIDADE": "SAO_PAULO", "LATITUDE": -23.4882977, "LONGITUDE": -46.4319432 }, "geometry": { "type": "Point", "coordinates": [ -46.4319432, -23.4882977 ] } },
{ "type": "Feature", "properties": { "CNPJ": 4350680400017, "AGENTE": "LILIA_VIANNA", "ACAO": "REALIZAR_PRIMEIRA_VISITA_POTENCIAL", "RAZAO_SOCIAL": "43.506.804_JOYCE_BATISTA_SANTOS", "ENDERECO": "RUA_ALVARO_COELHO_158_PARQUE_PAULISTANO_SAO_PAULO_BRASIL", "CIDADE": "SAO_PAULO", "LATITUDE": -23.4885363, "LONGITUDE": -46.4214924 }, "geometry": { "type": "Point", "coordinates": [ -46.4214924, -23.4885363 ] } },
{ "type": "Feature", "properties": { "CNPJ": 47836414000119, "AGENTE": "LILIA_VIANNA", "ACAO": "REALIZAR_PRIMEIRA_VISITA_POTENCIAL", "RAZAO_SOCIAL": "KARINA_SANTOS_ESTEVAO_DA_SILVA", "ENDERECO": "TRAVESSA_ROLAND_BERIGAN_52_VILA_NAIR_SAO_PAULO_BRASIL", "CIDADE": "SAO_PAULO", "LATITUDE": -23.4887982, "LONGITUDE": -46.4456018 }, "geometry": { "type": "Point", "coordinates": [ -46.4456018, -23.4887982 ] } },
{ "type": "Feature", "properties": { "CNPJ": 453179230001, "AGENTE": "LILIA_VIANNA", "ACAO": "REALIZAR_PRIMEIRA_VISITA_POTENCIAL", "RAZAO_SOCIAL": "45.317.923_THAYNA_CEZARIO_DE_QUEIROZ", "ENDERECO": "RUA_UCHOA_5_PARQUE_PAULISTANO_SAO_PAULO_BRASIL", "CIDADE": "SAO_PAULO", "LATITUDE": -23.4888476, "LONGITUDE": -46.4222806 }, "geometry": { "type": "Point", "coordinates": [ -46.4222806, -23.4888476 ] } },
{ "type": "Feature", "properties": { "CNPJ": 58633503000184, "AGENTE": "LILIA_VIANNA", "ACAO": "REALIZAR_PRIMEIRA_VISITA_POTENCIAL", "RAZAO_SOCIAL": "58.633.503_WESLEY_DE_SOUZA_VALENCIO", "ENDERECO": "RUA_CANARANA_DO_AMAZONAS_407_JARDIM_MAIA_SAO_PAULO_BRASIL", "CIDADE": "SAO_PAULO", "LATITUDE": -23.489521, "LONGITUDE": -46.4143146 }, "geometry": { "type": "Point", "coordinates": [ -46.4143146, -23.489521 ] } },
{ "type": "Feature", "properties": { "CNPJ": 19595012000134, "AGENTE": "LILIA_VIANNA", "ACAO": "REALIZAR_PRIMEIRA_VISITA_POTENCIAL", "RAZAO_SOCIAL": "ANA_PAULA_CONCEICAO_DE_OLIVEIRA", "ENDERECO": "AVENIDA_PROFESSOR_ALIPIO_DE_BARROS_374_JARDIM_MAIA_SAO_PAULO_BRASIL", "CIDADE": "SAO_PAULO", "LATITUDE": -23.489604, "LONGITUDE": -46.4151417 }, "geometry": { "type": "Point", "coordinates": [ -46.4151417, -23.489604 ] } },
{ "type": "Feature", "properties": { "CNPJ": 60703967000161, "AGENTE": "LILIA_VIANNA", "ACAO": "REALIZAR_PRIMEIRA_VISITA_POTENCIAL", "RAZAO_SOCIAL": "60.703.967_LIDIA_ERMINIA_DA_SILVA_OLIVEIRA", "ENDERECO": "RUA_JUSTINOPOLIS_54_PARQUE_PAULISTANO_SAO_PAULO_BRASIL", "CIDADE": "SAO_PAULO", "LATITUDE": -23.4897065, "LONGITUDE": -46.4257469 }, "geometry": { "type": "Point", "coordinates": [ -46.4257469, -23.4897065 ] } },
{ "type": "Feature", "properties": { "CNPJ": 51229287000167, "AGENTE": "LILIA_VIANNA", "ACAO": "REALIZAR_PRIMEIRA_VISITA_POTENCIAL", "RAZAO_SOCIAL": "51.229.287_JESSICA_CARVALHO_TEIXEIRA_SANTOS", "ENDERECO": "RUA_DORVAL_JOSE_SVIZZERO_27_JARDIM_LAPENA_SAO_PAULO_BRASIL", "CIDADE": "SAO_PAULO", "LATITUDE": -23.4897958, "LONGITUDE": -46.4456815 }, "geometry": { "type": "Point", "coordinates": [ -46.4456815, -23.4897958 ] } },
{ "type": "Feature", "properties": { "CNPJ": 14766185000154, "AGENTE": "LILIA_VIANNA", "ACAO": "REALIZAR_PRIMEIRA_VISITA_POTENCIAL", "RAZAO_SOCIAL": "CARLOS_VITOR_RIBEIRO_SILVA_FERREIRA_35167554829", "ENDERECO": "RUA_SAO_GONCALO_DO_RIO_DAS_PEDRAS_919_VILA_MARA_SAO_PAULO_BRASIL", "CIDADE": "SAO_PAULO", "LATITUDE": -23.4899575, "LONGITUDE": -46.4206667 }, "geometry": { "type": "Point", "coordinates": [ -46.4206667, -23.4899575 ] } },
{ "type": "Feature", "properties": { "CNPJ": 11501309000181, "AGENTE": "LILIA_VIANNA", "ACAO": "REALIZAR_PRIMEIRA_VISITA_POTENCIAL", "RAZAO_SOCIAL": "PAULETE_&_SILVA_REVESTIMENTOS_LTDA", "ENDERECO": "AVENIDA_PROFESSOR_ALIPIO_DE_BARROS_151_JARDIM_MAIA_SAO_PAULO_BRASIL", "CIDADE": "SAO_PAULO", "LATITUDE": -23.490193, "LONGITUDE": -46.4150829 }, "geometry": { "type": "Point", "coordinates": [ -46.4150829, -23.490193 ] } },
{ "type": "Feature", "properties": { "CNPJ": 432375630001, "AGENTE": "LILIA_VIANNA", "ACAO": "REALIZAR_PRIMEIRA_VISITA_POTENCIAL", "RAZAO_SOCIAL": "NICOLAS_KAIQUE_PIRES_OURIVES_RICARDO", "ENDERECO": "RUA_ARROIO_CHUI_61_PARQUE_PAULISTANO_SAO_PAULO_BRASIL", "CIDADE": "SAO_PAULO", "LATITUDE": -23.4904248, "LONGITUDE": -46.423585 }, "geometry": { "type": "Point", "coordinates": [ -46.423585, -23.4904248 ] } },
{ "type": "Feature", "properties": { "CNPJ": 45399104000159, "AGENTE": "LILIA_VIANNA", "ACAO": "REALIZAR_PRIMEIRA_VISITA_POTENCIAL", "RAZAO_SOCIAL": "CAMILA_CRISTINA_DA_SILVA", "ENDERECO": "RUA_MONSENHOR_LOURENCO_GIORDANO_1357_PARQUE_PAULISTANO_SAO_PAULO_BRASIL", "CIDADE": "SAO_PAULO", "LATITUDE": -23.4904835, "LONGITUDE": -46.4247814 }, "geometry": { "type": "Point", "coordinates": [ -46.4247814, -23.4904835 ] } },
{ "type": "Feature", "properties": { "CNPJ": 36858331000104, "AGENTE": "LILIA_VIANNA", "ACAO": "REALIZAR_PRIMEIRA_VISITA_POTENCIAL", "RAZAO_SOCIAL": "RODRIGO_ALVES", "ENDERECO": "RUA_ARROIO_CHUI_56_PARQUE_PAULISTANO_SAO_PAULO_BRASIL", "CIDADE": "SAO_PAULO", "LATITUDE": -23.4904923, "LONGITUDE": -46.4239002 }, "geometry": { "type": "Point", "coordinates": [ -46.4239002, -23.4904923 ] } },
{ "type": "Feature", "properties": { "CNPJ": 4619078200017, "AGENTE": "LILIA_VIANNA", "ACAO": "REALIZAR_PRIMEIRA_VISITA_POTENCIAL", "RAZAO_SOCIAL": "KATIA_OLINDINA_BEZERRA", "ENDERECO": "RUA_CARLO_BIBIENA_320_PARQUE_PAULISTANO_SAO_PAULO_BRASIL", "CIDADE": "SAO_PAULO", "LATITUDE": -23.4905637, "LONGITUDE": -46.4199536 }, "geometry": { "type": "Point", "coordinates": [ -46.4199536, -23.4905637 ] } },
{ "type": "Feature", "properties": { "CNPJ": 58590889000194, "AGENTE": "LILIA_VIANNA", "ACAO": "REALIZAR_PRIMEIRA_VISITA_POTENCIAL", "RAZAO_SOCIAL": "58.590.889_TALITA_MORAES_CRUZ", "ENDERECO": "RUA_QUIPAPA_91_PARQUE_PAULISTANO_SAO_PAULO_BRASIL", "CIDADE": "SAO_PAULO", "LATITUDE": -23.4907151, "LONGITUDE": -46.4271319 }, "geometry": { "type": "Point", "coordinates": [ -46.4271319, -23.4907151 ] } },
{ "type": "Feature", "properties": { "CNPJ": 2275853000161, "AGENTE": "LILIA_VIANNA", "ACAO": "REALIZAR_PRIMEIRA_VISITA_POTENCIAL", "RAZAO_SOCIAL": "OTONEI_PEREIRA_DE_OLIVEIRA", "ENDERECO": "PRACA_PADRE_ALEIXO_MONTEIRO_MAFRA_54_SAO_MIGUEL_PAULISTA_SAO_PAULO_BRASIL", "CIDADE": "SAO_PAULO", "LATITUDE": -23.4908962, "LONGITUDE": -46.4457733 }, "geometry": { "type": "Point", "coordinates": [ -46.4457733, -23.4908962 ] } },
{ "type": "Feature", "properties": { "CNPJ": 42698997000145, "AGENTE": "LILIA_VIANNA", "ACAO": "REALIZAR_PRIMEIRA_VISITA_POTENCIAL", "RAZAO_SOCIAL": "WANESSA_PATRICIA_MACENA_SILVA_21728472830", "ENDERECO": "RUA_QUIPAPA_67_PARQUE_PAULISTANO_SAO_PAULO_BRASIL", "CIDADE": "SAO_PAULO", "LATITUDE": -23.4908969, "LONGITUDE": -46.427015 }, "geometry": { "type": "Point", "coordinates": [ -46.427015, -23.4908969 ] } },
{ "type": "Feature", "properties": { "CNPJ": 47931083000104, "AGENTE": "LILIA_VIANNA", "ACAO": "REALIZAR_PRIMEIRA_VISITA_POTENCIAL", "RAZAO_SOCIAL": "47.931.083_KAIQUE_ALVES_MAIA", "ENDERECO": "RUA_MONSENHOR_LOURENCO_GIORDANO_1419_PARQUE_PAULISTANO_SAO_PAULO_BRASIL", "CIDADE": "SAO_PAULO", "LATITUDE": -23.491057, "LONGITUDE": -46.424688 }, "geometry": { "type": "Point", "coordinates": [ -46.424688, -23.491057 ] } },
{ "type": "Feature", "properties": { "CNPJ": 38714752000197, "AGENTE": "LILIA_VIANNA", "ACAO": "REALIZAR_PRIMEIRA_VISITA_POTENCIAL", "RAZAO_SOCIAL": "CLR_CONSTRUCAO_E_PAVIMENTACAO_LTDA", "ENDERECO": "RUA_CONCEICAO_DO_ALMEIDA_421_PARQUE_PAULISTANO_SAO_PAULO_BRASIL", "CIDADE": "SAO_PAULO", "LATITUDE": -23.4911415, "LONGITUDE": -46.4189044 }, "geometry": { "type": "Point", "coordinates": [ -46.4189044, -23.4911415 ] } },
{ "type": "Feature", "properties": { "CNPJ": 40696485000114, "AGENTE": "LILIA_VIANNA", "ACAO": "REALIZAR_PRIMEIRA_VISITA_POTENCIAL", "RAZAO_SOCIAL": "KIMBERLY_BARBOSA_RODRIGUES_47514142835", "ENDERECO": "RUA_SALVADOR_DE_MEDEIROS_144_SAO_MIGUEL_PAULISTA_SAO_PAULO_BRASIL", "CIDADE": "SAO_PAULO", "LATITUDE": -23.4913139, "LONGITUDE": -46.4431541 }, "geometry": { "type": "Point", "coordinates": [ -46.4431541, -23.4913139 ] } },
{ "type": "Feature", "properties": { "CNPJ": 4475556200011, "AGENTE": "LILIA_VIANNA", "ACAO": "REALIZAR_PRIMEIRA_VISITA_POTENCIAL", "RAZAO_SOCIAL": "44.755.562_ANDRE_MARINHO_FERREIRA", "ENDERECO": "RUA_SANTA_DAVINA_742_PARQUE_PAULISTANO_SAO_PAULO_BRASIL", "CIDADE": "SAO_PAULO", "LATITUDE": -23.4913552, "LONGITUDE": -46.4291968 }, "geometry": { "type": "Point", "coordinates": [ -46.4291968, -23.4913552 ] } },
{ "type": "Feature", "properties": { "CNPJ": 53910480000194, "AGENTE": "LILIA_VIANNA", "ACAO": "REALIZAR_PRIMEIRA_VISITA_POTENCIAL", "RAZAO_SOCIAL": "LK_BURG", "ENDERECO": "RUA_STA_DAVINA_955_PARQUE_PAULISTANO_SAO_PAULO_BRASIL", "CIDADE": "SAO_PAULO", "LATITUDE": -23.4913556, "LONGITUDE": -46.4269723 }, "geometry": { "type": "Point", "coordinates": [ -46.4269723, -23.4913556 ] } },
{ "type": "Feature", "properties": { "CNPJ": 42427355000101, "AGENTE": "LILIA_VIANNA", "ACAO": "REALIZAR_PRIMEIRA_VISITA_POTENCIAL", "RAZAO_SOCIAL": "A_FAVORITA_LINGERIE_LTDA", "ENDERECO": "RUA_ARLINDO_COLACO_505_SAO_MIGUEL_PAULISTA_SAO_PAULO_BRASIL", "CIDADE": "SAO_PAULO", "LATITUDE": -23.4913864, "LONGITUDE": -46.4399201 }, "geometry": { "type": "Point", "coordinates": [ -46.4399201, -23.4913864 ] } },
{ "type": "Feature", "properties": { "CNPJ": 17524516000138, "AGENTE": "LILIA_VIANNA", "ACAO": "REALIZAR_PRIMEIRA_VISITA_POTENCIAL", "RAZAO_SOCIAL": "ANGELA_DOS_SANTOS_SILVA_BOMBONIERE", "ENDERECO": "RUA_SAO_GONCALO_DO_RIO_DAS_PEDRAS_972_VILA_MARA_SAO_PAULO_BRASIL", "CIDADE": "SAO_PAULO", "LATITUDE": -23.4915146, "LONGITUDE": -46.420807 }, "geometry": { "type": "Point", "coordinates": [ -46.420807, -23.4915146 ] } },
{ "type": "Feature", "properties": { "CNPJ": 23669638000115, "AGENTE": "LILIA_VIANNA", "ACAO": "REALIZAR_PRIMEIRA_VISITA_POTENCIAL", "RAZAO_SOCIAL": "LUCAS_RODRIGO_SOUZA_LIMA", "ENDERECO": "RUA_ERVA_DE_SANTA_LUZIA_139_VILA_HELENA_SAO_PAULO_BRASIL", "CIDADE": "GUARULHOS", "LATITUDE": -23.491703, "LONGITUDE": -46.417017 }, "geometry": { "type": "Point", "coordinates": [ -46.417017, -23.491703 ] } },
{ "type": "Feature", "properties": { "CNPJ": 24691344000152, "AGENTE": "LILIA_VIANNA", "ACAO": "REALIZAR_PRIMEIRA_VISITA_POTENCIAL", "RAZAO_SOCIAL": "CLINICA_DENTARIA_ITAIM_ODONTO_LTDA", "ENDERECO": "AVENIDA_MARECHAL_TITO_4.120_ITAIM_PAULISTA_SAO_PAULO_BRASIL", "CIDADE": "SAO_PAULO", "LATITUDE": -23.4921318, "LONGITUDE": -46.4448832 }, "geometry": { "type": "Point", "coordinates": [ -46.4448832, -23.4921318 ] } },
{ "type": "Feature", "properties": { "CNPJ": 5677898600018, "AGENTE": "LILIA_VIANNA", "ACAO": "REALIZAR_PRIMEIRA_VISITA_POTENCIAL", "RAZAO_SOCIAL": "RANULFO_MENDES_VARJAO_FILHO", "ENDERECO": "RUA_CHUVA_DE_OURO_119_PARQUE_PAULISTANO_SAO_PAULO_BRASIL", "CIDADE": "SAO_PAULO", "LATITUDE": -23.4921521, "LONGITUDE": -46.4173497 }, "geometry": { "type": "Point", "coordinates": [ -46.4173497, -23.4921521 ] } },
{ "type": "Feature", "properties": { "CNPJ": 2065478200019, "AGENTE": "LILIA_VIANNA", "ACAO": "REALIZAR_PRIMEIRA_VISITA_POTENCIAL", "RAZAO_SOCIAL": "MARCOS_SANTOS_COSTA_27637769810", "ENDERECO": "RUA_CHUVA_DE_OURO_203_PARQUE_PAULISTANO_SAO_PAULO_BRASIL", "CIDADE": "SAO_PAULO", "LATITUDE": -23.4921883, "LONGITUDE": -46.4165353 }, "geometry": { "type": "Point", "coordinates": [ -46.4165353, -23.4921883 ] } },
{ "type": "Feature", "properties": { "CNPJ": 49804846000173, "AGENTE": "LILIA_VIANNA", "ACAO": "REALIZAR_PRIMEIRA_VISITA_POTENCIAL", "RAZAO_SOCIAL": "49.804.846_CRISLAINE_APARECIDA_ALEXANDRE_RIBEIRO", "ENDERECO": "RUA_DOUTOR_PEDRO_MIKAIL_426_PARQUE_PAULISTANO_SAO_PAULO_BRASIL", "CIDADE": "SAO_PAULO", "LATITUDE": -23.4922733, "LONGITUDE": -46.4219692 }, "geometry": { "type": "Point", "coordinates": [ -46.4219692, -23.4922733 ] } },
{ "type": "Feature", "properties": { "CNPJ": 52070327000133, "AGENTE": "LILIA_VIANNA", "ACAO": "REALIZAR_PRIMEIRA_VISITA_POTENCIAL", "RAZAO_SOCIAL": "MARILANIA_ORZILEY_PEREIRA", "ENDERECO": "RUA_ARLINDO_COLACO_181_SAO_MIGUEL_PAULISTA_SAO_PAULO_BRASIL", "CIDADE": "SAO_PAULO", "LATITUDE": -23.4923962, "LONGITUDE": -46.4424216 }, "geometry": { "type": "Point", "coordinates": [ -46.4424216, -23.4923962 ] } },
{ "type": "Feature", "properties": { "CNPJ": 1417523300013, "AGENTE": "LILIA_VIANNA", "ACAO": "REALIZAR_PRIMEIRA_VISITA_POTENCIAL", "RAZAO_SOCIAL": "MAQUININHA_REFRIGERACAO_LTDA", "ENDERECO": "RUA_DARIO_FERREIRA_MARTINS_0_JARDIM_SANTO_ELIAS_(SAO_MIGUEL)_SAO_PAULO_BRASIL", "CIDADE": "SAO_PAULO", "LATITUDE": -23.4924367, "LONGITUDE": -46.4307286 }, "geometry": { "type": "Point", "coordinates": [ -46.4307286, -23.4924367 ] } },
{ "type": "Feature", "properties": { "CNPJ": 22418804000148, "AGENTE": "LILIA_VIANNA", "ACAO": "REALIZAR_PRIMEIRA_VISITA_POTENCIAL", "RAZAO_SOCIAL": "SALLES_EMPREENDIMENTOS_IMOBILIARIOS_LTDA", "ENDERECO": "RUA_SEVERINA_LEOPOLDINA_DE_SOUSA_184_CIDADE_NITRO_OPERARIA_SAO_PAULO_BRASIL", "CIDADE": "SAO_PAULO", "LATITUDE": -23.4926446, "LONGITUDE": -46.438359 }, "geometry": { "type": "Point", "coordinates": [ -46.438359, -23.4926446 ] } },
{ "type": "Feature", "properties": { "CNPJ": 35736757000122, "AGENTE": "LILIA_VIANNA", "ACAO": "REALIZAR_PRIMEIRA_VISITA_POTENCIAL", "RAZAO_SOCIAL": "ARLENE_MARIA_DOS_SANTOS_VICENTE_24777371808", "ENDERECO": "RUA_ARISTOTELES_DE_ABREU_PATRONY_81_JARDIM_SANTO_ELIAS_(SAO_MIGUEL)_SAO_PAULO_BRASIL", "CIDADE": "SAO_PAULO", "LATITUDE": -23.4926717, "LONGITUDE": -46.4309626 }, "geometry": { "type": "Point", "coordinates": [ -46.4309626, -23.4926717 ] } },
{ "type": "Feature", "properties": { "CNPJ": 44894294000118, "AGENTE": "LILIA_VIANNA", "ACAO": "REALIZAR_PRIMEIRA_VISITA_POTENCIAL", "RAZAO_SOCIAL": "44.894.294_IVANILDO_ALEXANDRE_NUNES", "ENDERECO": "RUA_ARISTOTELES_DE_ABREU_PATRONY_60_JARDIM_SANTO_ELIAS_(SAO_MIGUEL)_SAO_PAULO_BRASIL", "CIDADE": "SAO_PAULO", "LATITUDE": -23.4928107, "LONGITUDE": -46.4290842 }, "geometry": { "type": "Point", "coordinates": [ -46.4290842, -23.4928107 ] } },
{ "type": "Feature", "properties": { "CNPJ": 31739933000129, "AGENTE": "LILIA_VIANNA", "ACAO": "REALIZAR_PRIMEIRA_VISITA_POTENCIAL", "RAZAO_SOCIAL": "WELLINGTON_FERNANDES_DE_OLIVEIRA", "ENDERECO": "AVENIDA_ESTRELA_DA_NOITE_355_JARDIM_MAIA_SAO_PAULO_BRASIL", "CIDADE": "SAO_PAULO", "LATITUDE": -23.4929492, "LONGITUDE": -46.4150934 }, "geometry": { "type": "Point", "coordinates": [ -46.4150934, -23.4929492 ] } },
{ "type": "Feature", "properties": { "CNPJ": 3596557200019, "AGENTE": "LILIA_VIANNA", "ACAO": "REALIZAR_PRIMEIRA_VISITA_POTENCIAL", "RAZAO_SOCIAL": "FRANCISCO_GERALDO_SOARES_NOVAIS_RESTAURANTE", "ENDERECO": "RUA_JOSE_ALDO_PIASSI_26_SAO_MIGUEL_PAULISTA_SAO_PAULO_BRASIL", "CIDADE": "SAO_PAULO", "LATITUDE": -23.493186, "LONGITUDE": -46.4439995 }, "geometry": { "type": "Point", "coordinates": [ -46.4439995, -23.493186 ] } },
{ "type": "Feature", "properties": { "CNPJ": 48978828000145, "AGENTE": "LILIA_VIANNA", "ACAO": "REALIZAR_PRIMEIRA_VISITA_POTENCIAL", "RAZAO_SOCIAL": "48.978.828_CLAYTON_LOPES_RIBEIRO", "ENDERECO": "RUA_JOSE_DIAS_MIRANDA_123_SAO_MIGUEL_PAULISTA_SAO_PAULO_BRASIL", "CIDADE": "SAO_PAULO", "LATITUDE": -23.4933266, "LONGITUDE": -46.4446239 }, "geometry": { "type": "Point", "coordinates": [ -46.4446239, -23.4933266 ] } },
{ "type": "Feature", "properties": { "CNPJ": 46109126000108, "AGENTE": "LILIA_VIANNA", "ACAO": "REALIZAR_PRIMEIRA_VISITA_POTENCIAL", "RAZAO_SOCIAL": "IARA_DA_SILVA_CARVALHO_ESPACO_DE_BELEZA", "ENDERECO": "RUA_JOSE_AUGUSTO_ESCOBAR_132_JARDIM_SANTO_ELIAS_(SAO_MIGUEL)_SAO_PAULO_BRASIL", "CIDADE": "SAO_PAULO", "LATITUDE": -23.4933927, "LONGITUDE": -46.4264847 }, "geometry": { "type": "Point", "coordinates": [ -46.4264847, -23.4933927 ] } },
{ "type": "Feature", "properties": { "CNPJ": 27530832000176, "AGENTE": "LILIA_VIANNA", "ACAO": "REALIZAR_PRIMEIRA_VISITA_POTENCIAL", "RAZAO_SOCIAL": "M_DE_OLIVEIRA_BARBOSA_RESTAURANTE", "ENDERECO": "RUA_OTAVIO_DE_ROSA_57_SAO_MIGUEL_PAULISTA_SAO_PAULO_BRASIL", "CIDADE": "SAO_PAULO", "LATITUDE": -23.4935122, "LONGITUDE": -46.4470229 }, "geometry": { "type": "Point", "coordinates": [ -46.4470229, -23.4935122 ] } },
{ "type": "Feature", "properties": { "CNPJ": 35175760000114, "AGENTE": "LILIA_VIANNA", "ACAO": "REALIZAR_PRIMEIRA_VISITA_POTENCIAL", "RAZAO_SOCIAL": "REGINA_NUNES_PEREIRA_32227992883", "ENDERECO": "AVENIDA_MARECHAL_TITO_3095_ITAIM_PAULISTA_SAO_PAULO_BRASIL", "CIDADE": "SAO_PAULO", "LATITUDE": -23.4936296, "LONGITUDE": -46.4156094 }, "geometry": { "type": "Point", "coordinates": [ -46.4156094, -23.4936296 ] } },
{ "type": "Feature", "properties": { "CNPJ": 9595683000141, "AGENTE": "LILIA_VIANNA", "ACAO": "REALIZAR_PRIMEIRA_VISITA_POTENCIAL", "RAZAO_SOCIAL": "GOURMET_LANCHONETE_E_RESTAURANTE_LTDA", "ENDERECO": "AVENIDA_MARECHAL_TITO_567_SAO_MIGUEL_PAULISTA_SAO_PAULO_BRASIL", "CIDADE": "SAO_PAULO", "LATITUDE": -23.4937, "LONGITUDE": -46.4393489 }, "geometry": { "type": "Point", "coordinates": [ -46.4393489, -23.4937 ] } },
{ "type": "Feature", "properties": { "CNPJ": 18135932000107, "AGENTE": "LILIA_VIANNA", "ACAO": "REALIZAR_PRIMEIRA_VISITA_POTENCIAL", "RAZAO_SOCIAL": "HORIZONTE_DA_FE_ARTIGOS_RELIGIOSOS_LTDA", "ENDERECO": "AVENIDA_MARECHAL_TITO_2677_SAO_MIGUEL_PAULISTA_SAO_PAULO_BRASIL", "CIDADE": "SAO_PAULO", "LATITUDE": -23.4938315, "LONGITUDE": -46.4197667 }, "geometry": { "type": "Point", "coordinates": [ -46.4197667, -23.4938315 ] } },
{ "type": "Feature", "properties": { "CNPJ": 46852915000126, "AGENTE": "LILIA_VIANNA", "ACAO": "REALIZAR_PRIMEIRA_VISITA_POTENCIAL", "RAZAO_SOCIAL": "WENDERSON_DE_BRITO_SANTOS_33258242852", "ENDERECO": "AVENIDA_NORDESTINA_47_VILA_AMERICANA_SAO_PAULO_BRASIL", "CIDADE": "SAO_PAULO", "LATITUDE": -23.4939299, "LONGITUDE": -46.4434511 }, "geometry": { "type": "Point", "coordinates": [ -46.4434511, -23.4939299 ] } },
{ "type": "Feature", "properties": { "CNPJ": 46963684000128, "AGENTE": "LILIA_VIANNA", "ACAO": "REALIZAR_PRIMEIRA_VISITA_POTENCIAL", "RAZAO_SOCIAL": "MARIO_PEREIRA_GUERRA_JUNIOR", "ENDERECO": "RUA_CUMARU_105_CIDADE_NITRO_OPERARIA_SAO_PAULO_BRASIL", "CIDADE": "SAO_PAULO", "LATITUDE": -23.4939507, "LONGITUDE": -46.4356424 }, "geometry": { "type": "Point", "coordinates": [ -46.4356424, -23.4939507 ] } },
{ "type": "Feature", "properties": { "CNPJ": 57132796000153, "AGENTE": "LILIA_VIANNA", "ACAO": "REALIZAR_PRIMEIRA_VISITA_POTENCIAL", "RAZAO_SOCIAL": "57.132.796_ANDRE_PEREIRA_DOS_SANTOS", "ENDERECO": "RUA_HENRIQUE_DE_PAULA_FRANCA_137_SAO_MIGUEL_PAULISTA_SAO_PAULO_BRASIL", "CIDADE": "SAO_PAULO", "LATITUDE": -23.4939817, "LONGITUDE": -46.4424125 }, "geometry": { "type": "Point", "coordinates": [ -46.4424125, -23.4939817 ] } },
{ "type": "Feature", "properties": { "CNPJ": 55106568000183, "AGENTE": "LILIA_VIANNA", "ACAO": "REALIZAR_PRIMEIRA_VISITA_POTENCIAL", "RAZAO_SOCIAL": "SANTMARTIN_SEGUROS_COMERCIO_DE_PLANOS_DE_SAUDE_LTDA", "ENDERECO": "RUA_DANIEL_BERNARDO_61_SAO_MIGUEL_PAULISTA_SAO_PAULO_BRASIL", "CIDADE": "SAO_PAULO", "LATITUDE": -23.4940278, "LONGITUDE": -46.4418774 }, "geometry": { "type": "Point", "coordinates": [ -46.4418774, -23.4940278 ] } },
{ "type": "Feature", "properties": { "CNPJ": 57534721000107, "AGENTE": "LILIA_VIANNA", "ACAO": "REALIZAR_PRIMEIRA_VISITA_POTENCIAL", "RAZAO_SOCIAL": "CLINICA_ODONTOLOGICA_MENONI_ODONTO_LTDA", "ENDERECO": "RUA_LUIS_PICOLO_5_CIDADE_NITRO_OPERARIA_SAO_PAULO_BRASIL", "CIDADE": "SAO_PAULO", "LATITUDE": -23.4940467, "LONGITUDE": -46.4380851 }, "geometry": { "type": "Point", "coordinates": [ -46.4380851, -23.4940467 ] } },
{ "type": "Feature", "properties": { "CNPJ": 24249002000187, "AGENTE": "LILIA_VIANNA", "ACAO": "REALIZAR_PRIMEIRA_VISITA_POTENCIAL", "RAZAO_SOCIAL": "EZCAR_COMERCIO_DE_VEICULOS_LTDA", "ENDERECO": "AVENIDA_MARECHAL_TITO_2824_SAO_MIGUEL_PAULISTA_SAO_PAULO_BRASIL", "CIDADE": "SAO_PAULO", "LATITUDE": -23.4941497, "LONGITUDE": -46.4189231 }, "geometry": { "type": "Point", "coordinates": [ -46.4189231, -23.4941497 ] } },
{ "type": "Feature", "properties": { "CNPJ": 45675807000162, "AGENTE": "LILIA_VIANNA", "ACAO": "REALIZAR_PRIMEIRA_VISITA_POTENCIAL", "RAZAO_SOCIAL": "BETE_UNIFORMES_LTDA", "ENDERECO": "RUA_ELIAS_MONTEIRO_CARDOSO_380_VILA_CLARA_SAO_PAULO_BRASIL", "CIDADE": "SAO_PAULO", "LATITUDE": -23.4947822, "LONGITUDE": -46.4225246 }, "geometry": { "type": "Point", "coordinates": [ -46.4225246, -23.4947822 ] } },
{ "type": "Feature", "properties": { "CNPJ": 48032820000191, "AGENTE": "LILIA_VIANNA", "ACAO": "REALIZAR_PRIMEIRA_VISITA_POTENCIAL", "RAZAO_SOCIAL": "HELEN_SILVEIRA_RIBEIRO", "ENDERECO": "AVENIDA_MARECHAL_TITO_1015_SAO_MIGUEL_PAULISTA_SAO_PAULO_BRASIL", "CIDADE": "SAO_PAULO", "LATITUDE": -23.4949293, "LONGITUDE": -46.435903 }, "geometry": { "type": "Point", "coordinates": [ -46.435903, -23.4949293 ] } },
{ "type": "Feature", "properties": { "CNPJ": 24349437000101, "AGENTE": "LILIA_VIANNA", "ACAO": "REALIZAR_PRIMEIRA_VISITA_POTENCIAL", "RAZAO_SOCIAL": "SILVANA_NUNES", "ENDERECO": "RUA_AMERICO_GOMES_DA_COSTA_139_VILA_AMERICANA_SAO_PAULO_BRASIL", "CIDADE": "SAO_PAULO", "LATITUDE": -23.4949774, "LONGITUDE": -46.4406432 }, "geometry": { "type": "Point", "coordinates": [ -46.4406432, -23.4949774 ] } },
{ "type": "Feature", "properties": { "CNPJ": 40804185000101, "AGENTE": "LILIA_VIANNA", "ACAO": "REALIZAR_PRIMEIRA_VISITA_POTENCIAL", "RAZAO_SOCIAL": "LEVARE_DOIS_LINGERIE_E_ACESSORIOS_LTDA", "ENDERECO": "RUA_SETE_DE_SETEMBRO_126_CENTRO_GUARULHOS_BRASIL", "CIDADE": "GUARULHOS", "LATITUDE": -23.494989, "LONGITUDE": -46.4369673 }, "geometry": { "type": "Point", "coordinates": [ -46.4369673, -23.494989 ] } },
{ "type": "Feature", "properties": { "CNPJ": 4926091600017, "AGENTE": "LILIA_VIANNA", "ACAO": "REALIZAR_PRIMEIRA_VISITA_POTENCIAL", "RAZAO_SOCIAL": "GRATIDAO_PRESTACAO_DE_SERVICOS_LIMITADA", "ENDERECO": "RUA_TIAGO_FERREIRA_688_VILA_PEDROSO_SAO_PAULO_BRASIL", "CIDADE": "SAO_PAULO", "LATITUDE": -23.4950677, "LONGITUDE": -46.4463297 }, "geometry": { "type": "Point", "coordinates": [ -46.4463297, -23.4950677 ] } },
{ "type": "Feature", "properties": { "CNPJ": 9636886000139, "AGENTE": "LILIA_VIANNA", "ACAO": "REALIZAR_PRIMEIRA_VISITA_POTENCIAL", "RAZAO_SOCIAL": "A_O_OBIMMA_TIPICAS", "ENDERECO": "RUA_ESPIRITO_SANTO_DO_DOURADO_930_VILA_CLARA_SAO_PAULO_BRASIL", "CIDADE": "SAO_PAULO", "LATITUDE": -23.4950946, "LONGITUDE": -46.4227385 }, "geometry": { "type": "Point", "coordinates": [ -46.4227385, -23.4950946 ] } },
{ "type": "Feature", "properties": { "CNPJ": 50544851000173, "AGENTE": "LILIA_VIANNA", "ACAO": "REALIZAR_PRIMEIRA_VISITA_POTENCIAL", "RAZAO_SOCIAL": "THANK_GOD_MULTIMARCAS_LTDA", "ENDERECO": "AVENIDA_MAL_TITO_1641_SAO_MIGUEL_PAULISTA_SAO_PAULO_BRASIL", "CIDADE": "SAO_PAULO", "LATITUDE": -23.4951656, "LONGITUDE": -46.4297871 }, "geometry": { "type": "Point", "coordinates": [ -46.4297871, -23.4951656 ] } },
{ "type": "Feature", "properties": { "CNPJ": 45425483000104, "AGENTE": "LILIA_VIANNA", "ACAO": "REALIZAR_PRIMEIRA_VISITA_POTENCIAL", "RAZAO_SOCIAL": "GUILHERME_HENRIQUE_FERREIRA_41322926816", "ENDERECO": "RUA_FRANCISCO_JANUARIO_11_VILA_CLARA_SAO_PAULO_BRASIL", "CIDADE": "SAO_PAULO", "LATITUDE": -23.4951943, "LONGITUDE": -46.4264529 }, "geometry": { "type": "Point", "coordinates": [ -46.4264529, -23.4951943 ] } },
{ "type": "Feature", "properties": { "CNPJ": 57980371000102, "AGENTE": "LILIA_VIANNA", "ACAO": "REALIZAR_PRIMEIRA_VISITA_POTENCIAL", "RAZAO_SOCIAL": "57.980.371_PAULO_HENRIQUE_SANTOS_FERREIRA", "ENDERECO": "RUA_ALBERTO_BELLO_94_VILA_CLARA_SAO_PAULO_BRASIL", "CIDADE": "SAO_PAULO", "LATITUDE": -23.495667, "LONGITUDE": -46.418773 }, "geometry": { "type": "Point", "coordinates": [ -46.418773, -23.495667 ] } },
{ "type": "Feature", "properties": { "CNPJ": 51398057000121, "AGENTE": "LILIA_VIANNA", "ACAO": "REALIZAR_PRIMEIRA_VISITA_POTENCIAL", "RAZAO_SOCIAL": "51.398.057_ANGELO_AUGUSTO_FERREIRA", "ENDERECO": "RUA_ALBERTO_BELLO_94_VILA_CLARA_SAO_PAULO_BRASIL", "CIDADE": "SAO_PAULO", "LATITUDE": -23.495667, "LONGITUDE": -46.418773 }, "geometry": { "type": "Point", "coordinates": [ -46.418773, -23.495667 ] } },
{ "type": "Feature", "properties": { "CNPJ": 50497125000147, "AGENTE": "LILIA_VIANNA", "ACAO": "REALIZAR_PRIMEIRA_VISITA_POTENCIAL", "RAZAO_SOCIAL": "50.497.125_WALLEM_ARAUJO_CASTRO", "ENDERECO": "RUA_BERNARDO_DADDI_26_VILA_DOUTOR_EIRAS_SAO_PAULO_BRASIL", "CIDADE": "SAO_PAULO", "LATITUDE": -23.4962253, "LONGITUDE": -46.4334836 }, "geometry": { "type": "Point", "coordinates": [ -46.4334836, -23.4962253 ] } },
{ "type": "Feature", "properties": { "CNPJ": 34256109000106, "AGENTE": "LILIA_VIANNA", "ACAO": "REALIZAR_PRIMEIRA_VISITA_POTENCIAL", "RAZAO_SOCIAL": "INTERESSANTE_CONSTRUCOES_LTDA", "ENDERECO": "RUA_NELSON_PINTO_363_JARDIM_ALTO_PEDROSO_SAO_PAULO_BRASIL", "CIDADE": "SAO_PAULO", "LATITUDE": -23.4962482, "LONGITUDE": -46.4482338 }, "geometry": { "type": "Point", "coordinates": [ -46.4482338, -23.4962482 ] } },
{ "type": "Feature", "properties": { "CNPJ": 2419474000106, "AGENTE": "LILIA_VIANNA", "ACAO": "REALIZAR_PRIMEIRA_VISITA_POTENCIAL", "RAZAO_SOCIAL": "ROSELI_DA_SILVA", "ENDERECO": "PRACA_SAO_JOAO_DE_CORTES_62_VILA_DOUTOR_EIRAS_SAO_PAULO_BRASIL", "CIDADE": "SAO_PAULO", "LATITUDE": -23.4962899, "LONGITUDE": -46.4381112 }, "geometry": { "type": "Point", "coordinates": [ -46.4381112, -23.4962899 ] } },
{ "type": "Feature", "properties": { "CNPJ": 10813793000111, "AGENTE": "LILIA_VIANNA", "ACAO": "REALIZAR_PRIMEIRA_VISITA_POTENCIAL", "RAZAO_SOCIAL": "NOVA_ALIANCA_PAES_E_DOCES_LTDA", "ENDERECO": "AVENIDA_NORDESTINA_-_DE_0531/532_A_1643/1644_1163_VILA_AMERICANA_SAO_PAULO_BRASIL", "CIDADE": "SAO_PAULO", "LATITUDE": -23.496301, "LONGITUDE": -46.4420852 }, "geometry": { "type": "Point", "coordinates": [ -46.4420852, -23.496301 ] } },
{ "type": "Feature", "properties": { "CNPJ": 33131849000153, "AGENTE": "LILIA_VIANNA", "ACAO": "REALIZAR_PRIMEIRA_VISITA_POTENCIAL", "RAZAO_SOCIAL": "MOVIMENTO_IDEAL_CONFECCOES_LTDA", "ENDERECO": "RUA_BENEDITO_ROSA_DA_SILVA_343_CIDADE_JARDIM_CERQUILHO_BRASIL", "CIDADE": "SAO_PAULO", "LATITUDE": -23.4964928, "LONGITUDE": -46.4332888 }, "geometry": { "type": "Point", "coordinates": [ -46.4332888, -23.4964928 ] } },
{ "type": "Feature", "properties": { "CNPJ": 26568502000107, "AGENTE": "LILIA_VIANNA", "ACAO": "REALIZAR_PRIMEIRA_VISITA_POTENCIAL", "RAZAO_SOCIAL": "SHEILA_SANTOS_SILVA", "ENDERECO": "RUA_CAPAO_ALTO_51_VILA_CURUCA_SAO_PAULO_BRASIL", "CIDADE": "SAO_PAULO", "LATITUDE": -23.4968221, "LONGITUDE": -46.4239195 }, "geometry": { "type": "Point", "coordinates": [ -46.4239195, -23.4968221 ] } },
{ "type": "Feature", "properties": { "CNPJ": 35838209000103, "AGENTE": "LILIA_VIANNA", "ACAO": "REALIZAR_PRIMEIRA_VISITA_POTENCIAL", "RAZAO_SOCIAL": "35.838.209_WANDER_NASCIMENTO_BENITEZ", "ENDERECO": "RUA_FRANCISCO_POLILO_NETO_17_VILA_ROSARIA_SAO_PAULO_BRASIL", "CIDADE": "SAO_PAULO", "LATITUDE": -23.4970702, "LONGITUDE": -46.4340678 }, "geometry": { "type": "Point", "coordinates": [ -46.4340678, -23.4970702 ] } },
{ "type": "Feature", "properties": { "CNPJ": 40389742000175, "AGENTE": "LILIA_VIANNA", "ACAO": "REALIZAR_PRIMEIRA_VISITA_POTENCIAL", "RAZAO_SOCIAL": "GABRIELA_SOUZA_DEL_VARGE", "ENDERECO": "RUA_JOAO_AUGUSTO_MORAIS_368_VILA_DOUTOR_EIRAS_SAO_PAULO_BRASIL", "CIDADE": "SAO_PAULO", "LATITUDE": -23.4972336, "LONGITUDE": -46.4406511 }, "geometry": { "type": "Point", "coordinates": [ -46.4406511, -23.4972336 ] } },
{ "type": "Feature", "properties": { "CNPJ": 29875249000122, "AGENTE": "LILIA_VIANNA", "ACAO": "REALIZAR_PRIMEIRA_VISITA_POTENCIAL", "RAZAO_SOCIAL": "MARIA_INES_DELFINO_DA_SILVA", "ENDERECO": "RUA_PEDRO_VIVIANI_77_JARDIM_ALTO_PEDROSO_SAO_PAULO_BRASIL", "CIDADE": "SAO_PAULO", "LATITUDE": -23.4974438, "LONGITUDE": -46.4344459 }, "geometry": { "type": "Point", "coordinates": [ -46.4344459, -23.4974438 ] } },
{ "type": "Feature", "properties": { "CNPJ": 233372770001, "AGENTE": "LILIA_VIANNA", "ACAO": "REALIZAR_PRIMEIRA_VISITA_POTENCIAL", "RAZAO_SOCIAL": "MONIQUE_OLIVEIRA_DIAS_MENEZES", "ENDERECO": "AVENIDA_JOAO_NERI_DE_CARVALHO_622_VILA_ROSARIA_SAO_PAULO_BRASIL", "CIDADE": "SAO_PAULO", "LATITUDE": -23.4975037, "LONGITUDE": -46.4346538 }, "geometry": { "type": "Point", "coordinates": [ -46.4346538, -23.4975037 ] } },
{ "type": "Feature", "properties": { "CNPJ": 54645723000177, "AGENTE": "LILIA_VIANNA", "ACAO": "REALIZAR_PRIMEIRA_VISITA_POTENCIAL", "RAZAO_SOCIAL": "KIRA_PINHEIRO_DO_NASCIMENTO.", "ENDERECO": "RUA_PALANQUE_215_VILA_CURUCA_SAO_PAULO_BRASIL", "CIDADE": "SAO_PAULO", "LATITUDE": -23.4981891, "LONGITUDE": -46.426419 }, "geometry": { "type": "Point", "coordinates": [ -46.426419, -23.4981891 ] } },
{ "type": "Feature", "properties": { "CNPJ": 46341627000107, "AGENTE": "LILIA_VIANNA", "ACAO": "REALIZAR_PRIMEIRA_VISITA_POTENCIAL", "RAZAO_SOCIAL": "LEANDRO_CARVALHO_FRANCA", "ENDERECO": "RUA_MARIO_DALLARI_55_JARDIM_SAO_VICENTE_SAO_PAULO_BRASIL", "CIDADE": "SAO_PAULO", "LATITUDE": -23.4986073, "LONGITUDE": -46.4306933 }, "geometry": { "type": "Point", "coordinates": [ -46.4306933, -23.4986073 ] } },
{ "type": "Feature", "properties": { "CNPJ": 4268078000142, "AGENTE": "LILIA_VIANNA", "ACAO": "REALIZAR_PRIMEIRA_VISITA_POTENCIAL", "RAZAO_SOCIAL": "DROGARIA_ADELFARMA_LTDA", "ENDERECO": "PRACA_FRANCISCO_PEREIRA_45_VILA_CURUCA_SAO_PAULO_BRASIL", "CIDADE": "SAO_PAULO", "LATITUDE": -23.4986735, "LONGITUDE": -46.4225417 }, "geometry": { "type": "Point", "coordinates": [ -46.4225417, -23.4986735 ] } },
{ "type": "Feature", "properties": { "CNPJ": 34156416000115, "AGENTE": "LILIA_VIANNA", "ACAO": "REALIZAR_PRIMEIRA_VISITA_POTENCIAL", "RAZAO_SOCIAL": "GLV_AUTO_PARTS_LTDA", "ENDERECO": "RUA_JACINTO_DE_MELO_27_VILA_ROSARIA_SAO_PAULO_BRASIL", "CIDADE": "SAO_PAULO", "LATITUDE": -23.4987784, "LONGITUDE": -46.4325178 }, "geometry": { "type": "Point", "coordinates": [ -46.4325178, -23.4987784 ] } },
{ "type": "Feature", "properties": { "CNPJ": 58323892000141, "AGENTE": "LILIA_VIANNA", "ACAO": "REALIZAR_PRIMEIRA_VISITA_POTENCIAL", "RAZAO_SOCIAL": "58.323.892_CLAUDIA_BEZERRA_GONCALVES", "ENDERECO": "RUA_ELITA_176_VILA_JACUI_SAO_PAULO_BRASIL", "CIDADE": "SAO_PAULO", "LATITUDE": -23.4988316, "LONGITUDE": -46.4487494 }, "geometry": { "type": "Point", "coordinates": [ -46.4487494, -23.4988316 ] } },
{ "type": "Feature", "properties": { "CNPJ": 57228411000156, "AGENTE": "LILIA_VIANNA", "ACAO": "REALIZAR_PRIMEIRA_VISITA_POTENCIAL", "RAZAO_SOCIAL": "57.228.411_WENDEL_FELIPE_DANTAS", "ENDERECO": "RUA_FAVEIRA_DO_IGAPO_133_JARDIM_DOS_IPES_SAO_PAULO_BRASIL", "CIDADE": "SAO_PAULO", "LATITUDE": -23.4991804, "LONGITUDE": -46.4145117 }, "geometry": { "type": "Point", "coordinates": [ -46.4145117, -23.4991804 ] } },
{ "type": "Feature", "properties": { "CNPJ": 50074151000162, "AGENTE": "LILIA_VIANNA", "ACAO": "REALIZAR_PRIMEIRA_VISITA_POTENCIAL", "RAZAO_SOCIAL": "50.074.151_WELLINGTON_HONORATO_DOS_SANTOS", "ENDERECO": "RUA_JAGUARABA_114_VILA_CURUCA_SAO_PAULO_BRASIL", "CIDADE": "SAO_PAULO", "LATITUDE": -23.4994007, "LONGITUDE": -46.4208182 }, "geometry": { "type": "Point", "coordinates": [ -46.4208182, -23.4994007 ] } },
{ "type": "Feature", "properties": { "CNPJ": 55228315000182, "AGENTE": "LILIA_VIANNA", "ACAO": "REALIZAR_PRIMEIRA_VISITA_POTENCIAL", "RAZAO_SOCIAL": "55.228.315_MARIA_LUIZA_HONORATO_LEITE_FIDENCIO", "ENDERECO": "RUA_JAGUARABA_114_VILA_CURUCA_SAO_PAULO_BRASIL", "CIDADE": "SAO_PAULO", "LATITUDE": -23.4994007, "LONGITUDE": -46.4208182 }, "geometry": { "type": "Point", "coordinates": [ -46.4208182, -23.4994007 ] } },
{ "type": "Feature", "properties": { "CNPJ": 40600530000195, "AGENTE": "LILIA_VIANNA", "ACAO": "REALIZAR_PRIMEIRA_VISITA_POTENCIAL", "RAZAO_SOCIAL": "LYVIA_DA_SILVA_FIRMINO", "ENDERECO": "RUA_ENGENHEIRO_CESAR_POLILO_219_VILA_GIORDANO_SAO_PAULO_BRASIL", "CIDADE": "SAO_PAULO", "LATITUDE": -23.4999706, "LONGITUDE": -46.4403578 }, "geometry": { "type": "Point", "coordinates": [ -46.4403578, -23.4999706 ] } },
{ "type": "Feature", "properties": { "CNPJ": 30560812000152, "AGENTE": "LILIA_VIANNA", "ACAO": "REALIZAR_PRIMEIRA_VISITA_POTENCIAL", "RAZAO_SOCIAL": "MARIA_FLOR_PRESENTES_LTDA", "ENDERECO": "RUA_JAGUARABA_216_VILA_CURUCA_SAO_PAULO_BRASIL", "CIDADE": "SAO_PAULO", "LATITUDE": -23.4999859, "LONGITUDE": -46.419927 }, "geometry": { "type": "Point", "coordinates": [ -46.419927, -23.4999859 ] } },
{ "type": "Feature", "properties": { "CNPJ": 49789087000117, "AGENTE": "LILIA_VIANNA", "ACAO": "REALIZAR_PRIMEIRA_VISITA_POTENCIAL", "RAZAO_SOCIAL": "49.789.087_KATIANA_AUREA_DA_PAZ_SOUSA_ARAUJO", "ENDERECO": "RUA_ENGENHEIRO_CESAR_POLILO_302_VILA_GIORDANO_SAO_PAULO_BRASIL", "CIDADE": "SAO_PAULO", "LATITUDE": -23.5000566, "LONGITUDE": -46.4390323 }, "geometry": { "type": "Point", "coordinates": [ -46.4390323, -23.5000566 ] } },
{ "type": "Feature", "properties": { "CNPJ": 23644262000194, "AGENTE": "LILIA_VIANNA", "ACAO": "REALIZAR_PRIMEIRA_VISITA_POTENCIAL", "RAZAO_SOCIAL": "SERVICE_AR_CONDICIONADO_QUENTE_E_FRIO_LTDA", "ENDERECO": "RUA_PINDARE_MIRIM_60_VILA_ROSARIA_SAO_PAULO_BRASIL", "CIDADE": "SAO_PAULO", "LATITUDE": -23.5000933, "LONGITUDE": -46.4346298 }, "geometry": { "type": "Point", "coordinates": [ -46.4346298, -23.5000933 ] } },
{ "type": "Feature", "properties": { "CNPJ": 7224482000102, "AGENTE": "LILIA_VIANNA", "ACAO": "REALIZAR_PRIMEIRA_VISITA_POTENCIAL", "RAZAO_SOCIAL": "ORGANIZACAO_CALDINI_-_NEGOCIOS_IMOBILIARIOS_E_DESPACHANTE_LTDA", "ENDERECO": "AVENIDA_ROSARIA_546_VILA_ROSARIA_SAO_PAULO_BRASIL", "CIDADE": "SAO_PAULO", "LATITUDE": -23.5001539, "LONGITUDE": -46.4324546 }, "geometry": { "type": "Point", "coordinates": [ -46.4324546, -23.5001539 ] } },
{ "type": "Feature", "properties": { "CNPJ": 44104630000181, "AGENTE": "LILIA_VIANNA", "ACAO": "REALIZAR_PRIMEIRA_VISITA_POTENCIAL", "RAZAO_SOCIAL": "ALQUIMIA_TREINAMENTO_E_DESENVOLVIMENTO_HUMANO_LTDA", "ENDERECO": "RUA_GUARAITA_192_VILA_CURUCA_SAO_PAULO_BRASIL", "CIDADE": "SAO_PAULO", "LATITUDE": -23.5002545, "LONGITUDE": -46.421199 }, "geometry": { "type": "Point", "coordinates": [ -46.421199, -23.5002545 ] } },
{ "type": "Feature", "properties": { "CNPJ": 38375935000125, "AGENTE": "LILIA_VIANNA", "ACAO": "REALIZAR_PRIMEIRA_VISITA_POTENCIAL", "RAZAO_SOCIAL": "VEGA_CONSULTORIA_EM_ATIVO_IMOBILIZADO_AVALIACOES_E_INFORMATICA_LTDA", "ENDERECO": "RUA_GAROPA_0_VILA_CURUCA_SAO_PAULO_BRASIL", "CIDADE": "SAO_PAULO", "LATITUDE": -23.5008495, "LONGITUDE": -46.4259925 }, "geometry": { "type": "Point", "coordinates": [ -46.4259925, -23.5008495 ] } },
{ "type": "Feature", "properties": { "CNPJ": 33611499000122, "AGENTE": "LILIA_VIANNA", "ACAO": "REALIZAR_PRIMEIRA_VISITA_POTENCIAL", "RAZAO_SOCIAL": "WILTON_DE_SOUZA_ALMEIDA", "ENDERECO": "RUA_COQUIMBO_40_VILA_ROSARIA_SAO_PAULO_BRASIL", "CIDADE": "SAO_PAULO", "LATITUDE": -23.5009054, "LONGITUDE": -46.4319344 }, "geometry": { "type": "Point", "coordinates": [ -46.4319344, -23.5009054 ] } },
{ "type": "Feature", "properties": { "CNPJ": 23680084000157, "AGENTE": "LILIA_VIANNA", "ACAO": "REALIZAR_PRIMEIRA_VISITA_POTENCIAL", "RAZAO_SOCIAL": "CENTRO_DE_TREINAMENTO_LESTE_LTDA", "ENDERECO": "RUA_FRANCISCO_POLILO_NETO_395_VILA_ROSARIA_SAO_PAULO_BRASIL", "CIDADE": "SAO_PAULO", "LATITUDE": -23.500925, "LONGITUDE": -46.4334446 }, "geometry": { "type": "Point", "coordinates": [ -46.4334446, -23.500925 ] } },
{ "type": "Feature", "properties": { "CNPJ": 45806149000109, "AGENTE": "LILIA_VIANNA", "ACAO": "REALIZAR_PRIMEIRA_VISITA_POTENCIAL", "RAZAO_SOCIAL": "ROYALLE_CONSULTORIA", "ENDERECO": "RUA_CAP_MANUEL_GUIMARAES_715_VILA_ROSARIA_SAO_PAULO_BRASIL", "CIDADE": "SAO_PAULO", "LATITUDE": -23.5011161, "LONGITUDE": -46.43303299 }, "geometry": { "type": "Point", "coordinates": [ -46.43303299, -23.5011161 ] } },
{ "type": "Feature", "properties": { "CNPJ": 23972401000109, "AGENTE": "LILIA_VIANNA", "ACAO": "REALIZAR_PRIMEIRA_VISITA_POTENCIAL", "RAZAO_SOCIAL": "VICTOR_DE_ROSES_AIRES_SILVEIRA", "ENDERECO": "RUA_PAULO_VICENTE_136_PARQUE_SONIA_SAO_PAULO_BRASIL", "CIDADE": "SAO_PAULO", "LATITUDE": -23.5011729, "LONGITUDE": -46.4452777 }, "geometry": { "type": "Point", "coordinates": [ -46.4452777, -23.5011729 ] } },
{ "type": "Feature", "properties": { "CNPJ": 12484639000179, "AGENTE": "LILIA_VIANNA", "ACAO": "REALIZAR_PRIMEIRA_VISITA_POTENCIAL", "RAZAO_SOCIAL": "IVANETE_BORGES_DA_CRUZ_-_COSMETICOS_-_ME", "ENDERECO": "RUA_JAGUARABA_197_VILA_CURUCA_SAO_PAULO_BRASIL", "CIDADE": "SAO_PAULO", "LATITUDE": -23.5013653, "LONGITUDE": -46.4194422 }, "geometry": { "type": "Point", "coordinates": [ -46.4194422, -23.5013653 ] } },
{ "type": "Feature", "properties": { "CNPJ": 46684482000147, "AGENTE": "LILIA_VIANNA", "ACAO": "REALIZAR_PRIMEIRA_VISITA_POTENCIAL", "RAZAO_SOCIAL": "ALESSANDRO_DE_OLIVEIRA_16248789894", "ENDERECO": "RUA_JOSE_FERREIRA_CRESPO_674_JARDIM_SAO_VICENTE_SAO_PAULO_BRASIL", "CIDADE": "SAO_PAULO", "LATITUDE": -23.5014728, "LONGITUDE": -46.4302357 }, "geometry": { "type": "Point", "coordinates": [ -46.4302357, -23.5014728 ] } },
{ "type": "Feature", "properties": { "CNPJ": 38181322000157, "AGENTE": "LILIA_VIANNA", "ACAO": "REALIZAR_PRIMEIRA_VISITA_POTENCIAL", "RAZAO_SOCIAL": "F&F_INVENTARIOS_LTDA.", "ENDERECO": "RUA_MARIO_GRACCHO_214_PARQUE_SONIA_SAO_PAULO_BRASIL", "CIDADE": "SAO_PAULO", "LATITUDE": -23.5015374, "LONGITUDE": -46.44563249 }, "geometry": { "type": "Point", "coordinates": [ -46.44563249, -23.5015374 ] } },
{ "type": "Feature", "properties": { "CNPJ": 47940128000107, "AGENTE": "LILIA_VIANNA", "ACAO": "REALIZAR_PRIMEIRA_VISITA_POTENCIAL", "RAZAO_SOCIAL": "ANTONIO_CARLOS_DE_PAULA_JUNIOR", "ENDERECO": "RUA_SARARACA_NULL_CIDADE_SAO_MIGUEL_SAO_PAULO_BRASIL", "CIDADE": "SAO_PAULO", "LATITUDE": -23.5016921, "LONGITUDE": -46.4469893 }, "geometry": { "type": "Point", "coordinates": [ -46.4469893, -23.5016921 ] } },
{ "type": "Feature", "properties": { "CNPJ": 28613213000108, "AGENTE": "LILIA_VIANNA", "ACAO": "REALIZAR_PRIMEIRA_VISITA_POTENCIAL", "RAZAO_SOCIAL": "SERVICOS_BRASIL_LTDA", "ENDERECO": "AVENIDA_COCA_312_VILA_CURUCA_SAO_PAULO_BRASIL", "CIDADE": "SAO_PAULO", "LATITUDE": -23.5017293, "LONGITUDE": -46.42671929 }, "geometry": { "type": "Point", "coordinates": [ -46.42671929, -23.5017293 ] } },
{ "type": "Feature", "properties": { "CNPJ": 31307589000107, "AGENTE": "LILIA_VIANNA", "ACAO": "REALIZAR_PRIMEIRA_VISITA_POTENCIAL", "RAZAO_SOCIAL": "AIRTON_FRANCISCO_CAETANO_FILHO", "ENDERECO": "RUA_CAPITAO_MANUEL_GUIMARAES_79_VILA_ROSARIA_SAO_PAULO_BRASIL", "CIDADE": "SAO_PAULO", "LATITUDE": -23.5019219, "LONGITUDE": -46.4391373 }, "geometry": { "type": "Point", "coordinates": [ -46.4391373, -23.5019219 ] } },
{ "type": "Feature", "properties": { "CNPJ": 56392406000111, "AGENTE": "LILIA_VIANNA", "ACAO": "REALIZAR_PRIMEIRA_VISITA_POTENCIAL", "RAZAO_SOCIAL": "56.392.406_IGOR_IURI_FRANCA_DOS_SANTOS", "ENDERECO": "RUA_GRAVATA_DA_PEDRA_146_JARDIM_DOS_IPES_SAO_PAULO_BRASIL", "CIDADE": "SAO_PAULO", "LATITUDE": -23.5021534, "LONGITUDE": -46.41432529 }, "geometry": { "type": "Point", "coordinates": [ -46.41432529, -23.5021534 ] } },
{ "type": "Feature", "properties": { "CNPJ": 52270417000178, "AGENTE": "LILIA_VIANNA", "ACAO": "REALIZAR_PRIMEIRA_VISITA_POTENCIAL", "RAZAO_SOCIAL": "52.270.417_LUCIANO_SALVIANO_DE_CARVALHO", "ENDERECO": "RUA_MARIA_SUSANO_POLILO_732_VILA_ROSARIA_SAO_PAULO_BRASIL", "CIDADE": "SAO_PAULO", "LATITUDE": -23.5024282, "LONGITUDE": -46.4327797 }, "geometry": { "type": "Point", "coordinates": [ -46.4327797, -23.5024282 ] } },
{ "type": "Feature", "properties": { "CNPJ": 33357465000153, "AGENTE": "LILIA_VIANNA", "ACAO": "REALIZAR_PRIMEIRA_VISITA_POTENCIAL", "RAZAO_SOCIAL": "LUCAS_MARQUES_BETTINI", "ENDERECO": "RUA_CARLOS_GONZALEZ_8_VILA_CURUCA_SAO_PAULO_BRASIL", "CIDADE": "SAO_PAULO", "LATITUDE": -23.5025019, "LONGITUDE": -46.4235756 }, "geometry": { "type": "Point", "coordinates": [ -46.4235756, -23.5025019 ] } },
{ "type": "Feature", "properties": { "CNPJ": 14017705000126, "AGENTE": "LILIA_VIANNA", "ACAO": "REALIZAR_PRIMEIRA_VISITA_POTENCIAL", "RAZAO_SOCIAL": "COMERCIAL_GOES_MATERIAIS_PARA_CONSTRUCAO_LTDA", "ENDERECO": "AVENIDA_NORDESTINA_1131_VILA_AMERICANA_SAO_PAULO_BRASIL", "CIDADE": "SAO_PAULO", "LATITUDE": -23.5025304, "LONGITUDE": -46.43973 }, "geometry": { "type": "Point", "coordinates": [ -46.43973, -23.5025304 ] } },
{ "type": "Feature", "properties": { "CNPJ": 41924239000135, "AGENTE": "LILIA_VIANNA", "ACAO": "REALIZAR_PRIMEIRA_VISITA_POTENCIAL", "RAZAO_SOCIAL": "ANA_LUCIA_DE_OLIVEIRA", "ENDERECO": "AVENIDA_PIRES_DO_RIO_-_ATE_1347/1348_683_VILA_AMERICANA_SAO_PAULO_BRASIL", "CIDADE": "SAO_PAULO", "LATITUDE": -23.5025532, "LONGITUDE": -46.4425649 }, "geometry": { "type": "Point", "coordinates": [ -46.4425649, -23.5025532 ] } },
{ "type": "Feature", "properties": { "CNPJ": 21430231000105, "AGENTE": "LILIA_VIANNA", "ACAO": "REALIZAR_PRIMEIRA_VISITA_POTENCIAL", "RAZAO_SOCIAL": "AURORA_DA_CONCEICAO_SANTOS", "ENDERECO": "AVENIDA_DOS_IPES_717_JARDIM_DOS_IPES_SAO_PAULO_BRASIL", "CIDADE": "SAO_PAULO", "LATITUDE": -23.502566, "LONGITUDE": -46.4153723 }, "geometry": { "type": "Point", "coordinates": [ -46.4153723, -23.502566 ] } },
{ "type": "Feature", "properties": { "CNPJ": 33342208000148, "AGENTE": "LILIA_VIANNA", "ACAO": "REALIZAR_PRIMEIRA_VISITA_POTENCIAL", "RAZAO_SOCIAL": "LUIS_FERNANDO_SANTOS_ROSAS_47932148863", "ENDERECO": "RUA_GAROPA_199_VILA_CURUCA_SAO_PAULO_BRASIL", "CIDADE": "SAO_PAULO", "LATITUDE": -23.5026145, "LONGITUDE": -46.4243263 }, "geometry": { "type": "Point", "coordinates": [ -46.4243263, -23.5026145 ] } },
{ "type": "Feature", "properties": { "CNPJ": 263423240001, "AGENTE": "LILIA_VIANNA", "ACAO": "REALIZAR_PRIMEIRA_VISITA_POTENCIAL", "RAZAO_SOCIAL": "MAURICIO_NONATO_DA_MATA", "ENDERECO": "RUA_MARIA_VIEIRA_50_CIDADE_SAO_MIGUEL_SAO_PAULO_BRASIL", "CIDADE": "SAO_PAULO", "LATITUDE": -23.5027454, "LONGITUDE": -46.4448757 }, "geometry": { "type": "Point", "coordinates": [ -46.4448757, -23.5027454 ] } },
{ "type": "Feature", "properties": { "CNPJ": 26460939000122, "AGENTE": "LILIA_VIANNA", "ACAO": "REALIZAR_PRIMEIRA_VISITA_POTENCIAL", "RAZAO_SOCIAL": "HOSANA_SOUZA_PAIXAO", "ENDERECO": "RUA_ISABEL_MORALES_DE_OLIVEIRA_MIRAGAIA_710_JARDIM_DOS_IPES_SAO_PAULO_BRASIL", "CIDADE": "SAO_PAULO", "LATITUDE": -23.5028056, "LONGITUDE": -46.415861 }, "geometry": { "type": "Point", "coordinates": [ -46.415861, -23.5028056 ] } },
{ "type": "Feature", "properties": { "CNPJ": 44669239000124, "AGENTE": "LILIA_VIANNA", "ACAO": "REALIZAR_PRIMEIRA_VISITA_POTENCIAL", "RAZAO_SOCIAL": "REALCE_HAIR_ALONGAMENTOS_E_COSMETICOS_LTDA", "ENDERECO": "AVENIDA_DOS_IPES_668_JARDIM_DOS_IPES_SAO_PAULO_BRASIL", "CIDADE": "SAO_PAULO", "LATITUDE": -23.503043, "LONGITUDE": -46.415142 }, "geometry": { "type": "Point", "coordinates": [ -46.415142, -23.503043 ] } },
{ "type": "Feature", "properties": { "CNPJ": 25095527000178, "AGENTE": "LILIA_VIANNA", "ACAO": "REALIZAR_PRIMEIRA_VISITA_POTENCIAL", "RAZAO_SOCIAL": "TAMIRIS_SASSI_MITANI", "ENDERECO": "RUA_CUPIM_NULL_VILA_CURUCA_SAO_PAULO_BRASIL", "CIDADE": "SAO_PAULO", "LATITUDE": -23.5030439, "LONGITUDE": -46.4235746 }, "geometry": { "type": "Point", "coordinates": [ -46.4235746, -23.5030439 ] } },
{ "type": "Feature", "properties": { "CNPJ": 43675653000183, "AGENTE": "LILIA_VIANNA", "ACAO": "REALIZAR_PRIMEIRA_VISITA_POTENCIAL", "RAZAO_SOCIAL": "VALSERV_COMERCIO_E_OBRAS_INDUSTRIAIS_LTDA", "ENDERECO": "RUA_OSORIO_FRANCO_VILHENA_264_VILA_NOVA_CURUCA_SAO_PAULO_BRASIL", "CIDADE": "SAO_PAULO", "LATITUDE": -23.5034096, "LONGITUDE": -46.4181152 }, "geometry": { "type": "Point", "coordinates": [ -46.4181152, -23.5034096 ] } },
{ "type": "Feature", "properties": { "CNPJ": 17192202000185, "AGENTE": "LILIA_VIANNA", "ACAO": "REALIZAR_PRIMEIRA_VISITA_POTENCIAL", "RAZAO_SOCIAL": "JAQUELINE_CORREA_DA_SILVA_CHAGAS", "ENDERECO": "RUA_CUPIM_41_VILA_CURUCA_SAO_PAULO_BRASIL", "CIDADE": "SAO_PAULO", "LATITUDE": -23.5036675, "LONGITUDE": -46.4244592 }, "geometry": { "type": "Point", "coordinates": [ -46.4244592, -23.5036675 ] } },
{ "type": "Feature", "properties": { "CNPJ": 5590113300012, "AGENTE": "LILIA_VIANNA", "ACAO": "REALIZAR_PRIMEIRA_VISITA_POTENCIAL", "RAZAO_SOCIAL": "MGS_JUNIOR_IT_SERVICES_LTDA", "ENDERECO": "RUA_CORVETA_BEBERIBE_23_CIDADE_NOVA_SAO_MIGUEL_SAO_PAULO_BRASIL", "CIDADE": "SAO_PAULO", "LATITUDE": -23.5044038, "LONGITUDE": -46.4310082 }, "geometry": { "type": "Point", "coordinates": [ -46.4310082, -23.5044038 ] } },
{ "type": "Feature", "properties": { "CNPJ": 1440705600017, "AGENTE": "LILIA_VIANNA", "ACAO": "REALIZAR_PRIMEIRA_VISITA_POTENCIAL", "RAZAO_SOCIAL": "DAMARES_SANTOS_DA_SILVA_SOUZA", "ENDERECO": "RUA_ANTONIO_CANOVA_356_CIDADE_SAO_MIGUEL_SAO_PAULO_BRASIL", "CIDADE": "SAO_PAULO", "LATITUDE": -23.5044103, "LONGITUDE": -46.4432175 }, "geometry": { "type": "Point", "coordinates": [ -46.4432175, -23.5044103 ] } },
{ "type": "Feature", "properties": { "CNPJ": 27209310000177, "AGENTE": "LILIA_VIANNA", "ACAO": "REALIZAR_PRIMEIRA_VISITA_POTENCIAL", "RAZAO_SOCIAL": "S.K._PEREIRA_BORGES_FERREIRA", "ENDERECO": "RUA_BENJAMIN_CAPUSSO_165_VILA_CURUCA_SAO_PAULO_BRASIL", "CIDADE": "SAO_PAULO", "LATITUDE": -23.5046366, "LONGITUDE": -46.4272376 }, "geometry": { "type": "Point", "coordinates": [ -46.4272376, -23.5046366 ] } },
{ "type": "Feature", "properties": { "CNPJ": 3569484100012, "AGENTE": "LILIA_VIANNA", "ACAO": "REALIZAR_PRIMEIRA_VISITA_POTENCIAL", "RAZAO_SOCIAL": "KENNEDY_SOUZA_DA_SILVA", "ENDERECO": "RUA_ALFREDO_CLEMENTE_FILHO_306_VILA_CURUCA_SAO_PAULO_BRASIL", "CIDADE": "GUARULHOS", "LATITUDE": -23.5047343, "LONGITUDE": -46.4229097 }, "geometry": { "type": "Point", "coordinates": [ -46.4229097, -23.5047343 ] } },
{ "type": "Feature", "properties": { "CNPJ": 49922922000145, "AGENTE": "LILIA_VIANNA", "ACAO": "REALIZAR_PRIMEIRA_VISITA_POTENCIAL", "RAZAO_SOCIAL": "ACM_SERVICE_CONSULTORIA_&_ASSESSORIA_EMPRESARIAL_LTDA", "ENDERECO": "RUA_OSORIO_FRANCO_VILHENA_430_VILA_NOVA_CURUCA_SAO_PAULO_BRASIL", "CIDADE": "SAO_PAULO", "LATITUDE": -23.5049664, "LONGITUDE": -46.4181253 }, "geometry": { "type": "Point", "coordinates": [ -46.4181253, -23.5049664 ] } },
{ "type": "Feature", "properties": { "CNPJ": 5067727900011, "AGENTE": "LILIA_VIANNA", "ACAO": "REALIZAR_PRIMEIRA_VISITA_POTENCIAL", "RAZAO_SOCIAL": "50.677.279_MAYARA_DE_SALES_COSTI", "ENDERECO": "RUA_GUARAITA_841_VILA_CURUCA_SAO_PAULO_BRASIL", "CIDADE": "SAO_PAULO", "LATITUDE": -23.5050809, "LONGITUDE": -46.4185604 }, "geometry": { "type": "Point", "coordinates": [ -46.4185604, -23.5050809 ] } },
{ "type": "Feature", "properties": { "CNPJ": 47148554000102, "AGENTE": "LILIA_VIANNA", "ACAO": "REALIZAR_PRIMEIRA_VISITA_POTENCIAL", "RAZAO_SOCIAL": "IVO_BENICIO_DA_SILVA", "ENDERECO": "AVENIDA_DOS_IPES_431_JARDIM_DOS_IPES_SAO_PAULO_BRASIL", "CIDADE": "SAO_PAULO", "LATITUDE": -23.5051209, "LONGITUDE": -46.4152873 }, "geometry": { "type": "Point", "coordinates": [ -46.4152873, -23.5051209 ] } },
{ "type": "Feature", "properties": { "CNPJ": 36682692000142, "AGENTE": "LILIA_VIANNA", "ACAO": "REALIZAR_PRIMEIRA_VISITA_POTENCIAL", "RAZAO_SOCIAL": "MCC_ENGENHARIA_E_CONSULTORIA_LTDA.", "ENDERECO": "RUA_ANGELINO_GUERINO_72_VILA_CURUCA_SAO_PAULO_BRASIL", "CIDADE": "SAO_PAULO", "LATITUDE": -23.5052488, "LONGITUDE": -46.4248518 }, "geometry": { "type": "Point", "coordinates": [ -46.4248518, -23.5052488 ] } },
{ "type": "Feature", "properties": { "CNPJ": 54289136000192, "AGENTE": "LILIA_VIANNA", "ACAO": "REALIZAR_PRIMEIRA_VISITA_POTENCIAL", "RAZAO_SOCIAL": "54.289.136_ANDREIA_VRENA", "ENDERECO": "RUA_ANGELINO_GUERINO_72_VILA_CURUCA_SAO_PAULO_BRASIL", "CIDADE": "SAO_PAULO", "LATITUDE": -23.5052488, "LONGITUDE": -46.4248518 }, "geometry": { "type": "Point", "coordinates": [ -46.4248518, -23.5052488 ] } },
{ "type": "Feature", "properties": { "CNPJ": 18727548000101, "AGENTE": "LILIA_VIANNA", "ACAO": "REALIZAR_PRIMEIRA_VISITA_POTENCIAL", "RAZAO_SOCIAL": "L_T_RODRIGUES_ESTACIONAMENTO", "ENDERECO": "RUA_BENJAMIN_CAPUSSO_222_VILA_CURUCA_SAO_PAULO_BRASIL", "CIDADE": "SAO_PAULO", "LATITUDE": -23.5054318, "LONGITUDE": -46.4263059 }, "geometry": { "type": "Point", "coordinates": [ -46.4263059, -23.5054318 ] } },
{ "type": "Feature", "properties": { "CNPJ": 55355626000102, "AGENTE": "LILIA_VIANNA", "ACAO": "REALIZAR_PRIMEIRA_VISITA_POTENCIAL", "RAZAO_SOCIAL": "55.355.626_MICHELLE_BRANCO_PITELLI", "ENDERECO": "RUA_EDMUNDO_ARRABAR_144_VILA_VESSONI_SAO_PAULO_BRASIL", "CIDADE": "SAO_PAULO", "LATITUDE": -23.5054582, "LONGITUDE": -46.4421262 }, "geometry": { "type": "Point", "coordinates": [ -46.4421262, -23.5054582 ] } },
{ "type": "Feature", "properties": { "CNPJ": 57195183000165, "AGENTE": "LILIA_VIANNA", "ACAO": "REALIZAR_PRIMEIRA_VISITA_POTENCIAL", "RAZAO_SOCIAL": "57.195.183_NOELIA_BRASILINA_DAS_NEVES_COSTA", "ENDERECO": "RUA_RUI_BARBOSA_LIMA_146_VILA_CURUCA_SAO_PAULO_BRASIL", "CIDADE": "SAO_PAULO", "LATITUDE": -23.5056351, "LONGITUDE": -46.4216133 }, "geometry": { "type": "Point", "coordinates": [ -46.4216133, -23.5056351 ] } },
{ "type": "Feature", "properties": { "CNPJ": 35591793000145, "AGENTE": "LILIA_VIANNA", "ACAO": "REALIZAR_PRIMEIRA_VISITA_POTENCIAL", "RAZAO_SOCIAL": "ALAC_COMERCIO_DE_ALUMINIO_E_VIDROS_LTDA", "ENDERECO": "AVENIDA_NORDESTINA_1438_VILA_AMERICANA_SAO_PAULO_BRASIL", "CIDADE": "SAO_PAULO", "LATITUDE": -23.5057339, "LONGITUDE": -46.4396067 }, "geometry": { "type": "Point", "coordinates": [ -46.4396067, -23.5057339 ] } },
{ "type": "Feature", "properties": { "CNPJ": 51525176000106, "AGENTE": "LILIA_VIANNA", "ACAO": "REALIZAR_PRIMEIRA_VISITA_POTENCIAL", "RAZAO_SOCIAL": "51.525.176_SAULO_ROGER_GUZMAN_NINA", "ENDERECO": "RUA_MOACIR_DANTAS_ITAPICURU_863_CIDADE_NOVA_SAO_MIGUEL_SAO_PAULO_BRASIL", "CIDADE": "SAO_PAULO", "LATITUDE": -23.5058785, "LONGITUDE": -46.4346501 }, "geometry": { "type": "Point", "coordinates": [ -46.4346501, -23.5058785 ] } },
{ "type": "Feature", "properties": { "CNPJ": 24888309000128, "AGENTE": "LILIA_VIANNA", "ACAO": "REALIZAR_PRIMEIRA_VISITA_POTENCIAL", "RAZAO_SOCIAL": "FELIPE_STUQUI_DE_OLIVEIRA_35061076826", "ENDERECO": "RUA_DONATO_VESSECHI_425_VILA_CURUCA_SAO_PAULO_BRASIL", "CIDADE": "SAO_PAULO", "LATITUDE": -23.5059538, "LONGITUDE": -46.4227686 }, "geometry": { "type": "Point", "coordinates": [ -46.4227686, -23.5059538 ] } },
{ "type": "Feature", "properties": { "CNPJ": 42004186000105, "AGENTE": "LILIA_VIANNA", "ACAO": "REALIZAR_PRIMEIRA_VISITA_POTENCIAL", "RAZAO_SOCIAL": "DANIEL_SOARES_DE_OLIVEIRA", "ENDERECO": "RUA_BENJAMIN_CAPUSSO_351_VILA_CURUCA_SAO_PAULO_BRASIL", "CIDADE": "SAO_PAULO", "LATITUDE": -23.5059846, "LONGITUDE": -46.4251073 }, "geometry": { "type": "Point", "coordinates": [ -46.4251073, -23.5059846 ] } },
{ "type": "Feature", "properties": { "CNPJ": 2759558800012, "AGENTE": "LILIA_VIANNA", "ACAO": "REALIZAR_PRIMEIRA_VISITA_POTENCIAL", "RAZAO_SOCIAL": "LOURIVAL_MOREIRA_DOS_SANTOS", "ENDERECO": "RUA_MOACIR_DANTAS_ITAPICURU_826_CIDADE_NOVA_SAO_MIGUEL_SAO_PAULO_BRASIL", "CIDADE": "SAO_PAULO", "LATITUDE": -23.5062337, "LONGITUDE": -46.4345049 }, "geometry": { "type": "Point", "coordinates": [ -46.4345049, -23.5062337 ] } },
{ "type": "Feature", "properties": { "CNPJ": 51011877000119, "AGENTE": "LILIA_VIANNA", "ACAO": "REALIZAR_PRIMEIRA_VISITA_POTENCIAL", "RAZAO_SOCIAL": "51.011.877_TALIA_LEITE_DOS_SANTOS", "ENDERECO": "RUA_DOMINGOS_DO_SACRAMENTO_352_VILA_CAROLINA_SAO_PAULO_BRASIL", "CIDADE": "SAO_PAULO", "LATITUDE": -23.5062411, "LONGITUDE": -46.445256 }, "geometry": { "type": "Point", "coordinates": [ -46.445256, -23.5062411 ] } },
{ "type": "Feature", "properties": { "CNPJ": 50253919000165, "AGENTE": "LILIA_VIANNA", "ACAO": "REALIZAR_PRIMEIRA_VISITA_POTENCIAL", "RAZAO_SOCIAL": "50.253.919_MARCIA_LEOSSANDRA_PAIS", "ENDERECO": "RUA_ANTONIA_RAMOS_17_PARQUE_RESIDENCIAL_D'ABRIL_SAO_PAULO_BRASIL", "CIDADE": "SAO_PAULO", "LATITUDE": -23.5066218, "LONGITUDE": -46.4296723 }, "geometry": { "type": "Point", "coordinates": [ -46.4296723, -23.5066218 ] } },
{ "type": "Feature", "properties": { "CNPJ": 51113999000116, "AGENTE": "LILIA_VIANNA", "ACAO": "REALIZAR_PRIMEIRA_VISITA_POTENCIAL", "RAZAO_SOCIAL": "JEFFERSON_DE_SOUZA_CLEMENTE", "ENDERECO": "AVENIDA_PIRES_DO_RIO_-_DE_2971/2972_A_3199/3200_3009_JARDIM_NORMA_SAO_PAULO_BRASIL", "CIDADE": "SAO_PAULO", "LATITUDE": -23.506679, "LONGITUDE": -46.443088 }, "geometry": { "type": "Point", "coordinates": [ -46.443088, -23.506679 ] } },
{ "type": "Feature", "properties": { "CNPJ": 40066486000185, "AGENTE": "LILIA_VIANNA", "ACAO": "REALIZAR_PRIMEIRA_VISITA_POTENCIAL", "RAZAO_SOCIAL": "E_C_ISRAEL", "ENDERECO": "RUA_BENJAMIN_CAPUSSO_413_VILA_CURUCA_SAO_PAULO_BRASIL", "CIDADE": "SAO_PAULO", "LATITUDE": -23.5068799, "LONGITUDE": -46.4243909 }, "geometry": { "type": "Point", "coordinates": [ -46.4243909, -23.5068799 ] } },
{ "type": "Feature", "properties": { "CNPJ": 1941959000011, "AGENTE": "LILIA_VIANNA", "ACAO": "REALIZAR_PRIMEIRA_VISITA_POTENCIAL", "RAZAO_SOCIAL": "MARCOS_PAULO_ASSUNCAO_24712203803", "ENDERECO": "RUA_DONATO_VESSECHI_529_VILA_CURUCA_SAO_PAULO_BRASIL", "CIDADE": "SAO_PAULO", "LATITUDE": -23.5069633, "LONGITUDE": -46.4228149 }, "geometry": { "type": "Point", "coordinates": [ -46.4228149, -23.5069633 ] } },
{ "type": "Feature", "properties": { "CNPJ": 1843128700017, "AGENTE": "LILIA_VIANNA", "ACAO": "REALIZAR_PRIMEIRA_VISITA_POTENCIAL", "RAZAO_SOCIAL": "SERGIO_FERNANDES_DA_SILVA_CURSOS", "ENDERECO": "RUA_PEDRO_MEIRA_543_VILA_CURUCA_SAO_PAULO_BRASIL", "CIDADE": "SAO_PAULO", "LATITUDE": -23.5070405, "LONGITUDE": -46.4215957 }, "geometry": { "type": "Point", "coordinates": [ -46.4215957, -23.5070405 ] } },
{ "type": "Feature", "properties": { "CNPJ": 26835911000122, "AGENTE": "LILIA_VIANNA", "ACAO": "REALIZAR_PRIMEIRA_VISITA_POTENCIAL", "RAZAO_SOCIAL": "GILBERTO_RODRIGUES_DOS_REIS", "ENDERECO": "RUA_PEDRO_MEIRA_559_VILA_CURUCA_SAO_PAULO_BRASIL", "CIDADE": "SAO_PAULO", "LATITUDE": -23.5070963, "LONGITUDE": -46.4217468 }, "geometry": { "type": "Point", "coordinates": [ -46.4217468, -23.5070963 ] } },
{ "type": "Feature", "properties": { "CNPJ": 22709421000129, "AGENTE": "LILIA_VIANNA", "ACAO": "REALIZAR_PRIMEIRA_VISITA_POTENCIAL", "RAZAO_SOCIAL": "RONE_PAUFERRO_DA_SILVA_22537776844", "ENDERECO": "RUA_IDA_VANUSSI_PUNTEL_32_CIDADE_NOVA_SAO_MIGUEL_SAO_PAULO_BRASIL", "CIDADE": "SAO_PAULO", "LATITUDE": -23.5071117, "LONGITUDE": -46.4325053 }, "geometry": { "type": "Point", "coordinates": [ -46.4325053, -23.5071117 ] } },
{ "type": "Feature", "properties": { "CNPJ": 27358774000145, "AGENTE": "LILIA_VIANNA", "ACAO": "REALIZAR_PRIMEIRA_VISITA_POTENCIAL", "RAZAO_SOCIAL": "JIANI_CRISTINA_PIOLOGO_26372896869", "ENDERECO": "RUA_OSORIO_FRANCO_VILHENA_1099_VILA_NOVA_CURUCA_SAO_PAULO_BRASIL", "CIDADE": "SAO_PAULO", "LATITUDE": -23.5072431, "LONGITUDE": -46.4178422 }, "geometry": { "type": "Point", "coordinates": [ -46.4178422, -23.5072431 ] } },
{ "type": "Feature", "properties": { "CNPJ": 45650265000173, "AGENTE": "LILIA_VIANNA", "ACAO": "REALIZAR_PRIMEIRA_VISITA_POTENCIAL", "RAZAO_SOCIAL": "45.650.265_GEOVANNI_NEVES_DEZUANI", "ENDERECO": "RUA_BRINCOS_DE_PRINCESA_27_VILA_CURUCA_SAO_PAULO_BRASIL", "CIDADE": "SAO_PAULO", "LATITUDE": -23.5074989, "LONGITUDE": -46.4219522 }, "geometry": { "type": "Point", "coordinates": [ -46.4219522, -23.5074989 ] } },
{ "type": "Feature", "properties": { "CNPJ": 48418063000199, "AGENTE": "LILIA_VIANNA", "ACAO": "REALIZAR_PRIMEIRA_VISITA_POTENCIAL", "RAZAO_SOCIAL": "MADUZINHA_ROUPAS_E_CALCADOS_LTDA", "ENDERECO": "RUA_RAIZ-FORTE_223_VILA_CURUCA_SAO_PAULO_BRASIL", "CIDADE": "SAO_PAULO", "LATITUDE": -23.5076693, "LONGITUDE": -46.4199013 }, "geometry": { "type": "Point", "coordinates": [ -46.4199013, -23.5076693 ] } },
{ "type": "Feature", "properties": { "CNPJ": 29129787000178, "AGENTE": "LILIA_VIANNA", "ACAO": "REALIZAR_PRIMEIRA_VISITA_POTENCIAL", "RAZAO_SOCIAL": "JR_SERAPILHA_TRANSPORTES_E_REMOCOES_LTDA", "ENDERECO": "RUA_PEDRO_MEIRA_661_VILA_CURUCA_SAO_PAULO_BRASIL", "CIDADE": "SAO_PAULO", "LATITUDE": -23.5077444, "LONGITUDE": -46.4224744 }, "geometry": { "type": "Point", "coordinates": [ -46.4224744, -23.5077444 ] } },
{ "type": "Feature", "properties": { "CNPJ": 43934562000115, "AGENTE": "LILIA_VIANNA", "ACAO": "REALIZAR_PRIMEIRA_VISITA_POTENCIAL", "RAZAO_SOCIAL": "MARCELO_MARTINS", "ENDERECO": "RUA_BENJAMIN_CAPUSSO_681_VILA_CURUCA_SAO_PAULO_BRASIL", "CIDADE": "SAO_PAULO", "LATITUDE": -23.5078064, "LONGITUDE": -46.423617 }, "geometry": { "type": "Point", "coordinates": [ -46.423617, -23.5078064 ] } },
{ "type": "Feature", "properties": { "CNPJ": 30130032000172, "AGENTE": "LILIA_VIANNA", "ACAO": "REALIZAR_PRIMEIRA_VISITA_POTENCIAL", "RAZAO_SOCIAL": "LYVIA_CAROLINE_MENEZES_ESTEVES", "ENDERECO": "AVENIDA_DAMA_ENTRE_VERDES_129_VILA_CURUCA_SAO_PAULO_BRASIL", "CIDADE": "SAO_PAULO", "LATITUDE": -23.5078402, "LONGITUDE": -46.4176845 }, "geometry": { "type": "Point", "coordinates": [ -46.4176845, -23.5078402 ] } },
{ "type": "Feature", "properties": { "CNPJ": 2938450300019, "AGENTE": "LILIA_VIANNA", "ACAO": "REALIZAR_PRIMEIRA_VISITA_POTENCIAL", "RAZAO_SOCIAL": "O_ESPECIALISTA_SERVICOS_DE_PAISAGISMO_E_JARDINAGEM_LTDA", "ENDERECO": "RUA_FAVEIRA_DO_MATO_105_JARDIM_PLANALTO_SAO_PAULO_BRASIL", "CIDADE": "SAO_PAULO", "LATITUDE": -23.5078914, "LONGITUDE": -46.4498291 }, "geometry": { "type": "Point", "coordinates": [ -46.4498291, -23.5078914 ] } },
{ "type": "Feature", "properties": { "CNPJ": 18797039000147, "AGENTE": "LILIA_VIANNA", "ACAO": "REALIZAR_PRIMEIRA_VISITA_POTENCIAL", "RAZAO_SOCIAL": "VLM_MATERIAIS_E_PRODUTOS_ODONTOLOGICOS_LTDA", "ENDERECO": "RUA_INGAZEIRA_167_PARQUE_RESIDENCIAL_D'ABRIL_SAO_PAULO_BRASIL", "CIDADE": "SAO_PAULO", "LATITUDE": -23.5080123, "LONGITUDE": -46.4296022 }, "geometry": { "type": "Point", "coordinates": [ -46.4296022, -23.5080123 ] } },
{ "type": "Feature", "properties": { "CNPJ": 38165721000124, "AGENTE": "LILIA_VIANNA", "ACAO": "REALIZAR_PRIMEIRA_VISITA_POTENCIAL", "RAZAO_SOCIAL": "RF_PREPARACOES_MECANICA_AUTOMOTIVA_LTDA", "ENDERECO": "RUA_MAURICIO_ARAUJO_MARTINS_S/N_VILA_APARECIDA_SAO_PAULO_BRASIL", "CIDADE": "SAO_PAULO", "LATITUDE": -23.5080923, "LONGITUDE": -46.4432746 }, "geometry": { "type": "Point", "coordinates": [ -46.4432746, -23.5080923 ] } },
{ "type": "Feature", "properties": { "CNPJ": 14728552000125, "AGENTE": "LILIA_VIANNA", "ACAO": "REALIZAR_PRIMEIRA_VISITA_POTENCIAL", "RAZAO_SOCIAL": "LEIDIANE_OLIVEIRA_DE_ALBUQUERQUE_MELO", "ENDERECO": "RUA_PROFESSORA_ABIGAIL_BOLSANELLI_32_VILA_CURUCA_SAO_PAULO_BRASIL", "CIDADE": "SAO_PAULO", "LATITUDE": -23.5081162, "LONGITUDE": -46.4290091 }, "geometry": { "type": "Point", "coordinates": [ -46.4290091, -23.5081162 ] } },
{ "type": "Feature", "properties": { "CNPJ": 59672939000145, "AGENTE": "LILIA_VIANNA", "ACAO": "REALIZAR_PRIMEIRA_VISITA_POTENCIAL", "RAZAO_SOCIAL": "59.672.939_KAICKE_THULER_SPINOLA", "ENDERECO": "RUA_TEJUGUACU_393_VILA_JACUI_SAO_PAULO_BRASIL", "CIDADE": "SAO_PAULO", "LATITUDE": -23.5082749, "LONGITUDE": -46.4494124 }, "geometry": { "type": "Point", "coordinates": [ -46.4494124, -23.5082749 ] } },
{ "type": "Feature", "properties": { "CNPJ": 19106030000105, "AGENTE": "LILIA_VIANNA", "ACAO": "REALIZAR_PRIMEIRA_VISITA_POTENCIAL", "RAZAO_SOCIAL": "JOSE_FLORENCIO_NETO_06317314829", "ENDERECO": "RUA_MOACIR_DANTAS_ITAPICURU_540_CIDADE_NOVA_SAO_MIGUEL_SAO_PAULO_BRASIL", "CIDADE": "SAO_PAULO", "LATITUDE": -23.5084104, "LONGITUDE": -46.4356265 }, "geometry": { "type": "Point", "coordinates": [ -46.4356265, -23.5084104 ] } },
{ "type": "Feature", "properties": { "CNPJ": 1191552200013, "AGENTE": "LILIA_VIANNA", "ACAO": "REALIZAR_PRIMEIRA_VISITA_POTENCIAL", "RAZAO_SOCIAL": "AGNALDO_CORREIA_DO_NASCIMENTO", "ENDERECO": "RUA_PEDRO_GOMES_PEREIRA_-_ATE_208/209_466A_CIDADE_NOVA_SAO_MIGUEL_SAO_PAULO_BRASIL", "CIDADE": "SAO_PAULO", "LATITUDE": -23.5084439, "LONGITUDE": -46.433146 }, "geometry": { "type": "Point", "coordinates": [ -46.433146, -23.5084439 ] } },
{ "type": "Feature", "properties": { "CNPJ": 32149020000115, "AGENTE": "LILIA_VIANNA", "ACAO": "REALIZAR_PRIMEIRA_VISITA_POTENCIAL", "RAZAO_SOCIAL": "NENNUS_DISTRIBUICAO_COMERCIO_E_SERVICOS_LTDA.", "ENDERECO": "RUA_AURELIANO_JOSE_LESSA_85_VILA_CAROLINA_SAO_PAULO_BRASIL", "CIDADE": "SAO_PAULO", "LATITUDE": -23.5084804, "LONGITUDE": -46.4440178 }, "geometry": { "type": "Point", "coordinates": [ -46.4440178, -23.5084804 ] } },
{ "type": "Feature", "properties": { "CNPJ": 45782868000129, "AGENTE": "LILIA_VIANNA", "ACAO": "REALIZAR_PRIMEIRA_VISITA_POTENCIAL", "RAZAO_SOCIAL": "LB_-_CONSTRUCOES_EMPREITA_DE_OBRAS_&_REFORMAS_EM_GERAL_LTDA", "ENDERECO": "RUA_MOSTARDAS_33_VILA_REIS_SAO_PAULO_BRASIL", "CIDADE": "SAO_PAULO", "LATITUDE": -23.5088409, "LONGITUDE": -46.4489743 }, "geometry": { "type": "Point", "coordinates": [ -46.4489743, -23.5088409 ] } },
{ "type": "Feature", "properties": { "CNPJ": 38138816000159, "AGENTE": "LILIA_VIANNA", "ACAO": "REALIZAR_PRIMEIRA_VISITA_POTENCIAL", "RAZAO_SOCIAL": "CARLITOS_ALVES", "ENDERECO": "RUA_ALICE_DILON_BRAGA_912_VILA_CURUCA_SAO_PAULO_BRASIL", "CIDADE": "SAO_PAULO", "LATITUDE": -23.5088792, "LONGITUDE": -46.4293331 }, "geometry": { "type": "Point", "coordinates": [ -46.4293331, -23.5088792 ] } },
{ "type": "Feature", "properties": { "CNPJ": 15304721000162, "AGENTE": "LILIA_VIANNA", "ACAO": "REALIZAR_PRIMEIRA_VISITA_POTENCIAL", "RAZAO_SOCIAL": "CLOVIS_ALEX_FRANCO_DE_SOUZA", "ENDERECO": "RUA_CEMBIRA_-_DE_879/880_AO_FIM_1425_VILA_CURUCA_SAO_PAULO_BRASIL", "CIDADE": "SAO_PAULO", "LATITUDE": -23.5089487, "LONGITUDE": -46.4295812 }, "geometry": { "type": "Point", "coordinates": [ -46.4295812, -23.5089487 ] } },
{ "type": "Feature", "properties": { "CNPJ": 1022069500017, "AGENTE": "LILIA_VIANNA", "ACAO": "REALIZAR_PRIMEIRA_VISITA_POTENCIAL", "RAZAO_SOCIAL": "CASTDOC_ASSESSORIA_EMPRESARIAL_E_DOCUMENTAL_LTDA", "ENDERECO": "RUA_NOZ_MOSCADA_231_VILA_NOVA_CURUCA_SAO_PAULO_BRASIL", "CIDADE": "SAO_PAULO", "LATITUDE": -23.5093543, "LONGITUDE": -46.4208649 }, "geometry": { "type": "Point", "coordinates": [ -46.4208649, -23.5093543 ] } },
{ "type": "Feature", "properties": { "CNPJ": 4628208300015, "AGENTE": "LILIA_VIANNA", "ACAO": "REALIZAR_PRIMEIRA_VISITA_POTENCIAL", "RAZAO_SOCIAL": "PAPELARIA_DA_ESQUINA_LTDA", "ENDERECO": "RUA_JOAO_NICARIO_ELEUTERIO_351_CIDADE_NOVA_SAO_MIGUEL_SAO_PAULO_BRASIL", "CIDADE": "SAO_PAULO", "LATITUDE": -23.5093618, "LONGITUDE": -46.4346088 }, "geometry": { "type": "Point", "coordinates": [ -46.4346088, -23.5093618 ] } },
{ "type": "Feature", "properties": { "CNPJ": 54077561000118, "AGENTE": "LILIA_VIANNA", "ACAO": "REALIZAR_PRIMEIRA_VISITA_POTENCIAL", "RAZAO_SOCIAL": "54.077.561_WALLACE_RODRIGUES_CALDAS", "ENDERECO": "RUA_GUARAITA_1392_VILA_CURUCA_SAO_PAULO_BRASIL", "CIDADE": "SAO_PAULO", "LATITUDE": -23.5096426, "LONGITUDE": -46.4203158 }, "geometry": { "type": "Point", "coordinates": [ -46.4203158, -23.5096426 ] } },
{ "type": "Feature", "properties": { "CNPJ": 50691277000186, "AGENTE": "LILIA_VIANNA", "ACAO": "REALIZAR_PRIMEIRA_VISITA_POTENCIAL", "RAZAO_SOCIAL": "TB_SOLUCOES_E_NEGOCIOS_LTDA", "ENDERECO": "RUA_RAINHA-MARGARIDA_S/N_VILA_CURUCA_SAO_PAULO_BRASIL", "CIDADE": "SAO_PAULO", "LATITUDE": -23.5103418, "LONGITUDE": -46.4197088 }, "geometry": { "type": "Point", "coordinates": [ -46.4197088, -23.5103418 ] } },
{ "type": "Feature", "properties": { "CNPJ": 27528039000132, "AGENTE": "LILIA_VIANNA", "ACAO": "REALIZAR_PRIMEIRA_VISITA_POTENCIAL", "RAZAO_SOCIAL": "27.528.039_SIRLEIDE_LIMA_SOUZA", "ENDERECO": "RUA_MARIA_SANTANA_943_JARDIM_CASA_PINTADA_SAO_PAULO_BRASIL", "CIDADE": "SAO_PAULO", "LATITUDE": -23.5104051, "LONGITUDE": -46.447892 }, "geometry": { "type": "Point", "coordinates": [ -46.447892, -23.5104051 ] } },
{ "type": "Feature", "properties": { "CNPJ": 2601040200016, "AGENTE": "LILIA_VIANNA", "ACAO": "REALIZAR_PRIMEIRA_VISITA_POTENCIAL", "RAZAO_SOCIAL": "DERISVALDO_MODESTO_DOS_SANTOS", "ENDERECO": "RUA_TEJUGUACU_623_VILA_JACUI_SAO_PAULO_BRASIL", "CIDADE": "SAO_PAULO", "LATITUDE": -23.5104323, "LONGITUDE": -46.4497795 }, "geometry": { "type": "Point", "coordinates": [ -46.4497795, -23.5104323 ] } },
{ "type": "Feature", "properties": { "CNPJ": 54930941000153, "AGENTE": "LILIA_VIANNA", "ACAO": "REALIZAR_PRIMEIRA_VISITA_POTENCIAL", "RAZAO_SOCIAL": "ANDERSON_S_DE_LIMA", "ENDERECO": "RUA_VLADIMIR_SINKUS_283_VILA_NOVA_CURUCA_SAO_PAULO_BRASIL", "CIDADE": "SAO_PAULO", "LATITUDE": -23.5105213, "LONGITUDE": -46.4242059 }, "geometry": { "type": "Point", "coordinates": [ -46.4242059, -23.5105213 ] } },
{ "type": "Feature", "properties": { "CNPJ": 46153192000177, "AGENTE": "LILIA_VIANNA", "ACAO": "REALIZAR_PRIMEIRA_VISITA_POTENCIAL", "RAZAO_SOCIAL": "R._S._DO_NASCIMENTO_-_CONVENIENCIA_RODRIGUES", "ENDERECO": "AVENIDA_FLAMINGO_883_VILA_NOVA_CURUCA_SAO_PAULO_BRASIL", "CIDADE": "SAO_PAULO", "LATITUDE": -23.5105528, "LONGITUDE": -46.4216455 }, "geometry": { "type": "Point", "coordinates": [ -46.4216455, -23.5105528 ] } },
{ "type": "Feature", "properties": { "CNPJ": 49908974000167, "AGENTE": "LILIA_VIANNA", "ACAO": "REALIZAR_PRIMEIRA_VISITA_POTENCIAL", "RAZAO_SOCIAL": "49.908.974_CHARLES_DE_OLIVEIRA_PAES_UESONO", "ENDERECO": "RUA_VLADIMIR_SINKUS_194_VILA_NOVA_CURUCA_SAO_PAULO_BRASIL", "CIDADE": "SAO_PAULO", "LATITUDE": -23.5105801, "LONGITUDE": -46.4252538 }, "geometry": { "type": "Point", "coordinates": [ -46.4252538, -23.5105801 ] } },
{ "type": "Feature", "properties": { "CNPJ": 14503185000161, "AGENTE": "LILIA_VIANNA", "ACAO": "REALIZAR_PRIMEIRA_VISITA_POTENCIAL", "RAZAO_SOCIAL": "M_T_DE_LIMA_MOVEIS_PLANEJADOS_E_RUSTICOS", "ENDERECO": "AVENIDA_NORDESTINA_1831_CIDADE_NOVA_SAO_MIGUEL_SAO_PAULO_BRASIL", "CIDADE": "SAO_PAULO", "LATITUDE": -23.510874, "LONGITUDE": -46.4376151 }, "geometry": { "type": "Point", "coordinates": [ -46.4376151, -23.510874 ] } },
{ "type": "Feature", "properties": { "CNPJ": 39315377000175, "AGENTE": "LILIA_VIANNA", "ACAO": "REALIZAR_PRIMEIRA_VISITA_POTENCIAL", "RAZAO_SOCIAL": "W_J_DA_SILVA_TRANSPORTE_DE_CARGAS", "ENDERECO": "RUA_PARREIRA-BRAVA_60_VILA_CURUCA_SAO_PAULO_BRASIL", "CIDADE": "SANTO_ANASTACIO", "LATITUDE": -23.511071, "LONGITUDE": -46.4240253 }, "geometry": { "type": "Point", "coordinates": [ -46.4240253, -23.511071 ] } },
{ "type": "Feature", "properties": { "CNPJ": 12145286000182, "AGENTE": "LILIA_VIANNA", "ACAO": "REALIZAR_PRIMEIRA_VISITA_POTENCIAL", "RAZAO_SOCIAL": "MARIA_DO_SOCORRO_DE_OLIVEIRA_MIRANDA", "ENDERECO": "RUA_VITORIA_CONCARINI_12_VILA_NOVA_CURUCA_SAO_PAULO_BRASIL", "CIDADE": "SAO_PAULO", "LATITUDE": -23.5110862, "LONGITUDE": -46.4233962 }, "geometry": { "type": "Point", "coordinates": [ -46.4233962, -23.5110862 ] } },
{ "type": "Feature", "properties": { "CNPJ": 61236964000128, "AGENTE": "LILIA_VIANNA", "ACAO": "REALIZAR_PRIMEIRA_VISITA_POTENCIAL", "RAZAO_SOCIAL": "FRANTEC_ENGENHARIA_LTDA", "ENDERECO": "AVENIDA_NORDESTINA_3335_V._NOVA_CURUCA_SAO_PAULO_BRASIL", "CIDADE": "SAO_PAULO", "LATITUDE": -23.5111752, "LONGITUDE": -46.4288103 }, "geometry": { "type": "Point", "coordinates": [ -46.4288103, -23.5111752 ] } },
{ "type": "Feature", "properties": { "CNPJ": 37919652000134, "AGENTE": "LILIA_VIANNA", "ACAO": "REALIZAR_PRIMEIRA_VISITA_POTENCIAL", "RAZAO_SOCIAL": "RITA_DE_KACIA_FERREIRA_GONCALVES", "ENDERECO": "AVENIDA_FLAMINGO_1_VILA_NOVA_CURUCA_SAO_PAULO_BRASIL", "CIDADE": "SAO_PAULO", "LATITUDE": -23.5111935, "LONGITUDE": -46.4208041 }, "geometry": { "type": "Point", "coordinates": [ -46.4208041, -23.5111935 ] } },
{ "type": "Feature", "properties": { "CNPJ": 46568609000162, "AGENTE": "LILIA_VIANNA", "ACAO": "REALIZAR_PRIMEIRA_VISITA_POTENCIAL", "RAZAO_SOCIAL": "46.568.609_FABIO_ALEXANDRE_DA_SILVA", "ENDERECO": "RUA_ERVA_DE_OVELHA_381_JARDIM_CASA_PINTADA_SAO_PAULO_BRASIL", "CIDADE": "SAO_PAULO", "LATITUDE": -23.51144, "LONGITUDE": -46.4454994 }, "geometry": { "type": "Point", "coordinates": [ -46.4454994, -23.51144 ] } },
{ "type": "Feature", "properties": { "CNPJ": 471067910001, "AGENTE": "LILIA_VIANNA", "ACAO": "REALIZAR_PRIMEIRA_VISITA_POTENCIAL", "RAZAO_SOCIAL": "VITOR_HUGO_BEVILAQUA", "ENDERECO": "RUA_PARREIRA-BRAVA_3510_VILA_CURUCA_SAO_PAULO_BRASIL", "CIDADE": "TIETE", "LATITUDE": -23.5121407, "LONGITUDE": -46.4246946 }, "geometry": { "type": "Point", "coordinates": [ -46.4246946, -23.5121407 ] } },
{ "type": "Feature", "properties": { "CNPJ": 34095251000119, "AGENTE": "LILIA_VIANNA", "ACAO": "REALIZAR_PRIMEIRA_VISITA_POTENCIAL", "RAZAO_SOCIAL": "SIMONE_DELLEVEDOVE", "ENDERECO": "RUA_PARREIRA-BRAVA_858_VILA_CURUCA_SAO_PAULO_BRASIL", "CIDADE": "SAO_MIGUEL_ARCANJO", "LATITUDE": -23.5121407, "LONGITUDE": -46.4246946 }, "geometry": { "type": "Point", "coordinates": [ -46.4246946, -23.5121407 ] } },
{ "type": "Feature", "properties": { "CNPJ": 5386846600017, "AGENTE": "LILIA_VIANNA", "ACAO": "REALIZAR_PRIMEIRA_VISITA_POTENCIAL", "RAZAO_SOCIAL": "53.868.466_BARBARAH_LORANYNE_SALGUEIRO_SANTOS", "ENDERECO": "AVENIDA_NORDESTINA_2800_CIDADE_NOVA_SAO_MIGUEL_SAO_PAULO_BRASIL", "CIDADE": "SAO_PAULO", "LATITUDE": -23.5121762, "LONGITUDE": -46.4321735 }, "geometry": { "type": "Point", "coordinates": [ -46.4321735, -23.5121762 ] } },
{ "type": "Feature", "properties": { "CNPJ": 57925812000165, "AGENTE": "LILIA_VIANNA", "ACAO": "REALIZAR_PRIMEIRA_VISITA_POTENCIAL", "RAZAO_SOCIAL": "57.925.812_EVANDRO_DIAS_SATO", "ENDERECO": "AVENIDA_NORDESTINA_2780_CIDADE_NOVA_SAO_MIGUEL_SAO_PAULO_BRASIL", "CIDADE": "SAO_PAULO", "LATITUDE": -23.5123738, "LONGITUDE": -46.4323315 }, "geometry": { "type": "Point", "coordinates": [ -46.4323315, -23.5123738 ] } },
{ "type": "Feature", "properties": { "CNPJ": 47338941000101, "AGENTE": "LILIA_VIANNA", "ACAO": "REALIZAR_PRIMEIRA_VISITA_POTENCIAL", "RAZAO_SOCIAL": "47.338.941_FLAVIO_LUIS_LIMA_DE_PINHO", "ENDERECO": "RUA_PERUVA_PRETA_251_JARDIM_CASA_PINTADA_SAO_PAULO_BRASIL", "CIDADE": "SAO_PAULO", "LATITUDE": -23.512452, "LONGITUDE": -46.4479385 }, "geometry": { "type": "Point", "coordinates": [ -46.4479385, -23.512452 ] } },
{ "type": "Feature", "properties": { "CNPJ": 52158076000143, "AGENTE": "LILIA_VIANNA", "ACAO": "REALIZAR_PRIMEIRA_VISITA_POTENCIAL", "RAZAO_SOCIAL": "52.158.076_LUIZ_RICARDO_FRANCISCO_PROFETA_LEBRAO", "ENDERECO": "AVENIDA_ANCARINHAS_403_JARDIM_LAJEADO_SAO_PAULO_BRASIL", "CIDADE": "SAO_PAULO", "LATITUDE": -23.5125425, "LONGITUDE": -46.4410044 }, "geometry": { "type": "Point", "coordinates": [ -46.4410044, -23.5125425 ] } },
{ "type": "Feature", "properties": { "CNPJ": 23831697000148, "AGENTE": "LILIA_VIANNA", "ACAO": "REALIZAR_PRIMEIRA_VISITA_POTENCIAL", "RAZAO_SOCIAL": "RODRIGO_MESSIAS_CARNEIRO", "ENDERECO": "RUA_MANOEL_RODRIGUES_DA_ROCHA_337_PARQUE_SANTA_RITA_SAO_PAULO_BRASIL", "CIDADE": "SAO_PAULO", "LATITUDE": -23.5125722, "LONGITUDE": -46.4171121 }, "geometry": { "type": "Point", "coordinates": [ -46.4171121, -23.5125722 ] } },
{ "type": "Feature", "properties": { "CNPJ": 50511755000129, "AGENTE": "LILIA_VIANNA", "ACAO": "REALIZAR_PRIMEIRA_VISITA_POTENCIAL", "RAZAO_SOCIAL": "ADRIANA_DA_ROCHA_DE_OLIVEIRA", "ENDERECO": "RUA_OTONIEL_MARQUES_TEIXEIRA_101_PARQUE_SANTA_RITA_SAO_PAULO_BRASIL", "CIDADE": "SAO_PAULO", "LATITUDE": -23.5127363, "LONGITUDE": -46.4163352 }, "geometry": { "type": "Point", "coordinates": [ -46.4163352, -23.5127363 ] } },