{
"type": "FeatureCollection",
"name": "LILIA_VIANNA",
"crs": { "type": "name", "properties": { "name": "urn:ogc:def:crs:OGC:1.3:CRS84" } },
"xy_coordinate_resolution": 1e-15,
"features": [
{ "type": "Feature", "properties": { "CNPJ": 1050792000171, "AGENTE": "LILIA_VIANNA", "ACAO": "REALIZAR_SEGUNDA_VISITA", "RAZAO_SOCIAL": "RESTAURANTE_E_LANCHONETE_IRMAOS_MOITINHO_LTDA_-_OS_MANOS", "ENDERECO": "RUAMIGUELANGELOLAPENA_179_SAOMIGUELPAULISTA_SAOPAULO", "CIDADE": "SAO_PAULO", "LATITUDE": -23.4919558, "LONGITUDE": -46.4419436 }, "geometry": { "type": "Point", "coordinates": [ -46.4419436, -23.4919558 ] } },
{ "type": "Feature", "properties": { "CNPJ": 59890461000120, "AGENTE": "LILIA_VIANNA", "ACAO": "REALIZAR_SEGUNDA_VISITA", "RAZAO_SOCIAL": "59.890.461_RENATA_SALIMENI_PEDROZO_-_HOME_BELEZA", "ENDERECO": "RUAJOSEOTONI_80_SAOMIGUELPAULISTA_SAOPAULO", "CIDADE": "SAO_PAULO", "LATITUDE": -23.4932024, "LONGITUDE": -46.4399996 }, "geometry": { "type": "Point", "coordinates": [ -46.4399996, -23.4932024 ] } },
{ "type": "Feature", "properties": { "CNPJ": 22629270000107, "AGENTE": "LILIA_VIANNA", "ACAO": "REALIZAR_SEGUNDA_VISITA", "RAZAO_SOCIAL": "LANCHONETE_TOP_BURGUER_LTDA_-_CHAPARRAL", "ENDERECO": "RUAJOSEOTONI_31_SAOMIGUELPAULISTA_SAOPAULO", "CIDADE": "SAO_PAULO", "LATITUDE": -23.4933585, "LONGITUDE": -46.440339 }, "geometry": { "type": "Point", "coordinates": [ -46.440339, -23.4933585 ] } },
{ "type": "Feature", "properties": { "CNPJ": 56069683000198, "AGENTE": "LILIA_VIANNA", "ACAO": "REALIZAR_SEGUNDA_VISITA", "RAZAO_SOCIAL": "LUXO_OUTLET_STORE_LTDA_-_LUXO_STORE", "ENDERECO": "AVENIDAMARECHALTITO_283_SAOMIGUELPAULISTA_SAOPAULO", "CIDADE": "SAO_PAULO", "LATITUDE": -23.4934017, "LONGITUDE": -46.442834 }, "geometry": { "type": "Point", "coordinates": [ -46.442834, -23.4934017 ] } },
{ "type": "Feature", "properties": { "CNPJ": 1355008000133, "AGENTE": "LILIA_VIANNA", "ACAO": "REALIZAR_SEGUNDA_VISITA", "RAZAO_SOCIAL": "LANCHONETE_G.M.D._LTDA_-_LANCHONETE_GMD", "ENDERECO": "AVENIDAMARECHALTITO_2615_SAOMIGUELPAULISTA_SAOPAULO", "CIDADE": "SAO_PAULO", "LATITUDE": -23.4938766, "LONGITUDE": -46.4204026 }, "geometry": { "type": "Point", "coordinates": [ -46.4204026, -23.4938766 ] } },
{ "type": "Feature", "properties": { "CNPJ": 21884616000142, "AGENTE": "LILIA_VIANNA", "ACAO": "REALIZAR_SEGUNDA_VISITA", "RAZAO_SOCIAL": "LUCAS_ALVES_SANTOS_40336471807_-_NICK_CELLB_CONSERTO_CELULAR", "ENDERECO": "AVENIDAMARECHALTITO_955_SAOMIGUELPAULISTA_SAOPAULO", "CIDADE": "SAO_PAULO", "LATITUDE": -23.4948998, "LONGITUDE": -46.4365131 }, "geometry": { "type": "Point", "coordinates": [ -46.4365131, -23.4948998 ] } },
{ "type": "Feature", "properties": { "CNPJ": 32608680000117, "AGENTE": "LILIA_VIANNA", "ACAO": "REALIZAR_SEGUNDA_VISITA", "RAZAO_SOCIAL": "ALEX_ROGERIO_CARLETO_CALCADOS_-_BANANA_SHOCK", "ENDERECO": "AVENIDAMARECHALTITO_1069_SAOMIGUELPAULISTA_SAOPAULO", "CIDADE": "SAO_PAULO", "LATITUDE": -23.4950291, "LONGITUDE": -46.435421 }, "geometry": { "type": "Point", "coordinates": [ -46.435421, -23.4950291 ] } },
{ "type": "Feature", "properties": { "CNPJ": 38046549000190, "AGENTE": "LILIA_VIANNA", "ACAO": "REALIZAR_SEGUNDA_VISITA", "RAZAO_SOCIAL": "KOMFORTHOUSE_SOFAS_LTDA_-_CONFORT_HOUSE", "ENDERECO": "AVENIDAMARECHALTITO_1401_SAOMIGUELPAULISTA_SAOPAULO", "CIDADE": "SAO_PAULO", "LATITUDE": -23.4952634, "LONGITUDE": -46.4321923 }, "geometry": { "type": "Point", "coordinates": [ -46.4321923, -23.4952634 ] } },
{ "type": "Feature", "properties": { "CNPJ": 32463063000170, "AGENTE": "LILIA_VIANNA", "ACAO": "REALIZAR_SEGUNDA_VISITA", "RAZAO_SOCIAL": "SIMONE_DOS_SANTOS_SILVA_28469885871_-_STUDIO_TELLES", "ENDERECO": "RUALUIZAMORIMCOSTA_23_VILACAROLINA_SAOPAULO", "CIDADE": "SAO_PAULO", "LATITUDE": -23.5058291, "LONGITUDE": -46.4430802 }, "geometry": { "type": "Point", "coordinates": [ -46.4430802, -23.5058291 ] } },
{ "type": "Feature", "properties": { "CNPJ": 25292329000102, "AGENTE": "LILIA_VIANNA", "ACAO": "REALIZAR_SEGUNDA_VISITA", "RAZAO_SOCIAL": "MARIA_CHRISTINA_DE_AMORIM_DISTRIBUIDORA_DE_PECAS_-_RADIADORES_CURUCA", "ENDERECO": "RUACEMBIRA_1420_VILACURUCA_SAOPAULO", "CIDADE": "SAO_PAULO", "LATITUDE": -23.5090098, "LONGITUDE": -46.429445 }, "geometry": { "type": "Point", "coordinates": [ -46.429445, -23.5090098 ] } },
{ "type": "Feature", "properties": { "CNPJ": 31527907000137, "AGENTE": "LILIA_VIANNA", "ACAO": "REALIZAR_SEGUNDA_VISITA", "RAZAO_SOCIAL": "RAUL_SCHUMMACHER_DE_SOUSA_-_CASA_DAS_MANTAS", "ENDERECO": "RUASAOJOSE_17_MARANHAO_SAOPAULO", "CIDADE": "SAO_PAULO", "LATITUDE": -23.5303601, "LONGITUDE": -46.5605013 }, "geometry": { "type": "Point", "coordinates": [ -46.5605013, -23.5303601 ] } },
{ "type": "Feature", "properties": { "CNPJ": 20247900000145, "AGENTE": "LILIA_VIANNA", "ACAO": "REALIZAR_SEGUNDA_VISITA", "RAZAO_SOCIAL": "OPTICAS_ADONAI_LTDA_-_OPTICAS_ADONAI_LTDA", "ENDERECO": "RUACAXIU_3_CIDADEANTONIOESTEVAODECARVALHO_SAOPAULO", "CIDADE": "SAO_PAULO", "LATITUDE": -23.5354132, "LONGITUDE": -46.467997 }, "geometry": { "type": "Point", "coordinates": [ -46.467997, -23.5354132 ] } },
{ "type": "Feature", "properties": { "CNPJ": 33183478000153, "AGENTE": "LILIA_VIANNA", "ACAO": "REALIZAR_SEGUNDA_VISITA", "RAZAO_SOCIAL": "33.183.478_DUANE_ANGELICA_DA_CUNHA_-_CESTAS_MELL", "ENDERECO": "RUAITAGIMIRIM_26_JARDIMCLEIDE_SAOPAULO", "CIDADE": "SAO_PAULO", "LATITUDE": -23.5375025, "LONGITUDE": -46.4567978 }, "geometry": { "type": "Point", "coordinates": [ -46.4567978, -23.5375025 ] } },
{ "type": "Feature", "properties": { "CNPJ": 27937221000147, "AGENTE": "LILIA_VIANNA", "ACAO": "REALIZAR_SEGUNDA_VISITA", "RAZAO_SOCIAL": "NICK_KIDS_MODA_INFANTIL_LTDA_-_NICK_KIDS_MODA_INFANTIL", "ENDERECO": "RUASALVADORGIANETTI_812_GUAIANASES_SAOPAULO", "CIDADE": "SAO_PAULO", "LATITUDE": -23.5428881, "LONGITUDE": -46.4145054 }, "geometry": { "type": "Point", "coordinates": [ -46.4145054, -23.5428881 ] } },
{ "type": "Feature", "properties": { "CNPJ": 22283845000174, "AGENTE": "LILIA_VIANNA", "ACAO": "REALIZAR_SEGUNDA_VISITA", "RAZAO_SOCIAL": "JOSE_CARLOS_BRANDAO_GOMES_35904947860_-_JOSE_CARLOS_BRANDAO", "ENDERECO": "ESTRADANOSSASENHORADAFONTE_20_JARDIMMARPU_SAOPAULO", "CIDADE": "SAO_PAULO", "LATITUDE": -23.5443824, "LONGITUDE": -46.411999 }, "geometry": { "type": "Point", "coordinates": [ -46.411999, -23.5443824 ] } },
{ "type": "Feature", "properties": { "CNPJ": 58906613000172, "AGENTE": "LILIA_VIANNA", "ACAO": "REALIZAR_SEGUNDA_VISITA", "RAZAO_SOCIAL": "58.906.613_INGRID_FERREIRA_RODRIGUES_-_DRA_INGRID_RODRIGUES_ESTETICA_AVANCADA_E_SAUDE", "ENDERECO": "RUAPROFESSORMELOPAIVA_43_VILALOURDES_SAOPAULO", "CIDADE": "SAO_PAULO", "LATITUDE": -23.5444454, "LONGITUDE": -46.4167844 }, "geometry": { "type": "Point", "coordinates": [ -46.4167844, -23.5444454 ] } },
{ "type": "Feature", "properties": { "CNPJ": 27232717000115, "AGENTE": "LILIA_VIANNA", "ACAO": "REALIZAR_SEGUNDA_VISITA", "RAZAO_SOCIAL": "LARISSA_COSTA_FAZOLLO_46122641855_-_LARY_LINGERIE", "ENDERECO": "RUAOTELOAUGUSTORIBEIRO_318_GUAIANASES_SAOPAULO", "CIDADE": "SAO_PAULO", "LATITUDE": -23.5465923, "LONGITUDE": -46.4091786 }, "geometry": { "type": "Point", "coordinates": [ -46.4091786, -23.5465923 ] } },
{ "type": "Feature", "properties": { "CNPJ": 47751157000112, "AGENTE": "LILIA_VIANNA", "ACAO": "REALIZAR_SEGUNDA_VISITA", "RAZAO_SOCIAL": "DEK_FIT_ACADEMIA_LTDA_-_DEK_FIT_ACADEMIA", "ENDERECO": "RUAOTELOAUGUSTORIBEIRO_591_GUAIANASES_SAOPAULO", "CIDADE": "SAO_PAULO", "LATITUDE": -23.5488886, "LONGITUDE": -46.407779 }, "geometry": { "type": "Point", "coordinates": [ -46.407779, -23.5488886 ] } },
{ "type": "Feature", "properties": { "CNPJ": 45307927000107, "AGENTE": "LILIA_VIANNA", "ACAO": "REALIZAR_SEGUNDA_VISITA", "RAZAO_SOCIAL": "45.307.927_PAULA_DE_JESUS_LIMA_NOGUEIRA_-_PAULINHA_EMBALAGENS_E_FESTAS", "ENDERECO": "RUAOTELOAUGUSTORIBEIRO_657_GUAIANASES_SAOPAULO", "CIDADE": "SAO_PAULO", "LATITUDE": -23.5491177, "LONGITUDE": -46.4076924 }, "geometry": { "type": "Point", "coordinates": [ -46.4076924, -23.5491177 ] } },
{ "type": "Feature", "properties": { "CNPJ": 32010953000127, "AGENTE": "LILIA_VIANNA", "ACAO": "REALIZAR_SEGUNDA_VISITA", "RAZAO_SOCIAL": "DOUGLAS_GOMES_BARCELOS_22964107823_-_OTICA_JUDA", "ENDERECO": "RUAOTELOAUGUSTORIBEIRO_760_GUAIANASES_SAOPAULO", "CIDADE": "SAO_PAULO", "LATITUDE": -23.5499189, "LONGITUDE": -46.4073598 }, "geometry": { "type": "Point", "coordinates": [ -46.4073598, -23.5499189 ] } },
{ "type": "Feature", "properties": { "CNPJ": 50849747000197, "AGENTE": "LILIA_VIANNA", "ACAO": "REALIZAR_SEGUNDA_VISITA", "RAZAO_SOCIAL": "ACADEMIA_CAIMAN_MONSTER_FIT_LTDA_-_ACADEMIA_CAIMAM_MONSTER_FIT", "ENDERECO": "AVENIDAMIGUELDAFONSECA_1502_JARDIMSAOPAULO_SAOPAULO", "CIDADE": "SAO_PAULO", "LATITUDE": -23.5590508, "LONGITUDE": -46.4037286 }, "geometry": { "type": "Point", "coordinates": [ -46.4037286, -23.5590508 ] } },
{ "type": "Feature", "properties": { "CNPJ": 50279921000103, "AGENTE": "LILIA_VIANNA", "ACAO": "REALIZAR_SEGUNDA_VISITA", "RAZAO_SOCIAL": "50.279.921_THAIS_FERNANDA_RAFAEL_DOS_SANTOS_-_ATELIE_THAIS_FERNANDA", "ENDERECO": "AVENIDAMIGUELACHIOLEDAFONSECA_1331_JARDIMSAOPAULO_SAOPAULO", "CIDADE": "SAO_PAULO", "LATITUDE": -23.5591555, "LONGITUDE": -46.4021938 }, "geometry": { "type": "Point", "coordinates": [ -46.4021938, -23.5591555 ] } },
{ "type": "Feature", "properties": { "CNPJ": 44775456000107, "AGENTE": "LILIA_VIANNA", "ACAO": "REALIZAR_SEGUNDA_VISITA", "RAZAO_SOCIAL": "44.775.456_ALYSSON_MESSIAS_SILVA_ALVES_-_SALGATERIANK", "ENDERECO": "RUABARAOANTONIOLUISDETEFE_3_GUAIANASES_SAOPAULO", "CIDADE": "SAO_PAULO", "LATITUDE": -23.5662381, "LONGITUDE": -46.4097988 }, "geometry": { "type": "Point", "coordinates": [ -46.4097988, -23.5662381 ] } },
{ "type": "Feature", "properties": { "CNPJ": 58385433000192, "AGENTE": "LILIA_VIANNA", "ACAO": "REALIZAR_SEGUNDA_VISITA", "RAZAO_SOCIAL": "58.385.433_EDNILSON_OLIVEIRA_SANTOS_-_EDINILSON_OLIVEIRA_SANTOS", "ENDERECO": "RUACACHOEIRACAMALEAO_46_CONJUNTOHABITACIONALINACIOMONTEIRO_SAOPAULO", "CIDADE": "SAO_PAULO", "LATITUDE": -23.5693353, "LONGITUDE": -46.4011898 }, "geometry": { "type": "Point", "coordinates": [ -46.4011898, -23.5693353 ] } },
{ "type": "Feature", "properties": { "CNPJ": 36403866000190, "AGENTE": "LILIA_VIANNA", "ACAO": "REALIZAR_SEGUNDA_VISITA", "RAZAO_SOCIAL": "36.403.866_LUCIANO_MOISES_BATISTA_SOARES_-_PAI_E_FILHO", "ENDERECO": "RUAREGRESSOFELIZ_661_CONJUNTOHABITACIONALINACIOMONTEIRO_SAOPAULO", "CIDADE": "SAO_PAULO", "LATITUDE": -23.5701415, "LONGITUDE": -46.4011069 }, "geometry": { "type": "Point", "coordinates": [ -46.4011069, -23.5701415 ] } },
{ "type": "Feature", "properties": { "CNPJ": 30997179000164, "AGENTE": "LILIA_VIANNA", "ACAO": "REALIZAR_SEGUNDA_VISITA", "RAZAO_SOCIAL": "FABIO_DA_COSTA_17417525822_-_SOUD_GARAGEM", "ENDERECO": "RUAIGARAPESANTACRUZ_291_CONJUNTOHABITACIONALINACIOMONTEIRO_SAOPAULO", "CIDADE": "SAO_PAULO", "LATITUDE": -23.5703574, "LONGITUDE": -46.4040288 }, "geometry": { "type": "Point", "coordinates": [ -46.4040288, -23.5703574 ] } },
{ "type": "Feature", "properties": { "CNPJ": 58132547000120, "AGENTE": "LILIA_VIANNA", "ACAO": "REALIZAR_SEGUNDA_VISITA", "RAZAO_SOCIAL": "58.132.547_PAULO_ALMIR_DE_LIMA_-_COLMEIA_RESTAURANTE", "ENDERECO": "RUAIGARAPEDADIANA_103_CONJUNTOHABITACIONALINACIOMONTEIRO_SAOPAULO", "CIDADE": "SAO_PAULO", "LATITUDE": -23.5718301, "LONGITUDE": -46.4036095 }, "geometry": { "type": "Point", "coordinates": [ -46.4036095, -23.5718301 ] } },
{ "type": "Feature", "properties": { "CNPJ": 53544782000196, "AGENTE": "LILIA_VIANNA", "ACAO": "REALIZAR_SEGUNDA_VISITA", "RAZAO_SOCIAL": "53.544.782_TELMA_DE_OLIVEIRA_MIRANDA_-_TELMA_DE_OLIVEIRA_MIRANDA", "ENDERECO": "RUAJOSEARIGO_109_JARDIMNOSSASENHORADOCARMO_SAOPAULO", "CIDADE": "SAO_PAULO", "LATITUDE": -23.5658965, "LONGITUDE": -46.4575449 }, "geometry": { "type": "Point", "coordinates": [ -46.4575449, -23.5658965 ] } },
{ "type": "Feature", "properties": { "CNPJ": 8795034000121, "AGENTE": "LILIA_VIANNA", "ACAO": "REALIZAR_SEGUNDA_VISITA", "RAZAO_SOCIAL": "JOSE_EVILEUDO_FERNANDES_DE_SOUSA_-_LEO_VARIEDADES", "ENDERECO": "RUACACHOEIRAMACARANDUBA_100_CONJUNTOHABITACIONALINACIOMONTEIRO_SAOPAULO", "CIDADE": "SAO_PAULO", "LATITUDE": -23.5726473, "LONGITUDE": -46.3994785 }, "geometry": { "type": "Point", "coordinates": [ -46.3994785, -23.5726473 ] } },
{ "type": "Feature", "properties": { "CNPJ": 45904650000108, "AGENTE": "LILIA_VIANNA", "ACAO": "REALIZAR_SEGUNDA_VISITA", "RAZAO_SOCIAL": "45.904.650_ANDRE_MENEZES_DOS_SANTOS_-_ANDRE_MENEZES", "ENDERECO": "RUAIGARAPEDABELAAURORA_11_CONJUNTOHABITACIONALINACIOMONTEIRO_SAOPAULO", "CIDADE": "SAO_PAULO", "LATITUDE": -23.5729839, "LONGITUDE": -46.3995748 }, "geometry": { "type": "Point", "coordinates": [ -46.3995748, -23.5729839 ] } },
{ "type": "Feature", "properties": { "CNPJ": 23500530000102, "AGENTE": "LILIA_VIANNA", "ACAO": "REALIZAR_SEGUNDA_VISITA", "RAZAO_SOCIAL": "MARINHO_BAZAR_&_PAPELARIA_LTDA_-_BAZAR_MARINHO_E_BAZAR_PAPELARIA", "ENDERECO": "RUAIGARAPEDABELAAURORA_11_CONJUNTOHABITACIONALINACIOMONTEIRO_SAOPAULO", "CIDADE": "SAO_PAULO", "LATITUDE": -23.5729921, "LONGITUDE": -46.3996127 }, "geometry": { "type": "Point", "coordinates": [ -46.3996127, -23.5729921 ] } },
{ "type": "Feature", "properties": { "CNPJ": 37970525000160, "AGENTE": "LILIA_VIANNA", "ACAO": "REALIZAR_SEGUNDA_VISITA", "RAZAO_SOCIAL": "37.970.525_GRAZIELE_VICENTE_FERREIRA_-_COMIDA_CASEIRA_DA_VILA", "ENDERECO": "RUACOUTINHOEMELO_7084_CONJUNTOHABITACIONALSITIOCO_SAOPAULO", "CIDADE": "SAO_PAULO", "LATITUDE": -23.5803599, "LONGITUDE": -46.3874201 }, "geometry": { "type": "Point", "coordinates": [ -46.3874201, -23.5803599 ] } },
{ "type": "Feature", "properties": { "CNPJ": 61351184000129, "AGENTE": "LILIA_VIANNA", "ACAO": "REALIZAR_SEGUNDA_VISITA", "RAZAO_SOCIAL": "SLYFLEX_MANGUEIRAS_E_CONEXOES_LTDA_-_SLYFKEX_MANGUEIRAS", "ENDERECO": "RUAJOHNSPEERS_1001_JARDIMHELIAN_SAOPAULO", "CIDADE": "SAO_PAULO", "LATITUDE": -23.5688817, "LONGITUDE": -46.4588003 }, "geometry": { "type": "Point", "coordinates": [ -46.4588003, -23.5688817 ] } },
{ "type": "Feature", "properties": { "CNPJ": 23614154000179, "AGENTE": "LILIA_VIANNA", "ACAO": "REALIZAR_SEGUNDA_VISITA", "RAZAO_SOCIAL": "ESTELITA_ROSA_DE_JESUS_FERREIRA_02952455813_-_SPACO_ESTER_FERREIRA", "ENDERECO": "RUACABOCLADALUANOVA_57_CONJUNTOHABITACIONALCASTROALVES_SAOPAULO", "CIDADE": "SAO_PAULO", "LATITUDE": -23.5810372, "LONGITUDE": -46.404085 }, "geometry": { "type": "Point", "coordinates": [ -46.404085, -23.5810372 ] } },
{ "type": "Feature", "properties": { "CNPJ": 41388245000115, "AGENTE": "LILIA_VIANNA", "ACAO": "REALIZAR_SEGUNDA_VISITA", "RAZAO_SOCIAL": "FELLYPE_EDGARD_ARAUJO_DA_SILVA_13569926761_-_DM_MODAS", "ENDERECO": "AVENIDASOUZARAMOS_813_GUAIANASES_SAOPAULO", "CIDADE": "SAO_PAULO", "LATITUDE": -23.581043, "LONGITUDE": -46.4110293 }, "geometry": { "type": "Point", "coordinates": [ -46.4110293, -23.581043 ] } },
{ "type": "Feature", "properties": { "CNPJ": 42962870000191, "AGENTE": "LILIA_VIANNA", "ACAO": "REALIZAR_SEGUNDA_VISITA", "RAZAO_SOCIAL": "42.962.870_MIRELLA_DEUSA_PINHEIRO_PINTO_-_TANIA_KIDS", "ENDERECO": "AVENIDASOUZARAMOS_478_GUAIANASES_SAOPAULO", "CIDADE": "SAO_PAULO", "LATITUDE": -23.5824977, "LONGITUDE": -46.4094648 }, "geometry": { "type": "Point", "coordinates": [ -46.4094648, -23.5824977 ] } },
{ "type": "Feature", "properties": { "CNPJ": 60343696000180, "AGENTE": "LILIA_VIANNA", "ACAO": "REALIZAR_SEGUNDA_VISITA", "RAZAO_SOCIAL": "FEST_CAR_COMERCIO_DE_AUTO_PECAS_LTDA_-_FAST_CAR", "ENDERECO": "RUAARNALDOBONAVENTURA_15_CIDADETIRADENTES_SAOPAULO", "CIDADE": "SAO_PAULO", "LATITUDE": -23.5847577, "LONGITUDE": -46.4087888 }, "geometry": { "type": "Point", "coordinates": [ -46.4087888, -23.5847577 ] } },
{ "type": "Feature", "properties": { "CNPJ": 59061898000150, "AGENTE": "LILIA_VIANNA", "ACAO": "REALIZAR_SEGUNDA_VISITA", "RAZAO_SOCIAL": "59.061.898_FABIANE_DOS_SANTOS_SILVA_-_CAFETEIRA_YELLON_COFFEE", "ENDERECO": "RUAARNALDOBONAVENTURA_37_CIDADETIRADENTES_SAOPAULO", "CIDADE": "SAO_PAULO", "LATITUDE": -23.5850238, "LONGITUDE": -46.4088244 }, "geometry": { "type": "Point", "coordinates": [ -46.4088244, -23.5850238 ] } },
{ "type": "Feature", "properties": { "CNPJ": 54299587000100, "AGENTE": "LILIA_VIANNA", "ACAO": "REALIZAR_SEGUNDA_VISITA", "RAZAO_SOCIAL": "54.299.587_FERNANDO_LIMA_DA_SILVA_-_SMART_NERD", "ENDERECO": "RUAARNALDOBONAVENTURA_227_CIDADETIRADENTES_SAOPAULO", "CIDADE": "SAO_PAULO", "LATITUDE": -23.5866689, "LONGITUDE": -46.409025 }, "geometry": { "type": "Point", "coordinates": [ -46.409025, -23.5866689 ] } },
{ "type": "Feature", "properties": { "CNPJ": 12358197000114, "AGENTE": "LILIA_VIANNA", "ACAO": "REALIZAR_SEGUNDA_VISITA", "RAZAO_SOCIAL": "ADILSON_TEDESCO_BIJUTERIAS_-_BONITA", "ENDERECO": "RUAARNALDOBONAVENTURA_245_CIDADETIRADENTES_SAOPAULO", "CIDADE": "SAO_PAULO", "LATITUDE": -23.5868216, "LONGITUDE": -46.4090652 }, "geometry": { "type": "Point", "coordinates": [ -46.4090652, -23.5868216 ] } },
{ "type": "Feature", "properties": { "CNPJ": 8150263000199, "AGENTE": "LILIA_VIANNA", "ACAO": "REALIZAR_SEGUNDA_VISITA", "RAZAO_SOCIAL": "NEUZA_DE_JESUS_SANTOS_-_NATHALIA__MODAS", "ENDERECO": "RUAARNALDOBONAVENTURA_273_CIDADETIRADENTES_SAOPAULO", "CIDADE": "SAO_PAULO", "LATITUDE": -23.5870477, "LONGITUDE": -46.4090041 }, "geometry": { "type": "Point", "coordinates": [ -46.4090041, -23.5870477 ] } },
{ "type": "Feature", "properties": { "CNPJ": 34975210000117, "AGENTE": "LILIA_VIANNA", "ACAO": "REALIZAR_SEGUNDA_VISITA", "RAZAO_SOCIAL": "DIEGO_ZAVAN_MENDES_-_TINTAS_METALURGICOS", "ENDERECO": "AVENIDADOSMETALURGICOS_264_CIDADETIRADENTES_SAOPAULO", "CIDADE": "SAO_PAULO", "LATITUDE": -23.5872071, "LONGITUDE": -46.4092747 }, "geometry": { "type": "Point", "coordinates": [ -46.4092747, -23.5872071 ] } },
{ "type": "Feature", "properties": { "CNPJ": 21066313000112, "AGENTE": "LILIA_VIANNA", "ACAO": "REALIZAR_SEGUNDA_VISITA", "RAZAO_SOCIAL": "MATUSALEM_ABREU_DOS_SANTOS_66240646334_-_ASSISTEC_INFORMATICA", "ENDERECO": "RUAARNALDOBONAVENTURA_303_CIDADETIRADENTES_SAOPAULO", "CIDADE": "SAO_PAULO", "LATITUDE": -23.5873203, "LONGITUDE": -46.4090046 }, "geometry": { "type": "Point", "coordinates": [ -46.4090046, -23.5873203 ] } },
{ "type": "Feature", "properties": { "CNPJ": 53928703000140, "AGENTE": "LILIA_VIANNA", "ACAO": "REALIZAR_SEGUNDA_VISITA", "RAZAO_SOCIAL": "53.928.703_ANDREIA_CRISTINA_MOLINA_SILVA_-_DM_MARMITARIA", "ENDERECO": "RUADONAELOADOVALLEQUADROS_5_CIDADETIRADENTES_SAOPAULO", "CIDADE": "SAO_PAULO", "LATITUDE": -23.5873751, "LONGITUDE": -46.4094072 }, "geometry": { "type": "Point", "coordinates": [ -46.4094072, -23.5873751 ] } },
{ "type": "Feature", "properties": { "CNPJ": 25345243000192, "AGENTE": "LILIA_VIANNA", "ACAO": "REALIZAR_SEGUNDA_VISITA", "RAZAO_SOCIAL": "MARCOS_MATEUS_SANTOS_LOPES_02887433504_-_MV_CAR", "ENDERECO": "RUADONAELOADOVALLEQUADROS_9_CIDADETIRADENTES_SAOPAULO", "CIDADE": "SAO_PAULO", "LATITUDE": -23.5874426, "LONGITUDE": -46.4095431 }, "geometry": { "type": "Point", "coordinates": [ -46.4095431, -23.5874426 ] } },
{ "type": "Feature", "properties": { "CNPJ": 7279390000120, "AGENTE": "LILIA_VIANNA", "ACAO": "REALIZAR_SEGUNDA_VISITA", "RAZAO_SOCIAL": "CARINA_MOTA_DEZUANI_PECAS_-_AUTO_PECAS_1000_RAO", "ENDERECO": "RUADONAELOADOVALLEQUADROS_9_CIDADETIRADENTES_SAOPAULO", "CIDADE": "SAO_PAULO", "LATITUDE": -23.5875314, "LONGITUDE": -46.4095061 }, "geometry": { "type": "Point", "coordinates": [ -46.4095061, -23.5875314 ] } },
{ "type": "Feature", "properties": { "CNPJ": 23868606000149, "AGENTE": "LILIA_VIANNA", "ACAO": "REALIZAR_SEGUNDA_VISITA", "RAZAO_SOCIAL": "TIAGO_NUNES_DA_SILVA_NETO_31757750800_-_TATTOO_DOS_REINO", "ENDERECO": "RUAARNALDOBONAVENTURA_525_CIDADETIRADENTES_SAOPAULO", "CIDADE": "SAO_PAULO", "LATITUDE": -23.5891951, "LONGITUDE": -46.4081989 }, "geometry": { "type": "Point", "coordinates": [ -46.4081989, -23.5891951 ] } },
{ "type": "Feature", "properties": { "CNPJ": 27949511000100, "AGENTE": "LILIA_VIANNA", "ACAO": "REALIZAR_SEGUNDA_VISITA", "RAZAO_SOCIAL": "SUSANA_PEREIRA_MACEDO_DOS_SANTOS_38490851808_-_CANTINHO_DA_SUZAN", "ENDERECO": "RUACRISTIANOLOBE_188_CIDADETIRADENTES_SAOPAULO", "CIDADE": "SAO_PAULO", "LATITUDE": -23.5919475, "LONGITUDE": -46.3997088 }, "geometry": { "type": "Point", "coordinates": [ -46.3997088, -23.5919475 ] } },
{ "type": "Feature", "properties": { "CNPJ": 33698730000167, "AGENTE": "LILIA_VIANNA", "ACAO": "REALIZAR_SEGUNDA_VISITA", "RAZAO_SOCIAL": "JONATAS_NOGUEIRA_DE_SOUZA_45622451825_-_MJ_ACESSORIOS", "ENDERECO": "RUAJOAODACOSTAPIMENTA_4_CIDADETIRADENTES_SAOPAULO", "CIDADE": "SAO_PAULO", "LATITUDE": -23.5993191, "LONGITUDE": -46.3991295 }, "geometry": { "type": "Point", "coordinates": [ -46.3991295, -23.5993191 ] } },
{ "type": "Feature", "properties": { "CNPJ": 1077308000106, "AGENTE": "LILIA_VIANNA", "ACAO": "REALIZAR_SEGUNDA_VISITA", "RAZAO_SOCIAL": "JOSE_MARIA_ALVES_PEREIRA_BAR_E_LANCHONETE_-_AMICOS_BAR", "ENDERECO": "RUADOSMARCENEIROS_81_CIDADETIRADENTES_SAOPAULO", "CIDADE": "SAO_PAULO", "LATITUDE": -23.5994194, "LONGITUDE": -46.3991355 }, "geometry": { "type": "Point", "coordinates": [ -46.3991355, -23.5994194 ] } },
{ "type": "Feature", "properties": { "CNPJ": 60044997000103, "AGENTE": "LILIA_VIANNA", "ACAO": "REALIZAR_SEGUNDA_VISITA", "RAZAO_SOCIAL": "CASA_DE_AVES_PICHARRO_LTDA_-_CASA_DE_AVES_PIXARO", "ENDERECO": "RUAPADREALDEMARMOREIRA_107_CIDADETIRADENTES_SAOPAULO", "CIDADE": "SAO_PAULO", "LATITUDE": -23.5995749, "LONGITUDE": -46.3993723 }, "geometry": { "type": "Point", "coordinates": [ -46.3993723, -23.5995749 ] } },
{ "type": "Feature", "properties": { "CNPJ": 2042757000173, "AGENTE": "LILIA_VIANNA", "ACAO": "REALIZAR_SEGUNDA_VISITA", "RAZAO_SOCIAL": "SILVIA_MARIA_SANTOS_-_PERFUMARIA_-_SATIE", "ENDERECO": "RUAVICENTEGUGLIELMI_26_CIDADETIRADENTES_SAOPAULO", "CIDADE": "SAO_PAULO", "LATITUDE": -23.599586, "LONGITUDE": -46.3998302 }, "geometry": { "type": "Point", "coordinates": [ -46.3998302, -23.599586 ] } },
{ "type": "Feature", "properties": { "CNPJ": 55813914000163, "AGENTE": "LILIA_VIANNA", "ACAO": "REALIZAR_SEGUNDA_VISITA", "RAZAO_SOCIAL": "DR_PASTEL_LTDA_-_DR_PASTEL", "ENDERECO": "AVENIDASATELITE_442_CIDADESATELITESANTABARBARA_SAOPAULO", "CIDADE": "SAO_PAULO", "LATITUDE": -23.6125023, "LONGITUDE": -46.4671348 }, "geometry": { "type": "Point", "coordinates": [ -46.4671348, -23.6125023 ] } },
{ "type": "Feature", "properties": { "CNPJ": 49218038000124, "AGENTE": "LILIA_VIANNA", "ACAO": "REALIZAR_SEGUNDA_VISITA", "RAZAO_SOCIAL": "49.218.038_MARCELO_GOMES_MARQUES_-_TERRA_RESTAURANTE", "ENDERECO": "AVENIDASAPOPEMBA_16158_JARDIMRODOLFOPIRANI_SAOPAULO", "CIDADE": "SAO_PAULO", "LATITUDE": -23.6227034, "LONGITUDE": -46.4619399 }, "geometry": { "type": "Point", "coordinates": [ -46.4619399, -23.6227034 ] } },
{ "type": "Feature", "properties": { "CNPJ": 2184210000102, "AGENTE": "LILIA_VIANNA", "ACAO": "REALIZAR_SEGUNDA_VISITA", "RAZAO_SOCIAL": "MARCEVAN_FREIOS_LTDA_-_MARCEVAN_FREIOS", "ENDERECO": "AVENIDASAPOPEMBA_15574_JARDIMVERACRUZ_SAOPAULO", "CIDADE": "SAO_PAULO", "LATITUDE": -23.6243565, "LONGITUDE": -46.4645162 }, "geometry": { "type": "Point", "coordinates": [ -46.4645162, -23.6243565 ] } },
{ "type": "Feature", "properties": { "CNPJ": 45767262000114, "AGENTE": "LILIA_VIANNA", "ACAO": "REALIZAR_SEGUNDA_VISITA", "RAZAO_SOCIAL": "RAR_PLANEJADOS", "ENDERECO": "RUA_GIACOMO_FUOCA_102_CIDADE_TIRADENTES_SAO_PAULO_BRASIL", "CIDADE": "SAO_PAULO", "LATITUDE": -23.6045063, "LONGITUDE": -46.4019988 }, "geometry": { "type": "Point", "coordinates": [ -46.4019988, -23.6045063 ] } },
{ "type": "Feature", "properties": { "CNPJ": 43051603000125, "AGENTE": "LILIA_VIANNA", "ACAO": "REALIZAR_SEGUNDA_VISITA", "RAZAO_SOCIAL": "ADEGA_SILVAS", "ENDERECO": "RUA_FRANCISCO_JOSE_VIANA_318_CIDADE_TIRADENTES_SAO_PAULO_BRASIL", "CIDADE": "SAO_PAULO", "LATITUDE": -23.6061498, "LONGITUDE": -46.4013526 }, "geometry": { "type": "Point", "coordinates": [ -46.4013526, -23.6061498 ] } },
{ "type": "Feature", "properties": { "CNPJ": 30397375000106, "AGENTE": "LILIA_VIANNA", "ACAO": "REALIZAR_SEGUNDA_VISITA", "RAZAO_SOCIAL": "BAR_MERCEARIA_REI_DAVI", "ENDERECO": "RUA_REI_DAVI_216_CIDADE_TIRADENTES_SAO_PAULO_BRASIL", "CIDADE": "SAO_PAULO", "LATITUDE": -23.6014717, "LONGITUDE": -46.4024629 }, "geometry": { "type": "Point", "coordinates": [ -46.4024629, -23.6014717 ] } },
{ "type": "Feature", "properties": { "CNPJ": 17510925000185, "AGENTE": "LILIA_VIANNA", "ACAO": "REALIZAR_SEGUNDA_VISITA", "RAZAO_SOCIAL": "HORTIFRUTI_GR", "ENDERECO": "AVENIDA_LEANDRO_76_CIDADE_TIRADENTES_SAO_PAULO_BRASIL", "CIDADE": "SAO_PAULO", "LATITUDE": -23.6013464, "LONGITUDE": -46.4009431 }, "geometry": { "type": "Point", "coordinates": [ -46.4009431, -23.6013464 ] } },
{ "type": "Feature", "properties": { "CNPJ": 296290000162, "AGENTE": "LILIA_VIANNA", "ACAO": "REALIZAR_PRIMEIRA_VISITA", "RAZAO_SOCIAL": "SOLI_INSTRUMENTOS_DE_MEDICAO_LTDA", "ENDERECO": "AVENIDASATELITE_461_CIDADESATELITESANTABARBARA_SAOPAULO", "CIDADE": "SAO_PAULO", "LATITUDE": -23.6121405, "LONGITUDE": -46.4673693 }, "geometry": { "type": "Point", "coordinates": [ -46.4673693, -23.6121405 ] } },
{ "type": "Feature", "properties": { "CNPJ": 96411335000171, "AGENTE": "LILIA_VIANNA", "ACAO": "REALIZAR_PRIMEIRA_VISITA", "RAZAO_SOCIAL": "CLINICA_MEDICA_E_DIAGNOSTICA_SOLER_LTDA", "ENDERECO": "AVENIDASATELITE_84_CIDADESATELITESANTABARBARA_SAOPAULO", "CIDADE": "SAO_PAULO", "LATITUDE": -23.6138996, "LONGITUDE": -46.4703619 }, "geometry": { "type": "Point", "coordinates": [ -46.4703619, -23.6138996 ] } },
{ "type": "Feature", "properties": { "CNPJ": 40008711000127, "AGENTE": "LILIA_VIANNA", "ACAO": "REALIZAR_PRIMEIRA_VISITA", "RAZAO_SOCIAL": "BARONESA_REVESTIMENTOS_COMERCIAL_LTDA", "ENDERECO": "RUAPAULONUNESFELIX_16_PARQUESAORAFAEL_SAOPAULO", "CIDADE": "SAO_PAULO", "LATITUDE": -23.622943, "LONGITUDE": -46.4774652 }, "geometry": { "type": "Point", "coordinates": [ -46.4774652, -23.622943 ] } },
{ "type": "Feature", "properties": { "CNPJ": 630139000119, "AGENTE": "LILIA_VIANNA", "ACAO": "REALIZAR_PRIMEIRA_VISITA", "RAZAO_SOCIAL": "BAR_E_MERCEARIA_RECORDACOES_NORDESTINAS_LTDA", "ENDERECO": "AVENIDASAPOPEMBA_16048_JARDIMADUTORA_SAOPAULO", "CIDADE": "SAO_PAULO", "LATITUDE": -23.6236589, "LONGITUDE": -46.4612985 }, "geometry": { "type": "Point", "coordinates": [ -46.4612985, -23.6236589 ] } }
]
}
