{
"type": "FeatureCollection",
"name": "LUCIANO_ZAFANI",
"crs": { "type": "name", "properties": { "name": "urn:ogc:def:crs:OGC:1.3:CRS84" } },
"xy_coordinate_resolution": 1e-15,
"features": [
{ "type": "Feature", "properties": { "CNPJ": 42952809000163, "AGENTE": "LUCIANO_ZAFANI", "ACAO": "REALIZAR_PRIMEIRA_VISITA", "RAZAO_SOCIAL": "FORZA_MECANICA_E_AUTO_CENTER_TUPA_LTDA", "ENDERECO": "AVENIDA_ANIBAL_DAVOLI_145_PARQUE_RESIDENCIAL_CASARI_TUPA", "CIDADE": "TUPA", "LATITUDE": -21.9385112, "LONGITUDE": -50.4935025 }, "geometry": { "type": "Point", "coordinates": [ -50.4935025, -21.9385112 ] } },
{ "type": "Feature", "properties": { "CNPJ": 55614941000107, "AGENTE": "LUCIANO_ZAFANI", "ACAO": "REALIZAR_PRIMEIRA_VISITA", "RAZAO_SOCIAL": "EDGARD_CLAUS_POLLI", "ENDERECO": "AVENIDA_FREDERICO_BUQUE_-_FRITZ_891_JARDIM_GUARANI_TUPA", "CIDADE": "TUPA", "LATITUDE": -21.9153489, "LONGITUDE": -50.4972788 }, "geometry": { "type": "Point", "coordinates": [ -50.4972788, -21.9153489 ] } },
{ "type": "Feature", "properties": { "CNPJ": 22152590000100, "AGENTE": "LUCIANO_ZAFANI", "ACAO": "REALIZAR_PRIMEIRA_VISITA", "RAZAO_SOCIAL": "SPEED_KEY_REPARACAO_ELETRONICA_AUTOMOTIVA_LTDA", "ENDERECO": "AVENIDA_SANTO_ANTONIO_2480_SOMENZARI_MARILIA", "CIDADE": "MARILIA", "LATITUDE": -22.2030461, "LONGITUDE": -49.9590831 }, "geometry": { "type": "Point", "coordinates": [ -49.9590831, -22.2030461 ] } },
{ "type": "Feature", "properties": { "CNPJ": 22637983000104, "AGENTE": "LUCIANO_ZAFANI", "ACAO": "REALIZAR_PRIMEIRA_VISITA", "RAZAO_SOCIAL": "CLEBER_ANTUNES_PEDRO", "ENDERECO": "AVENIDA_TAMOIOS_457_CENTRO_TUPA", "CIDADE": "TUPA", "LATITUDE": -21.9276181, "LONGITUDE": -50.5105837 }, "geometry": { "type": "Point", "coordinates": [ -50.5105837, -21.9276181 ] } },
{ "type": "Feature", "properties": { "CNPJ": 2703849000157, "AGENTE": "LUCIANO_ZAFANI", "ACAO": "REALIZAR_PRIMEIRA_VISITA", "RAZAO_SOCIAL": "TUPA_FIBRAS_INDUSTRIA_E_COMERCIO_LTDA", "ENDERECO": "RUA_AIMORES_879_CENTRO_TUPA", "CIDADE": "TUPA", "LATITUDE": -21.9250965, "LONGITUDE": -50.5150116 }, "geometry": { "type": "Point", "coordinates": [ -50.5150116, -21.9250965 ] } },
{ "type": "Feature", "properties": { "CNPJ": 52152015000179, "AGENTE": "LUCIANO_ZAFANI", "ACAO": "REALIZAR_PRIMEIRA_VISITA", "RAZAO_SOCIAL": "BC_LOPES_EMPRESARIAL_LTDA", "ENDERECO": "RUA_BANDEIRANTES_411_CENTRO_MARILIA", "CIDADE": "MARILIA", "LATITUDE": -22.2193004, "LONGITUDE": -49.9440932 }, "geometry": { "type": "Point", "coordinates": [ -49.9440932, -22.2193004 ] } },
{ "type": "Feature", "properties": { "CNPJ": 7485829000170, "AGENTE": "LUCIANO_ZAFANI", "ACAO": "REALIZAR_PRIMEIRA_VISITA", "RAZAO_SOCIAL": "SILVANIA_MACEDO_LUIZ", "ENDERECO": "RUA_BERNARDINO_DE_CAMPOS_152_PALMITAL_MARILIA", "CIDADE": "MARILIA", "LATITUDE": -22.207702, "LONGITUDE": -49.9517569 }, "geometry": { "type": "Point", "coordinates": [ -49.9517569, -22.207702 ] } },
{ "type": "Feature", "properties": { "CNPJ": 57485580000171, "AGENTE": "LUCIANO_ZAFANI", "ACAO": "REALIZAR_PRIMEIRA_VISITA", "RAZAO_SOCIAL": "DROGARIA_BIG_GARCA_LTDA", "ENDERECO": "RUA_CARLOS_FERRARI_95_REBELO_GARCA", "CIDADE": "GARCA", "LATITUDE": -22.2116978, "LONGITUDE": -49.6545305 }, "geometry": { "type": "Point", "coordinates": [ -49.6545305, -22.2116978 ] } },
{ "type": "Feature", "properties": { "CNPJ": 51858674000162, "AGENTE": "LUCIANO_ZAFANI", "ACAO": "REALIZAR_PRIMEIRA_VISITA", "RAZAO_SOCIAL": "G_E_E_GONZALEZ_LTDA", "ENDERECO": "RUA_CORONEL_JOAQUIM_PIZA_179_LABIENOPOLIS_GARCA", "CIDADE": "GARCA", "LATITUDE": -22.211815, "LONGITUDE": -49.6543156 }, "geometry": { "type": "Point", "coordinates": [ -49.6543156, -22.211815 ] } },
{ "type": "Feature", "properties": { "CNPJ": 8114140000100, "AGENTE": "LUCIANO_ZAFANI", "ACAO": "REALIZAR_PRIMEIRA_VISITA", "RAZAO_SOCIAL": "ELIZEU_CIRILLO_JUNIOR", "ENDERECO": "RUA_CORONEL_JOAQUIM_PIZA_231_LABIENOPOLIS_GARCA", "CIDADE": "GARCA", "LATITUDE": -22.2113373, "LONGITUDE": -49.6541914 }, "geometry": { "type": "Point", "coordinates": [ -49.6541914, -22.2113373 ] } },
{ "type": "Feature", "properties": { "CNPJ": 28284130000112, "AGENTE": "LUCIANO_ZAFANI", "ACAO": "REALIZAR_PRIMEIRA_VISITA", "RAZAO_SOCIAL": "TALITA_APARECIDA_DIAS", "ENDERECO": "RUA_CORONEL_JOAQUIM_PIZA_238_LABIENOPOLIS_GARCA", "CIDADE": "GARCA", "LATITUDE": -22.2112513, "LONGITUDE": -49.6540513 }, "geometry": { "type": "Point", "coordinates": [ -49.6540513, -22.2112513 ] } },
{ "type": "Feature", "properties": { "CNPJ": 19532088000110, "AGENTE": "LUCIANO_ZAFANI", "ACAO": "REALIZAR_PRIMEIRA_VISITA", "RAZAO_SOCIAL": "MARA_CRISTINA_BARROS_BASSETTO", "ENDERECO": "RUA_CORONEL_JOAQUIM_PIZA_294_LABIENOPOLIS_GARCA", "CIDADE": "GARCA", "LATITUDE": -22.2109114, "LONGITUDE": -49.6539544 }, "geometry": { "type": "Point", "coordinates": [ -49.6539544, -22.2109114 ] } },
{ "type": "Feature", "properties": { "CNPJ": 808612000105, "AGENTE": "LUCIANO_ZAFANI", "ACAO": "REALIZAR_PRIMEIRA_VISITA", "RAZAO_SOCIAL": "CARLOS_CARDOSO_FELIX_GARCA", "ENDERECO": "RUA_CORONEL_JOAQUIM_PIZA_365_LABIENOPOLIS_GARCA", "CIDADE": "GARCA", "LATITUDE": -22.2101141, "LONGITUDE": -49.653957 }, "geometry": { "type": "Point", "coordinates": [ -49.653957, -22.2101141 ] } },
{ "type": "Feature", "properties": { "CNPJ": 43476900000112, "AGENTE": "LUCIANO_ZAFANI", "ACAO": "REALIZAR_PRIMEIRA_VISITA", "RAZAO_SOCIAL": "SUPER_POCOS_LTDA", "ENDERECO": "RUA_CORONEL_JOAQUIM_PIZA_395_LABIENOPOLIS_GARCA", "CIDADE": "GARCA", "LATITUDE": -22.2098751, "LONGITUDE": -49.6540812 }, "geometry": { "type": "Point", "coordinates": [ -49.6540812, -22.2098751 ] } },
{ "type": "Feature", "properties": { "CNPJ": 2963724000166, "AGENTE": "LUCIANO_ZAFANI", "ACAO": "REALIZAR_PRIMEIRA_VISITA", "RAZAO_SOCIAL": "ELETRO_TECNICA_CORONEL_GARCA_LTDA", "ENDERECO": "RUA_CORONEL_JOAQUIM_PIZA_695_LABIENOPOLIS_GARCA", "CIDADE": "GARCA", "LATITUDE": -22.2072911, "LONGITUDE": -49.6535369 }, "geometry": { "type": "Point", "coordinates": [ -49.6535369, -22.2072911 ] } },
{ "type": "Feature", "properties": { "CNPJ": 37629380000138, "AGENTE": "LUCIANO_ZAFANI", "ACAO": "REALIZAR_PRIMEIRA_VISITA", "RAZAO_SOCIAL": "DGDA_COMERCIO_DE_ALIMENTOS_E_UTILIDADES_LTDA", "ENDERECO": "RUA_HEITOR_PENTEADO_111_REBELO_GARCA", "CIDADE": "GARCA", "LATITUDE": -22.2108338, "LONGITUDE": -49.6547798 }, "geometry": { "type": "Point", "coordinates": [ -49.6547798, -22.2108338 ] } },
{ "type": "Feature", "properties": { "CNPJ": 8214961000100, "AGENTE": "LUCIANO_ZAFANI", "ACAO": "REALIZAR_PRIMEIRA_VISITA", "RAZAO_SOCIAL": "SOARES_&_MAIOLI_COMERCIO_DE_MOTOS_LTDA", "ENDERECO": "RUA_MARILIA_2947_VILA_SANTA_INEZ_TUPA", "CIDADE": "TUPA", "LATITUDE": -21.9359364, "LONGITUDE": -50.5002189 }, "geometry": { "type": "Point", "coordinates": [ -50.5002189, -21.9359364 ] } },
{ "type": "Feature", "properties": { "CNPJ": 2485797000190, "AGENTE": "LUCIANO_ZAFANI", "ACAO": "REALIZAR_PRIMEIRA_VISITA", "RAZAO_SOCIAL": "DROGARIA_SANTA_FE_DE_TUPA_LTDA", "ENDERECO": "RUA_MARILIA_3109_VILA_SANTA_INEZ_TUPA", "CIDADE": "TUPA", "LATITUDE": -21.9362264, "LONGITUDE": -50.4985269 }, "geometry": { "type": "Point", "coordinates": [ -50.4985269, -21.9362264 ] } },
{ "type": "Feature", "properties": { "CNPJ": 18367934000121, "AGENTE": "LUCIANO_ZAFANI", "ACAO": "REALIZAR_PRIMEIRA_VISITA", "RAZAO_SOCIAL": "EDUARDO_MARTINS_EVANGELISTA", "ENDERECO": "RUA_MARILIA_3256_VILA_SANTA_INEZ_TUPA", "CIDADE": "TUPA", "LATITUDE": -21.9366337, "LONGITUDE": -50.4968952 }, "geometry": { "type": "Point", "coordinates": [ -50.4968952, -21.9366337 ] } },
{ "type": "Feature", "properties": { "CNPJ": 7036237000171, "AGENTE": "LUCIANO_ZAFANI", "ACAO": "REALIZAR_PRIMEIRA_VISITA", "RAZAO_SOCIAL": "PEDRO_BEZERRA_DA_SILVA_FERRAGENS", "ENDERECO": "RUA_MARILIA_3650_VILA_SANTA_INEZ_TUPA", "CIDADE": "TUPA", "LATITUDE": -21.9372274, "LONGITUDE": -50.4929315 }, "geometry": { "type": "Point", "coordinates": [ -50.4929315, -21.9372274 ] } },
{ "type": "Feature", "properties": { "CNPJ": 2045072000180, "AGENTE": "LUCIANO_ZAFANI", "ACAO": "REALIZAR_PRIMEIRA_VISITA", "RAZAO_SOCIAL": "EMERSON_CARRETEIRO_GARCA_LTDA", "ENDERECO": "RUA_MINAS_GERAIS_100_FERRAROPOLIS_GARCA", "CIDADE": "GARCA", "LATITUDE": -22.2098639, "LONGITUDE": -49.6541726 }, "geometry": { "type": "Point", "coordinates": [ -49.6541726, -22.2098639 ] } },
{ "type": "Feature", "properties": { "CNPJ": 47897831000171, "AGENTE": "LUCIANO_ZAFANI", "ACAO": "REALIZAR_PRIMEIRA_VISITA", "RAZAO_SOCIAL": "SG_GARCA_CONFECCOES_LTDA", "ENDERECO": "RUA_MINAS_GERAIS_128_FERRAROPOLIS_GARCA", "CIDADE": "GARCA", "LATITUDE": -22.2098234, "LONGITUDE": -49.6544157 }, "geometry": { "type": "Point", "coordinates": [ -49.6544157, -22.2098234 ] } },
{ "type": "Feature", "properties": { "CNPJ": 11636673000159, "AGENTE": "LUCIANO_ZAFANI", "ACAO": "REALIZAR_PRIMEIRA_VISITA", "RAZAO_SOCIAL": "LEILA_CASA_LINDA_LTDA", "ENDERECO": "RUA_MINAS_GERAIS_209_FERRAROPOLIS_GARCA", "CIDADE": "GARCA", "LATITUDE": -22.2098777, "LONGITUDE": -49.6552802 }, "geometry": { "type": "Point", "coordinates": [ -49.6552802, -22.2098777 ] } }
]
}
