{
"type": "FeatureCollection",
"name": "LUCIANO_ZAFANI",
"crs": { "type": "name", "properties": { "name": "urn:ogc:def:crs:OGC:1.3:CRS84" } },
"xy_coordinate_resolution": 1e-15,
"features": [
{ "type": "Feature", "properties": { "CNPJ": 2703849000157, "AGENTE": "LUCIANO_ZAFANI", "ACAO": "REALIZAR_SEGUNDA_VISITA", "RAZAO_SOCIAL": "TUPA_FIBRAS_INDUSTRIA_E_COMERCIO_LTDA", "ENDERECO": "RUAAIMORES_879_CENTRO_TUPA", "CIDADE": "TUPA", "LATITUDE": -21.9250965, "LONGITUDE": -50.5150116, "BASE": "ATENDIDOS" }, "geometry": { "type": "Point", "coordinates": [ -50.5150116, -21.9250965 ] } },
{ "type": "Feature", "properties": { "CNPJ": 28284130000112, "AGENTE": "LUCIANO_ZAFANI", "ACAO": "REALIZAR_SEGUNDA_VISITA", "RAZAO_SOCIAL": "TALITA_APARECIDA_DIAS", "ENDERECO": "RUACORONELJOAQUIMPIZA_238_LABIENOPOLIS_GARCA", "CIDADE": "GARCA", "LATITUDE": -22.2112513, "LONGITUDE": -49.6540513, "BASE": "ATENDIDOS" }, "geometry": { "type": "Point", "coordinates": [ -49.6540513, -22.2112513 ] } },
{ "type": "Feature", "properties": { "CNPJ": 2045072000180, "AGENTE": "LUCIANO_ZAFANI", "ACAO": "REALIZAR_SEGUNDA_VISITA", "RAZAO_SOCIAL": "EMERSON_CARRETEIRO_GARCA_LTDA", "ENDERECO": "RUAMINASGERAIS_100_FERRAROPOLIS_GARCA", "CIDADE": "GARCA", "LATITUDE": -22.2098639, "LONGITUDE": -49.6541726, "BASE": "ATENDIDOS" }, "geometry": { "type": "Point", "coordinates": [ -49.6541726, -22.2098639 ] } },
{ "type": "Feature", "properties": { "CNPJ": 57365991000123, "AGENTE": "LUCIANO_ZAFANI", "ACAO": "REALIZAR_SEGUNDA_VISITA", "RAZAO_SOCIAL": "VISUAL_IMPRESSOES_DIGITAIS_E_COMERCIO_DE_TINTAS_LTDA", "ENDERECO": "RUANOVEDEJULHO_396_CENTRO_LINS", "CIDADE": "LINS", "LATITUDE": -21.6697142, "LONGITUDE": -49.7530946, "BASE": "ATENDIDOS" }, "geometry": { "type": "Point", "coordinates": [ -49.7530946, -21.6697142 ] } },
{ "type": "Feature", "properties": { "CNPJ": 13166370000145, "AGENTE": "LUCIANO_ZAFANI", "ACAO": "REALIZAR_SEGUNDA_VISITA", "RAZAO_SOCIAL": "VM_BONILHA", "ENDERECO": "RUA_MAURO_ANTONIO_DE_SOUZA_65_JARDIM_AMERICA_MARILIA_BRASIL", "CIDADE": "MARILIA", "LATITUDE": -22.1956313, "LONGITUDE": -49.9663453, "BASE": "ATENDIDOS" }, "geometry": { "type": "Point", "coordinates": [ -49.9663453, -22.1956313 ] } },
{ "type": "Feature", "properties": { "CNPJ": 22152590000100, "AGENTE": "LUCIANO_ZAFANI", "ACAO": "REALIZAR_SEGUNDA_VISITA", "RAZAO_SOCIAL": "SPEED_KEY_REPARACAO_ELETRONICA_AUTOMOTIVA_LTDA", "ENDERECO": "AVENIDASANTOANTONIO_2480_SOMENZARI_MARILIA", "CIDADE": "MARILIA", "LATITUDE": -22.2030461, "LONGITUDE": -49.9590831, "BASE": "ATENDIDOS" }, "geometry": { "type": "Point", "coordinates": [ -49.9590831, -22.2030461 ] } },
{ "type": "Feature", "properties": { "CNPJ": 7485829000170, "AGENTE": "LUCIANO_ZAFANI", "ACAO": "REALIZAR_SEGUNDA_VISITA", "RAZAO_SOCIAL": "SILVANIA_MACEDO_LUIZ", "ENDERECO": "RUABERNARDINODECAMPOS_152_PALMITAL_MARILIA", "CIDADE": "MARILIA", "LATITUDE": -22.207702, "LONGITUDE": -49.9517569, "BASE": "ATENDIDOS" }, "geometry": { "type": "Point", "coordinates": [ -49.9517569, -22.207702 ] } },
{ "type": "Feature", "properties": { "CNPJ": 2963724000166, "AGENTE": "LUCIANO_ZAFANI", "ACAO": "URGENTE_REALIZAR_SEGUNDA_VISITA", "RAZAO_SOCIAL": "ELETRO_TECNICA_CORONEL_GARCA_LTDA", "ENDERECO": "RUACORONELJOAQUIMPIZA_695_LABIENOPOLIS_GARCA", "CIDADE": "GARCA", "LATITUDE": -22.2072911, "LONGITUDE": -49.6535369, "BASE": "URGENTE_" }, "geometry": { "type": "Point", "coordinates": [ -49.6535369, -22.2072911 ] } },
{ "type": "Feature", "properties": { "CNPJ": 47897831000171, "AGENTE": "LUCIANO_ZAFANI", "ACAO": "URGENTE_REALIZAR_SEGUNDA_VISITA", "RAZAO_SOCIAL": "SG_GARCA_CONFECCOES_LTDA", "ENDERECO": "RUAMINASGERAIS_128_FERRAROPOLIS_GARCA", "CIDADE": "GARCA", "LATITUDE": -22.2098234, "LONGITUDE": -49.6544157, "BASE": "URGENTE_" }, "geometry": { "type": "Point", "coordinates": [ -49.6544157, -22.2098234 ] } },
{ "type": "Feature", "properties": { "CNPJ": 43476900000112, "AGENTE": "LUCIANO_ZAFANI", "ACAO": "URGENTE_REALIZAR_SEGUNDA_VISITA", "RAZAO_SOCIAL": "SUPER_POCOS_LTDA", "ENDERECO": "RUACORONELJOAQUIMPIZA_395_LABIENOPOLIS_GARCA", "CIDADE": "GARCA", "LATITUDE": -22.2098751, "LONGITUDE": -49.6540812, "BASE": "URGENTE_" }, "geometry": { "type": "Point", "coordinates": [ -49.6540812, -22.2098751 ] } },
{ "type": "Feature", "properties": { "CNPJ": 11636673000159, "AGENTE": "LUCIANO_ZAFANI", "ACAO": "URGENTE_REALIZAR_SEGUNDA_VISITA", "RAZAO_SOCIAL": "LEILA_CASA_LINDA_LTDA", "ENDERECO": "RUAMINASGERAIS_209_FERRAROPOLIS_GARCA", "CIDADE": "GARCA", "LATITUDE": -22.2098777, "LONGITUDE": -49.6552802, "BASE": "URGENTE_" }, "geometry": { "type": "Point", "coordinates": [ -49.6552802, -22.2098777 ] } },
{ "type": "Feature", "properties": { "CNPJ": 808612000105, "AGENTE": "LUCIANO_ZAFANI", "ACAO": "URGENTE_REALIZAR_SEGUNDA_VISITA", "RAZAO_SOCIAL": "CARLOS_CARDOSO_FELIX_GARCA", "ENDERECO": "RUACORONELJOAQUIMPIZA_365_LABIENOPOLIS_GARCA", "CIDADE": "GARCA", "LATITUDE": -22.2101141, "LONGITUDE": -49.653957, "BASE": "URGENTE_" }, "geometry": { "type": "Point", "coordinates": [ -49.653957, -22.2101141 ] } },
{ "type": "Feature", "properties": { "CNPJ": 37629380000138, "AGENTE": "LUCIANO_ZAFANI", "ACAO": "URGENTE_REALIZAR_SEGUNDA_VISITA", "RAZAO_SOCIAL": "DGDA_COMERCIO_DE_ALIMENTOS_E_UTILIDADES_LTDA", "ENDERECO": "RUAHEITORPENTEADO_111_REBELO_GARCA", "CIDADE": "GARCA", "LATITUDE": -22.2108338, "LONGITUDE": -49.6547798, "BASE": "URGENTE_" }, "geometry": { "type": "Point", "coordinates": [ -49.6547798, -22.2108338 ] } },
{ "type": "Feature", "properties": { "CNPJ": 19532088000110, "AGENTE": "LUCIANO_ZAFANI", "ACAO": "URGENTE_REALIZAR_SEGUNDA_VISITA", "RAZAO_SOCIAL": "MARA_CRISTINA_BARROS_BASSETTO", "ENDERECO": "RUACORONELJOAQUIMPIZA_294_LABIENOPOLIS_GARCA", "CIDADE": "GARCA", "LATITUDE": -22.2109114, "LONGITUDE": -49.6539544, "BASE": "URGENTE_" }, "geometry": { "type": "Point", "coordinates": [ -49.6539544, -22.2109114 ] } },
{ "type": "Feature", "properties": { "CNPJ": 8114140000100, "AGENTE": "LUCIANO_ZAFANI", "ACAO": "URGENTE_REALIZAR_SEGUNDA_VISITA", "RAZAO_SOCIAL": "ELIZEU_CIRILLO_JUNIOR", "ENDERECO": "RUACORONELJOAQUIMPIZA_231_LABIENOPOLIS_GARCA", "CIDADE": "GARCA", "LATITUDE": -22.2113373, "LONGITUDE": -49.6541914, "BASE": "URGENTE_" }, "geometry": { "type": "Point", "coordinates": [ -49.6541914, -22.2113373 ] } },
{ "type": "Feature", "properties": { "CNPJ": 57485580000171, "AGENTE": "LUCIANO_ZAFANI", "ACAO": "URGENTE_REALIZAR_SEGUNDA_VISITA", "RAZAO_SOCIAL": "DROGARIA_BIG_GARCA_LTDA", "ENDERECO": "RUACARLOSFERRARI_95_REBELO_GARCA", "CIDADE": "GARCA", "LATITUDE": -22.2116978, "LONGITUDE": -49.6545305, "BASE": "URGENTE_" }, "geometry": { "type": "Point", "coordinates": [ -49.6545305, -22.2116978 ] } },
{ "type": "Feature", "properties": { "CNPJ": 51858674000162, "AGENTE": "LUCIANO_ZAFANI", "ACAO": "URGENTE_REALIZAR_SEGUNDA_VISITA", "RAZAO_SOCIAL": "G_E_E_GONZALEZ_LTDA", "ENDERECO": "RUACORONELJOAQUIMPIZA_179_LABIENOPOLIS_GARCA", "CIDADE": "GARCA", "LATITUDE": -22.211815, "LONGITUDE": -49.6543156, "BASE": "URGENTE_" }, "geometry": { "type": "Point", "coordinates": [ -49.6543156, -22.211815 ] } },
{ "type": "Feature", "properties": { "CNPJ": 52152015000179, "AGENTE": "LUCIANO_ZAFANI", "ACAO": "URGENTE_REALIZAR_SEGUNDA_VISITA", "RAZAO_SOCIAL": "BC_LOPES_EMPRESARIAL_LTDA", "ENDERECO": "RUABANDEIRANTES_411_CENTRO_MARILIA", "CIDADE": "MARILIA", "LATITUDE": -22.2193004, "LONGITUDE": -49.9440932, "BASE": "URGENTE_" }, "geometry": { "type": "Point", "coordinates": [ -49.9440932, -22.2193004 ] } },
{ "type": "Feature", "properties": { "CNPJ": 13372191000164, "AGENTE": "LUCIANO_ZAFANI", "ACAO": "URGENTE_REALIZAR_SEGUNDA_VISITA", "RAZAO_SOCIAL": "EDUARDO_RODRIGO_MOURA_VESTUARIO", "ENDERECO": "RUACOMANDANTESALGADO_23_VILAALTA_LINS", "CIDADE": "LINS", "LATITUDE": -21.6722969, "LONGITUDE": -49.753712, "BASE": "URGENTE_" }, "geometry": { "type": "Point", "coordinates": [ -49.753712, -21.6722969 ] } },
{ "type": "Feature", "properties": { "CNPJ": 11257386000138, "AGENTE": "LUCIANO_ZAFANI", "ACAO": "URGENTE_REALIZAR_SEGUNDA_VISITA", "RAZAO_SOCIAL": "ROSIMARY_MOYA_ARANTES_PEREIRA", "ENDERECO": "RUASANTOANTONIO_40_VILAPERIN_LINS", "CIDADE": "LINS", "LATITUDE": -21.6749049, "LONGITUDE": -49.7591592, "BASE": "URGENTE_" }, "geometry": { "type": "Point", "coordinates": [ -49.7591592, -21.6749049 ] } },
{ "type": "Feature", "properties": { "CNPJ": 55614941000107, "AGENTE": "LUCIANO_ZAFANI", "ACAO": "URGENTE_REALIZAR_SEGUNDA_VISITA", "RAZAO_SOCIAL": "EDGARD_CLAUS_POLLI", "ENDERECO": "AVENIDAFREDERICOBUQUE-FRITZ_891_JARDIMGUARANI_TUPA", "CIDADE": "TUPA", "LATITUDE": -21.9153489, "LONGITUDE": -50.4972788, "BASE": "URGENTE_" }, "geometry": { "type": "Point", "coordinates": [ -50.4972788, -21.9153489 ] } },
{ "type": "Feature", "properties": { "CNPJ": 22637983000104, "AGENTE": "LUCIANO_ZAFANI", "ACAO": "URGENTE_REALIZAR_SEGUNDA_VISITA", "RAZAO_SOCIAL": "CLEBER_ANTUNES_PEDRO", "ENDERECO": "AVENIDATAMOIOS_457_CENTRO_TUPA", "CIDADE": "TUPA", "LATITUDE": -21.9276181, "LONGITUDE": -50.5105837, "BASE": "URGENTE_" }, "geometry": { "type": "Point", "coordinates": [ -50.5105837, -21.9276181 ] } },
{ "type": "Feature", "properties": { "CNPJ": 8214961000100, "AGENTE": "LUCIANO_ZAFANI", "ACAO": "URGENTE_REALIZAR_SEGUNDA_VISITA", "RAZAO_SOCIAL": "SOARES_&_MAIOLI_COMERCIO_DE_MOTOS_LTDA", "ENDERECO": "RUAMARILIA_2947_VILASANTAINEZ_TUPA", "CIDADE": "TUPA", "LATITUDE": -21.9359364, "LONGITUDE": -50.5002189, "BASE": "URGENTE_" }, "geometry": { "type": "Point", "coordinates": [ -50.5002189, -21.9359364 ] } },
{ "type": "Feature", "properties": { "CNPJ": 2485797000190, "AGENTE": "LUCIANO_ZAFANI", "ACAO": "URGENTE_REALIZAR_SEGUNDA_VISITA", "RAZAO_SOCIAL": "DROGARIA_SANTA_FE_DE_TUPA_LTDA", "ENDERECO": "RUAMARILIA_3109_VILASANTAINEZ_TUPA", "CIDADE": "TUPA", "LATITUDE": -21.9362264, "LONGITUDE": -50.4985269, "BASE": "URGENTE_" }, "geometry": { "type": "Point", "coordinates": [ -50.4985269, -21.9362264 ] } },
{ "type": "Feature", "properties": { "CNPJ": 18367934000121, "AGENTE": "LUCIANO_ZAFANI", "ACAO": "URGENTE_REALIZAR_SEGUNDA_VISITA", "RAZAO_SOCIAL": "EDUARDO_MARTINS_EVANGELISTA", "ENDERECO": "RUAMARILIA_3256_VILASANTAINEZ_TUPA", "CIDADE": "TUPA", "LATITUDE": -21.9366337, "LONGITUDE": -50.4968952, "BASE": "URGENTE_" }, "geometry": { "type": "Point", "coordinates": [ -50.4968952, -21.9366337 ] } },
{ "type": "Feature", "properties": { "CNPJ": 7036237000171, "AGENTE": "LUCIANO_ZAFANI", "ACAO": "URGENTE_REALIZAR_SEGUNDA_VISITA", "RAZAO_SOCIAL": "PEDRO_BEZERRA_DA_SILVA_FERRAGENS", "ENDERECO": "RUAMARILIA_3650_VILASANTAINEZ_TUPA", "CIDADE": "TUPA", "LATITUDE": -21.9372274, "LONGITUDE": -50.4929315, "BASE": "URGENTE_" }, "geometry": { "type": "Point", "coordinates": [ -50.4929315, -21.9372274 ] } },
{ "type": "Feature", "properties": { "CNPJ": 42952809000163, "AGENTE": "LUCIANO_ZAFANI", "ACAO": "URGENTE_REALIZAR_SEGUNDA_VISITA", "RAZAO_SOCIAL": "FORZA_MECANICA_E_AUTO_CENTER_TUPA_LTDA", "ENDERECO": "AVENIDAANIBALDAVOLI_145_PARQUERESIDENCIALCASARI_TUPA", "CIDADE": "TUPA", "LATITUDE": -21.9385112, "LONGITUDE": -50.4935025, "BASE": "URGENTE_" }, "geometry": { "type": "Point", "coordinates": [ -50.4935025, -21.9385112 ] } }
]
}
