{
"type": "FeatureCollection",
"name": "LUCIANO_ZAFANI",
"crs": { "type": "name", "properties": { "name": "urn:ogc:def:crs:OGC:1.3:CRS84" } },
"xy_coordinate_resolution": 1e-15,
"features": [
{ "type": "Feature", "properties": { "CNPJ": 42952809000163, "AGENTE": "LUCIANO_ZAFANI", "ACAO": "REALIZAR_PRIMEIRA_VISITA", "RAZAO_SOCIAL": "FORZA_MECANICA_E_AUTO_CENTER_TUPA_LTDA", "ENDERECO": "AVENIDA_ANIBAL_DAVOLI_145_PARQUE_RESIDENCIAL_CASARI_TUPA", "CIDADE": "TUPA", "LATITUDE": -21.9385112, "LONGITUDE": -50.4935025 }, "geometry": { "type": "Point", "coordinates": [ -50.4935025, -21.9385112 ] } },
{ "type": "Feature", "properties": { "CNPJ": 55614941000107, "AGENTE": "LUCIANO_ZAFANI", "ACAO": "REALIZAR_PRIMEIRA_VISITA", "RAZAO_SOCIAL": "EDGARD_CLAUS_POLLI", "ENDERECO": "AVENIDA_FREDERICO_BUQUE_-_FRITZ_891_JARDIM_GUARANI_TUPA", "CIDADE": "TUPA", "LATITUDE": -21.9153489, "LONGITUDE": -50.4972788 }, "geometry": { "type": "Point", "coordinates": [ -50.4972788, -21.9153489 ] } },
{ "type": "Feature", "properties": { "CNPJ": 22152590000100, "AGENTE": "LUCIANO_ZAFANI", "ACAO": "REALIZAR_PRIMEIRA_VISITA", "RAZAO_SOCIAL": "SPEED_KEY_REPARACAO_ELETRONICA_AUTOMOTIVA_LTDA", "ENDERECO": "AVENIDA_SANTO_ANTONIO_2480_SOMENZARI_MARILIA", "CIDADE": "MARILIA", "LATITUDE": -22.2030461, "LONGITUDE": -49.9590831 }, "geometry": { "type": "Point", "coordinates": [ -49.9590831, -22.2030461 ] } },
{ "type": "Feature", "properties": { "CNPJ": 22637983000104, "AGENTE": "LUCIANO_ZAFANI", "ACAO": "REALIZAR_PRIMEIRA_VISITA", "RAZAO_SOCIAL": "CLEBER_ANTUNES_PEDRO", "ENDERECO": "AVENIDA_TAMOIOS_457_CENTRO_TUPA", "CIDADE": "TUPA", "LATITUDE": -21.9276181, "LONGITUDE": -50.5105837 }, "geometry": { "type": "Point", "coordinates": [ -50.5105837, -21.9276181 ] } },
{ "type": "Feature", "properties": { "CNPJ": 2703849000157, "AGENTE": "LUCIANO_ZAFANI", "ACAO": "REALIZAR_PRIMEIRA_VISITA", "RAZAO_SOCIAL": "TUPA_FIBRAS_INDUSTRIA_E_COMERCIO_LTDA", "ENDERECO": "RUA_AIMORES_879_CENTRO_TUPA", "CIDADE": "TUPA", "LATITUDE": -21.9250965, "LONGITUDE": -50.5150116 }, "geometry": { "type": "Point", "coordinates": [ -50.5150116, -21.9250965 ] } },
{ "type": "Feature", "properties": { "CNPJ": 52152015000179, "AGENTE": "LUCIANO_ZAFANI", "ACAO": "REALIZAR_PRIMEIRA_VISITA", "RAZAO_SOCIAL": "BC_LOPES_EMPRESARIAL_LTDA", "ENDERECO": "RUA_BANDEIRANTES_411_CENTRO_MARILIA", "CIDADE": "MARILIA", "LATITUDE": -22.2193004, "LONGITUDE": -49.9440932 }, "geometry": { "type": "Point", "coordinates": [ -49.9440932, -22.2193004 ] } },
{ "type": "Feature", "properties": { "CNPJ": 7485829000170, "AGENTE": "LUCIANO_ZAFANI", "ACAO": "REALIZAR_PRIMEIRA_VISITA", "RAZAO_SOCIAL": "SILVANIA_MACEDO_LUIZ", "ENDERECO": "RUA_BERNARDINO_DE_CAMPOS_152_PALMITAL_MARILIA", "CIDADE": "MARILIA", "LATITUDE": -22.207702, "LONGITUDE": -49.9517569 }, "geometry": { "type": "Point", "coordinates": [ -49.9517569, -22.207702 ] } },
{ "type": "Feature", "properties": { "CNPJ": 57485580000171, "AGENTE": "LUCIANO_ZAFANI", "ACAO": "REALIZAR_PRIMEIRA_VISITA", "RAZAO_SOCIAL": "DROGARIA_BIG_GARCA_LTDA", "ENDERECO": "RUA_CARLOS_FERRARI_95_REBELO_GARCA", "CIDADE": "GARCA", "LATITUDE": -22.2116978, "LONGITUDE": -49.6545305 }, "geometry": { "type": "Point", "coordinates": [ -49.6545305, -22.2116978 ] } },
{ "type": "Feature", "properties": { "CNPJ": 51858674000162, "AGENTE": "LUCIANO_ZAFANI", "ACAO": "REALIZAR_PRIMEIRA_VISITA", "RAZAO_SOCIAL": "G_E_E_GONZALEZ_LTDA", "ENDERECO": "RUA_CORONEL_JOAQUIM_PIZA_179_LABIENOPOLIS_GARCA", "CIDADE": "GARCA", "LATITUDE": -22.211815, "LONGITUDE": -49.6543156 }, "geometry": { "type": "Point", "coordinates": [ -49.6543156, -22.211815 ] } },
{ "type": "Feature", "properties": { "CNPJ": 8114140000100, "AGENTE": "LUCIANO_ZAFANI", "ACAO": "REALIZAR_PRIMEIRA_VISITA", "RAZAO_SOCIAL": "ELIZEU_CIRILLO_JUNIOR", "ENDERECO": "RUA_CORONEL_JOAQUIM_PIZA_231_LABIENOPOLIS_GARCA", "CIDADE": "GARCA", "LATITUDE": -22.2113373, "LONGITUDE": -49.6541914 }, "geometry": { "type": "Point", "coordinates": [ -49.6541914, -22.2113373 ] } },
{ "type": "Feature", "properties": { "CNPJ": 28284130000112, "AGENTE": "LUCIANO_ZAFANI", "ACAO": "REALIZAR_PRIMEIRA_VISITA", "RAZAO_SOCIAL": "TALITA_APARECIDA_DIAS", "ENDERECO": "RUA_CORONEL_JOAQUIM_PIZA_238_LABIENOPOLIS_GARCA", "CIDADE": "GARCA", "LATITUDE": -22.2112513, "LONGITUDE": -49.6540513 }, "geometry": { "type": "Point", "coordinates": [ -49.6540513, -22.2112513 ] } },
{ "type": "Feature", "properties": { "CNPJ": 19532088000110, "AGENTE": "LUCIANO_ZAFANI", "ACAO": "REALIZAR_PRIMEIRA_VISITA", "RAZAO_SOCIAL": "MARA_CRISTINA_BARROS_BASSETTO", "ENDERECO": "RUA_CORONEL_JOAQUIM_PIZA_294_LABIENOPOLIS_GARCA", "CIDADE": "GARCA", "LATITUDE": -22.2109114, "LONGITUDE": -49.6539544 }, "geometry": { "type": "Point", "coordinates": [ -49.6539544, -22.2109114 ] } },
{ "type": "Feature", "properties": { "CNPJ": 808612000105, "AGENTE": "LUCIANO_ZAFANI", "ACAO": "REALIZAR_PRIMEIRA_VISITA", "RAZAO_SOCIAL": "CARLOS_CARDOSO_FELIX_GARCA", "ENDERECO": "RUA_CORONEL_JOAQUIM_PIZA_365_LABIENOPOLIS_GARCA", "CIDADE": "GARCA", "LATITUDE": -22.2101141, "LONGITUDE": -49.653957 }, "geometry": { "type": "Point", "coordinates": [ -49.653957, -22.2101141 ] } },
{ "type": "Feature", "properties": { "CNPJ": 43476900000112, "AGENTE": "LUCIANO_ZAFANI", "ACAO": "REALIZAR_PRIMEIRA_VISITA", "RAZAO_SOCIAL": "SUPER_POCOS_LTDA", "ENDERECO": "RUA_CORONEL_JOAQUIM_PIZA_395_LABIENOPOLIS_GARCA", "CIDADE": "GARCA", "LATITUDE": -22.2098751, "LONGITUDE": -49.6540812 }, "geometry": { "type": "Point", "coordinates": [ -49.6540812, -22.2098751 ] } },
{ "type": "Feature", "properties": { "CNPJ": 2963724000166, "AGENTE": "LUCIANO_ZAFANI", "ACAO": "REALIZAR_PRIMEIRA_VISITA", "RAZAO_SOCIAL": "ELETRO_TECNICA_CORONEL_GARCA_LTDA", "ENDERECO": "RUA_CORONEL_JOAQUIM_PIZA_695_LABIENOPOLIS_GARCA", "CIDADE": "GARCA", "LATITUDE": -22.2072911, "LONGITUDE": -49.6535369 }, "geometry": { "type": "Point", "coordinates": [ -49.6535369, -22.2072911 ] } },
{ "type": "Feature", "properties": { "CNPJ": 37629380000138, "AGENTE": "LUCIANO_ZAFANI", "ACAO": "REALIZAR_PRIMEIRA_VISITA", "RAZAO_SOCIAL": "DGDA_COMERCIO_DE_ALIMENTOS_E_UTILIDADES_LTDA", "ENDERECO": "RUA_HEITOR_PENTEADO_111_REBELO_GARCA", "CIDADE": "GARCA", "LATITUDE": -22.2108338, "LONGITUDE": -49.6547798 }, "geometry": { "type": "Point", "coordinates": [ -49.6547798, -22.2108338 ] } },
{ "type": "Feature", "properties": { "CNPJ": 8214961000100, "AGENTE": "LUCIANO_ZAFANI", "ACAO": "REALIZAR_PRIMEIRA_VISITA", "RAZAO_SOCIAL": "SOARES_&_MAIOLI_COMERCIO_DE_MOTOS_LTDA", "ENDERECO": "RUA_MARILIA_2947_VILA_SANTA_INEZ_TUPA", "CIDADE": "TUPA", "LATITUDE": -21.9359364, "LONGITUDE": -50.5002189 }, "geometry": { "type": "Point", "coordinates": [ -50.5002189, -21.9359364 ] } },
{ "type": "Feature", "properties": { "CNPJ": 2485797000190, "AGENTE": "LUCIANO_ZAFANI", "ACAO": "REALIZAR_PRIMEIRA_VISITA", "RAZAO_SOCIAL": "DROGARIA_SANTA_FE_DE_TUPA_LTDA", "ENDERECO": "RUA_MARILIA_3109_VILA_SANTA_INEZ_TUPA", "CIDADE": "TUPA", "LATITUDE": -21.9362264, "LONGITUDE": -50.4985269 }, "geometry": { "type": "Point", "coordinates": [ -50.4985269, -21.9362264 ] } },
{ "type": "Feature", "properties": { "CNPJ": 18367934000121, "AGENTE": "LUCIANO_ZAFANI", "ACAO": "REALIZAR_PRIMEIRA_VISITA", "RAZAO_SOCIAL": "EDUARDO_MARTINS_EVANGELISTA", "ENDERECO": "RUA_MARILIA_3256_VILA_SANTA_INEZ_TUPA", "CIDADE": "TUPA", "LATITUDE": -21.9366337, "LONGITUDE": -50.4968952 }, "geometry": { "type": "Point", "coordinates": [ -50.4968952, -21.9366337 ] } },
{ "type": "Feature", "properties": { "CNPJ": 7036237000171, "AGENTE": "LUCIANO_ZAFANI", "ACAO": "REALIZAR_PRIMEIRA_VISITA", "RAZAO_SOCIAL": "PEDRO_BEZERRA_DA_SILVA_FERRAGENS", "ENDERECO": "RUA_MARILIA_3650_VILA_SANTA_INEZ_TUPA", "CIDADE": "TUPA", "LATITUDE": -21.9372274, "LONGITUDE": -50.4929315 }, "geometry": { "type": "Point", "coordinates": [ -50.4929315, -21.9372274 ] } },
{ "type": "Feature", "properties": { "CNPJ": 2045072000180, "AGENTE": "LUCIANO_ZAFANI", "ACAO": "REALIZAR_PRIMEIRA_VISITA", "RAZAO_SOCIAL": "EMERSON_CARRETEIRO_GARCA_LTDA", "ENDERECO": "RUA_MINAS_GERAIS_100_FERRAROPOLIS_GARCA", "CIDADE": "GARCA", "LATITUDE": -22.2098639, "LONGITUDE": -49.6541726 }, "geometry": { "type": "Point", "coordinates": [ -49.6541726, -22.2098639 ] } },
{ "type": "Feature", "properties": { "CNPJ": 47897831000171, "AGENTE": "LUCIANO_ZAFANI", "ACAO": "REALIZAR_PRIMEIRA_VISITA", "RAZAO_SOCIAL": "SG_GARCA_CONFECCOES_LTDA", "ENDERECO": "RUA_MINAS_GERAIS_128_FERRAROPOLIS_GARCA", "CIDADE": "GARCA", "LATITUDE": -22.2098234, "LONGITUDE": -49.6544157 }, "geometry": { "type": "Point", "coordinates": [ -49.6544157, -22.2098234 ] } },
{ "type": "Feature", "properties": { "CNPJ": 11636673000159, "AGENTE": "LUCIANO_ZAFANI", "ACAO": "REALIZAR_PRIMEIRA_VISITA", "RAZAO_SOCIAL": "LEILA_CASA_LINDA_LTDA", "ENDERECO": "RUA_MINAS_GERAIS_209_FERRAROPOLIS_GARCA", "CIDADE": "GARCA", "LATITUDE": -22.2098777, "LONGITUDE": -49.6552802 }, "geometry": { "type": "Point", "coordinates": [ -49.6552802, -22.2098777 ] } },
{ "type": "Feature", "properties": { "CNPJ": 51564014000179, "AGENTE": "LUCIANO_ZAFANI", "ACAO": "REALIZAR_PRIMEIRA_VISITA_POTENCIAL", "RAZAO_SOCIAL": "51.564.014_LUIZ_FERNANDO_SALVIANO_DOS_SANTOS", "ENDERECO": "RUA_MARIO_DEGANI_349_PALMITAL_MARILIA_BRASIL", "CIDADE": "MARILIA", "LATITUDE": -22.1916778, "LONGITUDE": -49.9510538 }, "geometry": { "type": "Point", "coordinates": [ -49.9510538, -22.1916778 ] } },
{ "type": "Feature", "properties": { "CNPJ": 17727374000106, "AGENTE": "LUCIANO_ZAFANI", "ACAO": "REALIZAR_PRIMEIRA_VISITA_POTENCIAL", "RAZAO_SOCIAL": "17.727.374_DOUGLAS_OLIVEIRA_COSTA_SCHMIDT", "ENDERECO": "RUA_DERMANIO_DA_SILVA_LIMA_661_PALMITAL_MARILIA_BRASIL", "CIDADE": "MARILIA", "LATITUDE": -22.1922943, "LONGITUDE": -49.9514642 }, "geometry": { "type": "Point", "coordinates": [ -49.9514642, -22.1922943 ] } },
{ "type": "Feature", "properties": { "CNPJ": 2360817900016, "AGENTE": "LUCIANO_ZAFANI", "ACAO": "REALIZAR_PRIMEIRA_VISITA_POTENCIAL", "RAZAO_SOCIAL": "23.608.179_TAMIRES_MAIARA_BAZAN_SEPULVIDA", "ENDERECO": "RUA_ANTONIO_PRADO_26_PALMITAL_MARILIA_BRASIL", "CIDADE": "MARILIA", "LATITUDE": -22.1928221, "LONGITUDE": -49.9559163 }, "geometry": { "type": "Point", "coordinates": [ -49.9559163, -22.1928221 ] } },
{ "type": "Feature", "properties": { "CNPJ": 43070742000104, "AGENTE": "LUCIANO_ZAFANI", "ACAO": "REALIZAR_PRIMEIRA_VISITA_POTENCIAL", "RAZAO_SOCIAL": "COFFEES_CAMPOS_LTDA", "ENDERECO": "RUA_DOS_TUCUNARES_500_JARDIM_MARIA_MARTHA_MARILIA_BRASIL", "CIDADE": "MARILIA", "LATITUDE": -22.1930553, "LONGITUDE": -49.9532022 }, "geometry": { "type": "Point", "coordinates": [ -49.9532022, -22.1930553 ] } },
{ "type": "Feature", "properties": { "CNPJ": 54269190000176, "AGENTE": "LUCIANO_ZAFANI", "ACAO": "REALIZAR_PRIMEIRA_VISITA_POTENCIAL", "RAZAO_SOCIAL": "54.269.190_GUILHERME_PINA_DA_SILVA", "ENDERECO": "RUA_JOSE_CLEMENTE_PEREIRA_410_PALMITAL_MARILIA_BRASIL", "CIDADE": "MARILIA", "LATITUDE": -22.1937618, "LONGITUDE": -49.9539585 }, "geometry": { "type": "Point", "coordinates": [ -49.9539585, -22.1937618 ] } },
{ "type": "Feature", "properties": { "CNPJ": 33008936000118, "AGENTE": "LUCIANO_ZAFANI", "ACAO": "REALIZAR_PRIMEIRA_VISITA_POTENCIAL", "RAZAO_SOCIAL": "SAULO_AUTO_CENTER_COMERCIAL_LTDA", "ENDERECO": "AVENIDA_CASTRO_ALVES_1.716_POLON_MARILIA_BRASIL", "CIDADE": "MARILIA", "LATITUDE": -22.1940283, "LONGITUDE": -49.9587767 }, "geometry": { "type": "Point", "coordinates": [ -49.9587767, -22.1940283 ] } },
{ "type": "Feature", "properties": { "CNPJ": 55485291000147, "AGENTE": "LUCIANO_ZAFANI", "ACAO": "REALIZAR_PRIMEIRA_VISITA_POTENCIAL", "RAZAO_SOCIAL": "APR_SOLUCOES_INDUSTRIAIS_LTDA", "ENDERECO": "AVENIDA_CASTRO_ALVES_1710_POLON_MARILIA_BRASIL", "CIDADE": "MARILIA", "LATITUDE": -22.1941262, "LONGITUDE": -49.9585251 }, "geometry": { "type": "Point", "coordinates": [ -49.9585251, -22.1941262 ] } },
{ "type": "Feature", "properties": { "CNPJ": 57504997000134, "AGENTE": "LUCIANO_ZAFANI", "ACAO": "REALIZAR_PRIMEIRA_VISITA_POTENCIAL", "RAZAO_SOCIAL": "57.504.997_RENATA_MINEIRO_MARTINS", "ENDERECO": "RUA_ALVORADA_467_PALMITAL_MARILIA_BRASIL", "CIDADE": "MARILIA", "LATITUDE": -22.1941344, "LONGITUDE": -49.9531135 }, "geometry": { "type": "Point", "coordinates": [ -49.9531135, -22.1941344 ] } },
{ "type": "Feature", "properties": { "CNPJ": 28497241000107, "AGENTE": "LUCIANO_ZAFANI", "ACAO": "REALIZAR_PRIMEIRA_VISITA_POTENCIAL", "RAZAO_SOCIAL": "ELISIO_DE_CARVALHO_MARTINS", "ENDERECO": "RUA_ABILIO_SASSO_123_JARDIM_MONDRIAN_GARCA_BRASIL", "CIDADE": "GARCA", "LATITUDE": -22.195895, "LONGITUDE": -49.658654 }, "geometry": { "type": "Point", "coordinates": [ -49.658654, -22.195895 ] } },
{ "type": "Feature", "properties": { "CNPJ": 47262421000154, "AGENTE": "LUCIANO_ZAFANI", "ACAO": "REALIZAR_PRIMEIRA_VISITA_POTENCIAL", "RAZAO_SOCIAL": "47.262.421_THAIS_AGOSTINHO_DA_SILVA", "ENDERECO": "AVENIDA_WASHINGTON_LUIZ_91_PALMITAL_MARILIA_BRASIL", "CIDADE": "MARILIA", "LATITUDE": -22.197006, "LONGITUDE": -49.9540553 }, "geometry": { "type": "Point", "coordinates": [ -49.9540553, -22.197006 ] } },
{ "type": "Feature", "properties": { "CNPJ": 20821198000181, "AGENTE": "LUCIANO_ZAFANI", "ACAO": "REALIZAR_PRIMEIRA_VISITA_POTENCIAL", "RAZAO_SOCIAL": "CARMEN_SILVIA_ALVES_21284151875", "ENDERECO": "AVENIDA_PEDRO_DE_TOLEDO_3058_PALMITAL_MARILIA_BRASIL", "CIDADE": "MARILIA", "LATITUDE": -22.1974529, "LONGITUDE": -49.9566574 }, "geometry": { "type": "Point", "coordinates": [ -49.9566574, -22.1974529 ] } },
{ "type": "Feature", "properties": { "CNPJ": 34786860000114, "AGENTE": "LUCIANO_ZAFANI", "ACAO": "REALIZAR_PRIMEIRA_VISITA_POTENCIAL", "RAZAO_SOCIAL": "ROSANGELA_QUEIROZ_BERNARDO_16098088861", "ENDERECO": "RUA_JOSE_CLEMENTE_PEREIRA_57_A_PALMITAL_MARILIA_BRASIL", "CIDADE": "MARILIA", "LATITUDE": -22.1979611, "LONGITUDE": -49.9523712 }, "geometry": { "type": "Point", "coordinates": [ -49.9523712, -22.1979611 ] } },
{ "type": "Feature", "properties": { "CNPJ": 44513615000197, "AGENTE": "LUCIANO_ZAFANI", "ACAO": "REALIZAR_PRIMEIRA_VISITA_POTENCIAL", "RAZAO_SOCIAL": "THIAGO_HENRIQUE_RICCE_REIS", "ENDERECO": "AVENIDA_REPUBLICA_2868_PALMITAL_MARILIA_BRASIL", "CIDADE": "MARILIA", "LATITUDE": -22.1981567, "LONGITUDE": -49.95029 }, "geometry": { "type": "Point", "coordinates": [ -49.95029, -22.1981567 ] } },
{ "type": "Feature", "properties": { "CNPJ": 18316849000134, "AGENTE": "LUCIANO_ZAFANI", "ACAO": "REALIZAR_PRIMEIRA_VISITA_POTENCIAL", "RAZAO_SOCIAL": "R._C._MACHADO", "ENDERECO": "RUA_QUINZE_DE_NOVEMBRO_2945_SOMENZARI_MARILIA_BRASIL", "CIDADE": "MARILIA", "LATITUDE": -22.1982396, "LONGITUDE": -49.9591109 }, "geometry": { "type": "Point", "coordinates": [ -49.9591109, -22.1982396 ] } },
{ "type": "Feature", "properties": { "CNPJ": 43120561000137, "AGENTE": "LUCIANO_ZAFANI", "ACAO": "REALIZAR_PRIMEIRA_VISITA_POTENCIAL", "RAZAO_SOCIAL": "43.120.561_HEBER_MARQUES_DE_OLIVEIRA", "ENDERECO": "RUA_SANTOS_DUMONT_642_SAO_PAULO_MARILIA_BRASIL", "CIDADE": "MARILIA", "LATITUDE": -22.1995402, "LONGITUDE": -49.9502165 }, "geometry": { "type": "Point", "coordinates": [ -49.9502165, -22.1995402 ] } },
{ "type": "Feature", "properties": { "CNPJ": 327949540001, "AGENTE": "LUCIANO_ZAFANI", "ACAO": "REALIZAR_PRIMEIRA_VISITA_POTENCIAL", "RAZAO_SOCIAL": "THAYS_CARVALHO_GARCIA_30296123846", "ENDERECO": "RUA_GALILEIA_696_BETEL_MARILIA_BRASIL", "CIDADE": "MARILIA", "LATITUDE": -22.1997046, "LONGITUDE": -49.943445 }, "geometry": { "type": "Point", "coordinates": [ -49.943445, -22.1997046 ] } },
{ "type": "Feature", "properties": { "CNPJ": 37659698000161, "AGENTE": "LUCIANO_ZAFANI", "ACAO": "REALIZAR_PRIMEIRA_VISITA_POTENCIAL", "RAZAO_SOCIAL": "CARLITO_DONIZETI_DEL_MASSA_LTDA", "ENDERECO": "AVENIDA_REPUBLICA_2612_PALMITAL_MARILIA_BRASIL", "CIDADE": "MARILIA", "LATITUDE": -22.2001173, "LONGITUDE": -49.9550252 }, "geometry": { "type": "Point", "coordinates": [ -49.9550252, -22.2001173 ] } },
{ "type": "Feature", "properties": { "CNPJ": 55988588000125, "AGENTE": "LUCIANO_ZAFANI", "ACAO": "REALIZAR_PRIMEIRA_VISITA_POTENCIAL", "RAZAO_SOCIAL": "CORREALAB_PRODUTOS_PARA_LABORATORIOS_LTDA", "ENDERECO": "RUA_FAUSTO_ALONSO_126_JARDIM_DOS_LIRIOS_MARILIA_BRASIL", "CIDADE": "MARILIA", "LATITUDE": -22.2013633, "LONGITUDE": -49.9478389 }, "geometry": { "type": "Point", "coordinates": [ -49.9478389, -22.2013633 ] } },
{ "type": "Feature", "properties": { "CNPJ": 27878211000188, "AGENTE": "LUCIANO_ZAFANI", "ACAO": "REALIZAR_PRIMEIRA_VISITA_POTENCIAL", "RAZAO_SOCIAL": "TANIA_SOLANGE_RODRIGUES_FERNANDES_53785940149", "ENDERECO": "RUA_HUMBERTO_DE_CAMPOS_302_MARIANA_MARILIA_BRASIL", "CIDADE": "MARILIA", "LATITUDE": -22.2022105, "LONGITUDE": -49.9519577 }, "geometry": { "type": "Point", "coordinates": [ -49.9519577, -22.2022105 ] } },
{ "type": "Feature", "properties": { "CNPJ": 10784328000108, "AGENTE": "LUCIANO_ZAFANI", "ACAO": "REALIZAR_PRIMEIRA_VISITA_POTENCIAL", "RAZAO_SOCIAL": "INSTITUTO_VL_LTDA", "ENDERECO": "RUA_BARTOLOMEU_DE_GUSMAO_232_SAO_MIGUEL_MARILIA_BRASIL", "CIDADE": "MARILIA", "LATITUDE": -22.2024037, "LONGITUDE": -49.9589891 }, "geometry": { "type": "Point", "coordinates": [ -49.9589891, -22.2024037 ] } },
{ "type": "Feature", "properties": { "CNPJ": 27915285000147, "AGENTE": "LUCIANO_ZAFANI", "ACAO": "REALIZAR_PRIMEIRA_VISITA_POTENCIAL", "RAZAO_SOCIAL": "27.915.285_GABRIEL_AUGUSTO_DORCE", "ENDERECO": "AVENIDA_PEDRO_DE_TOLEDO_-_DE_1532/1533_A_2240/2241_1531_PALMITAL_MARILIA_BRASIL", "CIDADE": "MARILIA", "LATITUDE": -22.2029144, "LONGITUDE": -49.9549918 }, "geometry": { "type": "Point", "coordinates": [ -49.9549918, -22.2029144 ] } },
{ "type": "Feature", "properties": { "CNPJ": 1320718900013, "AGENTE": "LUCIANO_ZAFANI", "ACAO": "REALIZAR_PRIMEIRA_VISITA_POTENCIAL", "RAZAO_SOCIAL": "IVONETE_DE_GOES_BOSQUETI", "ENDERECO": "RUA_PREFEITO_SALVIANO_PEREIRA_DE_ANDRADE_966_FERRAROPOLIS_GARCA_BRASIL", "CIDADE": "GARCA", "LATITUDE": -22.2030314, "LONGITUDE": -49.6555718 }, "geometry": { "type": "Point", "coordinates": [ -49.6555718, -22.2030314 ] } },
{ "type": "Feature", "properties": { "CNPJ": 5078829500018, "AGENTE": "LUCIANO_ZAFANI", "ACAO": "REALIZAR_PRIMEIRA_VISITA_POTENCIAL", "RAZAO_SOCIAL": "50.788.295_MARCONI_FUGIVARA", "ENDERECO": "RUA_HENRIQUE_DIAS_-_ATE_1030/1031_698_FRANCISCO_DE_ABREU_FERNANDES_MARILIA_BRASIL", "CIDADE": "MARILIA", "LATITUDE": -22.2032249, "LONGITUDE": -49.9489378 }, "geometry": { "type": "Point", "coordinates": [ -49.9489378, -22.2032249 ] } },
{ "type": "Feature", "properties": { "CNPJ": 8206055000164, "AGENTE": "LUCIANO_ZAFANI", "ACAO": "REALIZAR_PRIMEIRA_VISITA_POTENCIAL", "RAZAO_SOCIAL": "MUTINOX_COMERCIO_DE_ACO_LTDA", "ENDERECO": "RUA_QUINZE_DE_NOVEMBRO_2288_BASSAN_MARILIA_BRASIL", "CIDADE": "MARILIA", "LATITUDE": -22.2039743, "LONGITUDE": -49.9564436 }, "geometry": { "type": "Point", "coordinates": [ -49.9564436, -22.2039743 ] } },
{ "type": "Feature", "properties": { "CNPJ": 13716496000146, "AGENTE": "LUCIANO_ZAFANI", "ACAO": "REALIZAR_PRIMEIRA_VISITA_POTENCIAL", "RAZAO_SOCIAL": "MIYABARA_&_ISHIYAMA_PASTELARIA_LTDA", "ENDERECO": "AVENIDA_REPUBLICA_2.060_PALMITAL_MARILIA_BRASIL", "CIDADE": "MARILIA", "LATITUDE": -22.2044804, "LONGITUDE": -49.9522672 }, "geometry": { "type": "Point", "coordinates": [ -49.9522672, -22.2044804 ] } },
{ "type": "Feature", "properties": { "CNPJ": 57252727000183, "AGENTE": "LUCIANO_ZAFANI", "ACAO": "REALIZAR_PRIMEIRA_VISITA_POTENCIAL", "RAZAO_SOCIAL": "CAMA_HOSPITALAR_OESTE_PAULISTA_COMERCIO_E_LOCACAO_LTDA", "ENDERECO": "RUA_JOSE_BONIFACIO_1085_JARDIM_CRISTO_REI_MARILIA_BRASIL", "CIDADE": "MARILIA", "LATITUDE": -22.2046832, "LONGITUDE": -49.9430364 }, "geometry": { "type": "Point", "coordinates": [ -49.9430364, -22.2046832 ] } },
{ "type": "Feature", "properties": { "CNPJ": 32116078000162, "AGENTE": "LUCIANO_ZAFANI", "ACAO": "REALIZAR_PRIMEIRA_VISITA_POTENCIAL", "RAZAO_SOCIAL": "RICARDO_OLIVEIRA_NOVAIS", "ENDERECO": "RUA_SARGENTO_WILSON_ABEL_DE_OLIVEIRA_1519_MARIANA_GARCA_BRASIL", "CIDADE": "GARCA", "LATITUDE": -22.2047085, "LONGITUDE": -49.6550736 }, "geometry": { "type": "Point", "coordinates": [ -49.6550736, -22.2047085 ] } },
{ "type": "Feature", "properties": { "CNPJ": 2520422500019, "AGENTE": "LUCIANO_ZAFANI", "ACAO": "REALIZAR_PRIMEIRA_VISITA_POTENCIAL", "RAZAO_SOCIAL": "EDUARDO_LUIZ_DOS_SANTOS_FILHO_39159889870", "ENDERECO": "AVENIDA_ELIEZER_ROCHA_125_JARDIM_SANTA_ANTONIETA_MARILIA_BRASIL", "CIDADE": "MARILIA", "LATITUDE": -22.2051235, "LONGITUDE": -49.9531233 }, "geometry": { "type": "Point", "coordinates": [ -49.9531233, -22.2051235 ] } },
{ "type": "Feature", "properties": { "CNPJ": 47077549000148, "AGENTE": "LUCIANO_ZAFANI", "ACAO": "REALIZAR_PRIMEIRA_VISITA_POTENCIAL", "RAZAO_SOCIAL": "JULIO_A._CAVALLO_LTDA", "ENDERECO": "RUA_JERICO_130_BETEL_MARILIA_BRASIL", "CIDADE": "MARILIA", "LATITUDE": -22.2054256, "LONGITUDE": -49.9437296 }, "geometry": { "type": "Point", "coordinates": [ -49.9437296, -22.2054256 ] } },
{ "type": "Feature", "properties": { "CNPJ": 5976645000188, "AGENTE": "LUCIANO_ZAFANI", "ACAO": "REALIZAR_PRIMEIRA_VISITA_POTENCIAL", "RAZAO_SOCIAL": "MOREIRA'S_BUFFET_E_EVENTOS_LTDA", "ENDERECO": "RUA_CORONEL_JOAQUIM_PIZZA_857_FERRAROPOLIS_GARCA_BRASIL", "CIDADE": "GARCA", "LATITUDE": -22.2054434, "LONGITUDE": -49.6532799 }, "geometry": { "type": "Point", "coordinates": [ -49.6532799, -22.2054434 ] } },
{ "type": "Feature", "properties": { "CNPJ": 35429835000146, "AGENTE": "LUCIANO_ZAFANI", "ACAO": "REALIZAR_PRIMEIRA_VISITA_POTENCIAL", "RAZAO_SOCIAL": "RAFAEL_BRANCO_MARTINS", "ENDERECO": "RUA_ARMANDO_BONINI_107_JARDIM_IMPERADOR_GARCA_BRASIL", "CIDADE": "GARCA", "LATITUDE": -22.2057172, "LONGITUDE": -49.6806739 }, "geometry": { "type": "Point", "coordinates": [ -49.6806739, -22.2057172 ] } },
{ "type": "Feature", "properties": { "CNPJ": 42079402000173, "AGENTE": "LUCIANO_ZAFANI", "ACAO": "REALIZAR_PRIMEIRA_VISITA_POTENCIAL", "RAZAO_SOCIAL": "FABIANA_ASNAL_CARRASCOSA", "ENDERECO": "AVENIDA_RAFAEL_MARANGAO_362_JARDIM_SAO_RAFAEL_GARCA_BRASIL", "CIDADE": "GARCA", "LATITUDE": -22.2057351, "LONGITUDE": -49.6677104 }, "geometry": { "type": "Point", "coordinates": [ -49.6677104, -22.2057351 ] } },
{ "type": "Feature", "properties": { "CNPJ": 25297460000154, "AGENTE": "LUCIANO_ZAFANI", "ACAO": "REALIZAR_PRIMEIRA_VISITA_POTENCIAL", "RAZAO_SOCIAL": "ANTONIO_SERGIO_DA_SILVA", "ENDERECO": "RUA_CAPITAO_ISAIAS_RODRIGUES_MARTINS_948_JARDIM_BRASIL_GARCA_BRASIL", "CIDADE": "GARCA", "LATITUDE": -22.2064405, "LONGITUDE": -49.6550918 }, "geometry": { "type": "Point", "coordinates": [ -49.6550918, -22.2064405 ] } },
{ "type": "Feature", "properties": { "CNPJ": 43532913000161, "AGENTE": "LUCIANO_ZAFANI", "ACAO": "REALIZAR_PRIMEIRA_VISITA_POTENCIAL", "RAZAO_SOCIAL": "43.532.913_GUILHERME_GALLINA_DE_OLIVEIRA", "ENDERECO": "RUA_MACHADO_DE_ASSIS_412_FRANCISCO_DE_ABREU_FERNANDES_MARILIA_BRASIL", "CIDADE": "MARILIA", "LATITUDE": -22.2065521, "LONGITUDE": -49.9475941 }, "geometry": { "type": "Point", "coordinates": [ -49.9475941, -22.2065521 ] } },
{ "type": "Feature", "properties": { "CNPJ": 2740967600019, "AGENTE": "LUCIANO_ZAFANI", "ACAO": "REALIZAR_PRIMEIRA_VISITA_POTENCIAL", "RAZAO_SOCIAL": "MUNDO_ENCANTADO_PRODUTOS_ALIMENTICIOS_LTDA", "ENDERECO": "RUA_PADRE_TOLEDO_LEITE_640_A_FERRAROPOLIS_GARCA_BRASIL", "CIDADE": "GARCA", "LATITUDE": -22.2073576, "LONGITUDE": -49.6588803 }, "geometry": { "type": "Point", "coordinates": [ -49.6588803, -22.2073576 ] } },
{ "type": "Feature", "properties": { "CNPJ": 43883670000106, "AGENTE": "LUCIANO_ZAFANI", "ACAO": "REALIZAR_PRIMEIRA_VISITA_POTENCIAL", "RAZAO_SOCIAL": "WANDERLEY_PEDRO_MARQUES", "ENDERECO": "RUA_CICERO_GUANAES_SIMOES_JUNIOR_310_JARDIM_MORADA_DO_SOL_GARCA_BRASIL", "CIDADE": "GARCA", "LATITUDE": -22.2075102, "LONGITUDE": -49.684103 }, "geometry": { "type": "Point", "coordinates": [ -49.684103, -22.2075102 ] } },
{ "type": "Feature", "properties": { "CNPJ": 54246829000106, "AGENTE": "LUCIANO_ZAFANI", "ACAO": "REALIZAR_PRIMEIRA_VISITA_POTENCIAL", "RAZAO_SOCIAL": "54.246.829_LUANA_GRACILIANO_IASNISWSKI", "ENDERECO": "AVENIDA_NELSON_SPIELMANN_1490_PALMITAL_MARILIA_BRASIL", "CIDADE": "MARILIA", "LATITUDE": -22.2078762, "LONGITUDE": -49.9521587 }, "geometry": { "type": "Point", "coordinates": [ -49.9521587, -22.2078762 ] } },
{ "type": "Feature", "properties": { "CNPJ": 40658159000112, "AGENTE": "LUCIANO_ZAFANI", "ACAO": "REALIZAR_PRIMEIRA_VISITA_POTENCIAL", "RAZAO_SOCIAL": "DECORI_BR_ARTEFATOS_DE_MADEIRA_LTDA", "ENDERECO": "RUA_ANTONIO_LEAL_OLIVEIRA_95_JM_SOL_NASCENTE_GARCA_BRASIL", "CIDADE": "GARCA", "LATITUDE": -22.2084166, "LONGITUDE": -49.6819313 }, "geometry": { "type": "Point", "coordinates": [ -49.6819313, -22.2084166 ] } },
{ "type": "Feature", "properties": { "CNPJ": 4076143000014, "AGENTE": "LUCIANO_ZAFANI", "ACAO": "REALIZAR_PRIMEIRA_VISITA_POTENCIAL", "RAZAO_SOCIAL": "EVELYN_CARLA_DEANIN_GONCALVES_43099171867", "ENDERECO": "RUA_BENJAMIN_PEREIRA_DE_SOUZA_253_SOMENZARI_MARILIA_BRASIL", "CIDADE": "MARILIA", "LATITUDE": -22.2086938, "LONGITUDE": -49.9566161 }, "geometry": { "type": "Point", "coordinates": [ -49.9566161, -22.2086938 ] } },
{ "type": "Feature", "properties": { "CNPJ": 45863775000129, "AGENTE": "LUCIANO_ZAFANI", "ACAO": "REALIZAR_PRIMEIRA_VISITA_POTENCIAL", "RAZAO_SOCIAL": "LOEVE_E_PAVANI_ARTIGOS_PARA_PISCINAS_LTDA", "ENDERECO": "RUA_ATALIBA_LEONEL_57_WILLIAMS_GARCA_BRASIL", "CIDADE": "GARCA", "LATITUDE": -22.208973, "LONGITUDE": -49.6536077 }, "geometry": { "type": "Point", "coordinates": [ -49.6536077, -22.208973 ] } },
{ "type": "Feature", "properties": { "CNPJ": 29759715000104, "AGENTE": "LUCIANO_ZAFANI", "ACAO": "REALIZAR_PRIMEIRA_VISITA_POTENCIAL", "RAZAO_SOCIAL": "ELOISA_RODRIGUES_BISCAINO_DE_BARROS", "ENDERECO": "RUA_EMILCE_JUNQUEIRA_FERREIRA_VILLELA_70_PARQUE_EMPRESARIAL_ROLANDE_ALVES_PEREIRA_LINS_BRASIL", "CIDADE": "LINS", "LATITUDE": -22.2091451, "LONGITUDE": -49.957035 }, "geometry": { "type": "Point", "coordinates": [ -49.957035, -22.2091451 ] } },
{ "type": "Feature", "properties": { "CNPJ": 42358817000186, "AGENTE": "LUCIANO_ZAFANI", "ACAO": "REALIZAR_PRIMEIRA_VISITA_POTENCIAL", "RAZAO_SOCIAL": "GABRIELLA_DALLE_VEDOVE_DE_MORAES_49882034845", "ENDERECO": "RUA_FRANCISCO_LAURELLI_49_JARDIM_BANCARIOS_MARILIA_BRASIL", "CIDADE": "MARILIA", "LATITUDE": -22.209347, "LONGITUDE": -49.9511198 }, "geometry": { "type": "Point", "coordinates": [ -49.9511198, -22.209347 ] } },
{ "type": "Feature", "properties": { "CNPJ": 57951664000153, "AGENTE": "LUCIANO_ZAFANI", "ACAO": "REALIZAR_PRIMEIRA_VISITA_POTENCIAL", "RAZAO_SOCIAL": "57.951.664_PAULO_GABRIEL_CHEREGATTI_RODRIGUES", "ENDERECO": "RUA_RUI_BARBOSA_296_PALMITAL_MARILIA_BRASIL", "CIDADE": "MARILIA", "LATITUDE": -22.2094269, "LONGITUDE": -49.9487526 }, "geometry": { "type": "Point", "coordinates": [ -49.9487526, -22.2094269 ] } },
{ "type": "Feature", "properties": { "CNPJ": 44888281000136, "AGENTE": "LUCIANO_ZAFANI", "ACAO": "REALIZAR_PRIMEIRA_VISITA_POTENCIAL", "RAZAO_SOCIAL": "EDISON_KOUJI_KOYAMA", "ENDERECO": "RUA_LUIZ_MONICI_402_LABIENOPOLIS_GARCA_BRASIL", "CIDADE": "GARCA", "LATITUDE": -22.2094829, "LONGITUDE": -49.6521374 }, "geometry": { "type": "Point", "coordinates": [ -49.6521374, -22.2094829 ] } },
{ "type": "Feature", "properties": { "CNPJ": 41428436000163, "AGENTE": "LUCIANO_ZAFANI", "ACAO": "REALIZAR_PRIMEIRA_VISITA_POTENCIAL", "RAZAO_SOCIAL": "FERNANDES_MATERIAIS_PARA_CONSTRUCAO_MARILIA_LTDA", "ENDERECO": "RUA_INCONFIDENCIA_385_MARILIA_MARILIA_BRASIL", "CIDADE": "MARILIA", "LATITUDE": -22.2095436, "LONGITUDE": -49.9476505 }, "geometry": { "type": "Point", "coordinates": [ -49.9476505, -22.2095436 ] } },
{ "type": "Feature", "properties": { "CNPJ": 31985729000198, "AGENTE": "LUCIANO_ZAFANI", "ACAO": "REALIZAR_PRIMEIRA_VISITA_POTENCIAL", "RAZAO_SOCIAL": "KLEBER_APARECIDO_DE_ALMEIDA", "ENDERECO": "RUA_SIMONE_REGINA_PAVANI_36_JARDIM_CAFEZAL_GARCA_BRASIL", "CIDADE": "GARCA", "LATITUDE": -22.2096921, "LONGITUDE": -49.6747567 }, "geometry": { "type": "Point", "coordinates": [ -49.6747567, -22.2096921 ] } },
{ "type": "Feature", "properties": { "CNPJ": 3842626100014, "AGENTE": "LUCIANO_ZAFANI", "ACAO": "REALIZAR_PRIMEIRA_VISITA_POTENCIAL", "RAZAO_SOCIAL": "CIA_H_B_BRASIL_DE_GARCA_LTDA.", "ENDERECO": "RUA_BARAO_DO_RIO_BRANCO_247_FERRAROPOLIS_GARCA_BRASIL", "CIDADE": "GARCA", "LATITUDE": -22.21015, "LONGITUDE": -49.654959 }, "geometry": { "type": "Point", "coordinates": [ -49.654959, -22.21015 ] } },
{ "type": "Feature", "properties": { "CNPJ": 46233707000149, "AGENTE": "LUCIANO_ZAFANI", "ACAO": "REALIZAR_PRIMEIRA_VISITA_POTENCIAL", "RAZAO_SOCIAL": "DANIEL_SIEPLIN_MEDEIROS_DE_SOUZA", "ENDERECO": "RUA_MELCHIADES_NERY_DE_CASTRO_139_FERRAROPOLIS_GARCA_BRASIL", "CIDADE": "GARCA", "LATITUDE": -22.2102104, "LONGITUDE": -49.6615377 }, "geometry": { "type": "Point", "coordinates": [ -49.6615377, -22.2102104 ] } },
{ "type": "Feature", "properties": { "CNPJ": 43555805000104, "AGENTE": "LUCIANO_ZAFANI", "ACAO": "REALIZAR_PRIMEIRA_VISITA_POTENCIAL", "RAZAO_SOCIAL": "MIRIAM_DA_SILVA_SABINO_FREIRES", "ENDERECO": "RUA_DOMINGOS_MARTINS_34_CONJUNTO_HABITACIONAL_TAKEO_TOYOTA_GARCA_BRASIL", "CIDADE": "GARCA", "LATITUDE": -22.2104298, "LONGITUDE": -49.6843576 }, "geometry": { "type": "Point", "coordinates": [ -49.6843576, -22.2104298 ] } },
{ "type": "Feature", "properties": { "CNPJ": 26261512000103, "AGENTE": "LUCIANO_ZAFANI", "ACAO": "REALIZAR_PRIMEIRA_VISITA_POTENCIAL", "RAZAO_SOCIAL": "CASA_DO_LED_ARTIGOS_DE_ILUMINACAO_LTDA", "ENDERECO": "RUA_HEITOR_PENTEADO_86_FERRAROPOLIS_GARCA_BRASIL", "CIDADE": "GARCA", "LATITUDE": -22.2106525, "LONGITUDE": -49.6544694 }, "geometry": { "type": "Point", "coordinates": [ -49.6544694, -22.2106525 ] } },
{ "type": "Feature", "properties": { "CNPJ": 14548759000118, "AGENTE": "LUCIANO_ZAFANI", "ACAO": "REALIZAR_PRIMEIRA_VISITA_POTENCIAL", "RAZAO_SOCIAL": "WESLEI_ROGERIO_CAMARGO", "ENDERECO": "RUA_CARLOS_FERRARI_736_CENTRO_GARCA_BRASIL", "CIDADE": "GARCA", "LATITUDE": -22.2114337, "LONGITUDE": -49.6715765 }, "geometry": { "type": "Point", "coordinates": [ -49.6715765, -22.2114337 ] } },
{ "type": "Feature", "properties": { "CNPJ": 15216611000149, "AGENTE": "LUCIANO_ZAFANI", "ACAO": "REALIZAR_PRIMEIRA_VISITA_POTENCIAL", "RAZAO_SOCIAL": "ADRIANO_APARECIDO_TEIXEIRA_MARCENARIA", "ENDERECO": "AVENIDA_DOUTOR_LABIENO_DA_COSTA_MACHADO_2279_PARQUE_SANTA_MARIA_GARCA_BRASIL", "CIDADE": "GARCA", "LATITUDE": -22.2115009, "LONGITUDE": -49.668615 }, "geometry": { "type": "Point", "coordinates": [ -49.668615, -22.2115009 ] } },
{ "type": "Feature", "properties": { "CNPJ": 24840824000138, "AGENTE": "LUCIANO_ZAFANI", "ACAO": "REALIZAR_PRIMEIRA_VISITA_POTENCIAL", "RAZAO_SOCIAL": "DIONE_SCARPINELLI_FRANCISCO", "ENDERECO": "RUA_CARLOS_FERRARI_35_FERRAROPOLIS_GARCA_BRASIL", "CIDADE": "GARCA", "LATITUDE": -22.2115284, "LONGITUDE": -49.6539599 }, "geometry": { "type": "Point", "coordinates": [ -49.6539599, -22.2115284 ] } },
{ "type": "Feature", "properties": { "CNPJ": 8298494000144, "AGENTE": "LUCIANO_ZAFANI", "ACAO": "REALIZAR_PRIMEIRA_VISITA_POTENCIAL", "RAZAO_SOCIAL": "ARACALOG_ENTREGAS_EXPRESSA_LTDA", "ENDERECO": "AVENIDA_DR_LABIENO_COSTA_MACHADO_1906_FAIXA_INTEGRACAO_GARCA_BRASIL", "CIDADE": "GARCA", "LATITUDE": -22.2117104, "LONGITUDE": -49.664922 }, "geometry": { "type": "Point", "coordinates": [ -49.664922, -22.2117104 ] } },
{ "type": "Feature", "properties": { "CNPJ": 25073712000161, "AGENTE": "LUCIANO_ZAFANI", "ACAO": "REALIZAR_PRIMEIRA_VISITA_POTENCIAL", "RAZAO_SOCIAL": "OPEN_IB_COMERCIO_E_DISTRIBUIDORA_DE_PRODUTOS_ELETRONICOS_LTDA", "ENDERECO": "AVENIDA_DA_SAUDADE_74_JARDIM_JOSE_RIBEIRO_DE_ANDRADE_GARCA_BRASIL", "CIDADE": "GARCA", "LATITUDE": -22.2119791, "LONGITUDE": -49.6708089 }, "geometry": { "type": "Point", "coordinates": [ -49.6708089, -22.2119791 ] } },
{ "type": "Feature", "properties": { "CNPJ": 9649917000196, "AGENTE": "LUCIANO_ZAFANI", "ACAO": "REALIZAR_PRIMEIRA_VISITA_POTENCIAL", "RAZAO_SOCIAL": "ELETRO_CENTER_DE_GARCA_LTDA", "ENDERECO": "RUA_DEPUTADO_MANOEL_JOAQUIM_FERNANDES_254_CENTRO_GARCA_BRASIL", "CIDADE": "GARCA", "LATITUDE": -22.2121356, "LONGITUDE": -49.6560169 }, "geometry": { "type": "Point", "coordinates": [ -49.6560169, -22.2121356 ] } },
{ "type": "Feature", "properties": { "CNPJ": 358956950001, "AGENTE": "LUCIANO_ZAFANI", "ACAO": "REALIZAR_PRIMEIRA_VISITA_POTENCIAL", "RAZAO_SOCIAL": "CARINA_GOMES_MAGOTI", "ENDERECO": "RUA_CARLOS_FERRARI_464_FERRAROPOLIS_GARCA_BRASIL", "CIDADE": "GARCA", "LATITUDE": -22.2121839, "LONGITUDE": -49.6719994 }, "geometry": { "type": "Point", "coordinates": [ -49.6719994, -22.2121839 ] } },
{ "type": "Feature", "properties": { "CNPJ": 54764618000157, "AGENTE": "LUCIANO_ZAFANI", "ACAO": "REALIZAR_PRIMEIRA_VISITA_POTENCIAL", "RAZAO_SOCIAL": "LUIZ_CARLOS_DE_SOUZA-GARCA", "ENDERECO": "RUA_MANOEL_J_FERNANDES_234_CENTRO_GARCA_BRASIL", "CIDADE": "GARCA", "LATITUDE": -22.2122152, "LONGITUDE": -49.6557316 }, "geometry": { "type": "Point", "coordinates": [ -49.6557316, -22.2122152 ] } },
{ "type": "Feature", "properties": { "CNPJ": 38014154000105, "AGENTE": "LUCIANO_ZAFANI", "ACAO": "REALIZAR_PRIMEIRA_VISITA_POTENCIAL", "RAZAO_SOCIAL": "RAFAELA_DE_SOUZA_PAIXAO", "ENDERECO": "RUA_BRASIL_320_CENTRO_(JAFA)_GARCA_BRASIL", "CIDADE": "GARCA", "LATITUDE": -22.2133307, "LONGITUDE": -49.7302165 }, "geometry": { "type": "Point", "coordinates": [ -49.7302165, -22.2133307 ] } },
{ "type": "Feature", "properties": { "CNPJ": 28981350000103, "AGENTE": "LUCIANO_ZAFANI", "ACAO": "REALIZAR_PRIMEIRA_VISITA_POTENCIAL", "RAZAO_SOCIAL": "CARLOS_REGINALDO_MATSUDA", "ENDERECO": "RUA_LAUDIVAR_FRASSON_59_RESIDENCIAL_PARQUE_REAL_GARCA_BRASIL", "CIDADE": "GARCA", "LATITUDE": -22.2141362, "LONGITUDE": -49.6478032 }, "geometry": { "type": "Point", "coordinates": [ -49.6478032, -22.2141362 ] } },
{ "type": "Feature", "properties": { "CNPJ": 49815937000104, "AGENTE": "LUCIANO_ZAFANI", "ACAO": "REALIZAR_PRIMEIRA_VISITA_POTENCIAL", "RAZAO_SOCIAL": "ROQUE_ALBERTO_DE_JESUS_SANTANA", "ENDERECO": "VIELA_UM_38_JARDIM_ANITA_GARCA_BRASIL", "CIDADE": "GARCA", "LATITUDE": -22.2141362, "LONGITUDE": -49.6478032 }, "geometry": { "type": "Point", "coordinates": [ -49.6478032, -22.2141362 ] } },
{ "type": "Feature", "properties": { "CNPJ": 1125793400012, "AGENTE": "LUCIANO_ZAFANI", "ACAO": "REALIZAR_PRIMEIRA_VISITA_POTENCIAL", "RAZAO_SOCIAL": "MOLDVEL_-_INDUSTRIA_MECANICA_LTDA", "ENDERECO": "RUA_ALVINO_DE_OLIVEIRA_40_DISTRITO_INDUSTRIAL_LUCIO_DE_OLIVEIRA_LIMA_SOBRINH_GARCA_BRASIL", "CIDADE": "GARCA", "LATITUDE": -22.2143217, "LONGITUDE": -49.6826982 }, "geometry": { "type": "Point", "coordinates": [ -49.6826982, -22.2143217 ] } },
{ "type": "Feature", "properties": { "CNPJ": 52243581000196, "AGENTE": "LUCIANO_ZAFANI", "ACAO": "REALIZAR_PRIMEIRA_VISITA_POTENCIAL", "RAZAO_SOCIAL": "R.B.G._COMERCIO_DE_PRODUTOS_AGROPECUARIOS_LTDA", "ENDERECO": "RUA_FRANCISCO_DA_SILVA_BRAGA_308_LABIENOPOLIS_GARCA_BRASIL", "CIDADE": "GARCA", "LATITUDE": -22.2148669, "LONGITUDE": -49.6597117 }, "geometry": { "type": "Point", "coordinates": [ -49.6597117, -22.2148669 ] } },
{ "type": "Feature", "properties": { "CNPJ": 7529108000115, "AGENTE": "LUCIANO_ZAFANI", "ACAO": "REALIZAR_PRIMEIRA_VISITA_POTENCIAL", "RAZAO_SOCIAL": "HERTS_ELETROMECANICA_LTDA", "ENDERECO": "RUA_WALTER_ALVES_DE_SOUZA_129_DISTRITO_INDUSTRIAL_GARCA_BRASIL", "CIDADE": "GARCA", "LATITUDE": -22.215101, "LONGITUDE": -49.6814117 }, "geometry": { "type": "Point", "coordinates": [ -49.6814117, -22.215101 ] } },
{ "type": "Feature", "properties": { "CNPJ": 32321612000172, "AGENTE": "LUCIANO_ZAFANI", "ACAO": "REALIZAR_PRIMEIRA_VISITA_POTENCIAL", "RAZAO_SOCIAL": "ISABELA_LOPES_GIGLIO_DE_OLIVEIRA", "ENDERECO": "RUA_DEPUTADO_MANOEL_JOAQUIM_FERNANDES_205_FERRAROPOLIS_GARCA_BRASIL", "CIDADE": "GARCA", "LATITUDE": -22.215349, "LONGITUDE": -49.6514914 }, "geometry": { "type": "Point", "coordinates": [ -49.6514914, -22.215349 ] } },
{ "type": "Feature", "properties": { "CNPJ": 20241957000137, "AGENTE": "LUCIANO_ZAFANI", "ACAO": "REALIZAR_PRIMEIRA_VISITA_POTENCIAL", "RAZAO_SOCIAL": "APARECIDO_SILVERIO_FILHO", "ENDERECO": "RUA_PREFEITO_SALVIANO_PEREIRA_DE_ANDRADE_1003_CENTRO_GARCA_BRASIL", "CIDADE": "GARCA", "LATITUDE": -22.215349, "LONGITUDE": -49.6514914 }, "geometry": { "type": "Point", "coordinates": [ -49.6514914, -22.215349 ] } },
{ "type": "Feature", "properties": { "CNPJ": 24174247000192, "AGENTE": "LUCIANO_ZAFANI", "ACAO": "REALIZAR_PRIMEIRA_VISITA_POTENCIAL", "RAZAO_SOCIAL": "AFIRA_TECNOLOGIA_LTDA", "ENDERECO": "RUA_DAS_FLORES_25_LABIENOPOLIS_GARCA_BRASIL", "CIDADE": "GARCA", "LATITUDE": -22.2161425, "LONGITUDE": -49.6530001 }, "geometry": { "type": "Point", "coordinates": [ -49.6530001, -22.2161425 ] } },
{ "type": "Feature", "properties": { "CNPJ": 24759179000123, "AGENTE": "LUCIANO_ZAFANI", "ACAO": "REALIZAR_PRIMEIRA_VISITA_POTENCIAL", "RAZAO_SOCIAL": "DJALMA_PEREIRA_COQUEIRO", "ENDERECO": "AVENIDA_PRESIDENTE_VARGAS_442_LABIENOPOLIS_GARCA_BRASIL", "CIDADE": "GARCA", "LATITUDE": -22.2188918, "LONGITUDE": -49.6537981 }, "geometry": { "type": "Point", "coordinates": [ -49.6537981, -22.2188918 ] } },
{ "type": "Feature", "properties": { "CNPJ": 46839407000108, "AGENTE": "LUCIANO_ZAFANI", "ACAO": "REALIZAR_PRIMEIRA_VISITA_POTENCIAL", "RAZAO_SOCIAL": "LUCIANA_GUEDES_CARDOSO", "ENDERECO": "RUA_INDEPENDENCIA_126_LABIENOPOLIS_GARCA_BRASIL", "CIDADE": "GARCA", "LATITUDE": -22.220328, "LONGITUDE": -49.6521161 }, "geometry": { "type": "Point", "coordinates": [ -49.6521161, -22.220328 ] } },
{ "type": "Feature", "properties": { "CNPJ": 12901325000124, "AGENTE": "LUCIANO_ZAFANI", "ACAO": "REALIZAR_PRIMEIRA_VISITA_POTENCIAL", "RAZAO_SOCIAL": "EDSON_TEODORO_DE_PAULA", "ENDERECO": "RUA_DO_JACARANDA_121_JARDIM_PAINEIRAS_GARCA_BRASIL", "CIDADE": "GARCA", "LATITUDE": -22.222857, "LONGITUDE": -49.6371066 }, "geometry": { "type": "Point", "coordinates": [ -49.6371066, -22.222857 ] } },
{ "type": "Feature", "properties": { "CNPJ": 40588213000109, "AGENTE": "LUCIANO_ZAFANI", "ACAO": "REALIZAR_PRIMEIRA_VISITA_POTENCIAL", "RAZAO_SOCIAL": "LUIZ_CLAUDIO_ALVES_CASTILHO", "ENDERECO": "RUA_PEROBA_748_JARDIM_DOS_EUCALIPTOS_GARCA_BRASIL", "CIDADE": "GARCA", "LATITUDE": -22.2231024, "LONGITUDE": -49.6348293 }, "geometry": { "type": "Point", "coordinates": [ -49.6348293, -22.2231024 ] } },
{ "type": "Feature", "properties": { "CNPJ": 43890084000199, "AGENTE": "LUCIANO_ZAFANI", "ACAO": "REALIZAR_PRIMEIRA_VISITA_POTENCIAL", "RAZAO_SOCIAL": "BASSO_E_PEREIRA_OFICINA_MECANICA_LTDA", "ENDERECO": "RUA_GETULIO_VARGAS_70_JOSE_RIBEIRO_GARCA_BRASIL", "CIDADE": "GARCA", "LATITUDE": -22.2238944, "LONGITUDE": -49.6486267 }, "geometry": { "type": "Point", "coordinates": [ -49.6486267, -22.2238944 ] } },
{ "type": "Feature", "properties": { "CNPJ": 55319497000105, "AGENTE": "LUCIANO_ZAFANI", "ACAO": "REALIZAR_PRIMEIRA_VISITA_POTENCIAL", "RAZAO_SOCIAL": "MARCELO_PEREIRA_ROSA_JUNIOR", "ENDERECO": "RUA_ANITA_COSTA_589_ARACELI_GARCA_BRASIL", "CIDADE": "GARCA", "LATITUDE": -22.2246116, "LONGITUDE": -49.651875 }, "geometry": { "type": "Point", "coordinates": [ -49.651875, -22.2246116 ] } },
{ "type": "Feature", "properties": { "CNPJ": 20198004000133, "AGENTE": "LUCIANO_ZAFANI", "ACAO": "REALIZAR_PRIMEIRA_VISITA_POTENCIAL", "RAZAO_SOCIAL": "JOEL_ANTONIO_DE_LIMA", "ENDERECO": "RUA_ANALIA_DE_ALMEIDA_150_JOSE_RIBEIRO_GARCA_BRASIL", "CIDADE": "GARCA", "LATITUDE": -22.2248437, "LONGITUDE": -49.6486373 }, "geometry": { "type": "Point", "coordinates": [ -49.6486373, -22.2248437 ] } },
{ "type": "Feature", "properties": { "CNPJ": 46100296000113, "AGENTE": "LUCIANO_ZAFANI", "ACAO": "REALIZAR_PRIMEIRA_VISITA_POTENCIAL", "RAZAO_SOCIAL": "PEDRO_NEVES_NETTO", "ENDERECO": "RUA_GUARANTA_222_JARDIM_DOS_EUCALIPTOS_GARCA_BRASIL", "CIDADE": "GARCA", "LATITUDE": -22.2252742, "LONGITUDE": -49.6414365 }, "geometry": { "type": "Point", "coordinates": [ -49.6414365, -22.2252742 ] } },
{ "type": "Feature", "properties": { "CNPJ": 2098655900014, "AGENTE": "LUCIANO_ZAFANI", "ACAO": "REALIZAR_PRIMEIRA_VISITA_POTENCIAL", "RAZAO_SOCIAL": "JUARES_JESUS_FERREIRA", "ENDERECO": "RUA_SALVADOR_ARMENTANO_100_JARDIM_CAFEZAL_GARCA_BRASIL", "CIDADE": "GARCA", "LATITUDE": -22.2263236, "LONGITUDE": -49.6451732 }, "geometry": { "type": "Point", "coordinates": [ -49.6451732, -22.2263236 ] } },
{ "type": "Feature", "properties": { "CNPJ": 15412574000144, "AGENTE": "LUCIANO_ZAFANI", "ACAO": "REALIZAR_PRIMEIRA_VISITA_POTENCIAL", "RAZAO_SOCIAL": "VAGNER_JOSE_LOBATO_DA_SILVA", "ENDERECO": "RUA_DOUTOR_MIGUEL_BRUNO_FERREIRA_582_FERRAROPOLIS_GARCA_BRASIL", "CIDADE": "GARCA", "LATITUDE": -22.2264318, "LONGITUDE": -49.641716 }, "geometry": { "type": "Point", "coordinates": [ -49.641716, -22.2264318 ] } },
{ "type": "Feature", "properties": { "CNPJ": 591627000164, "AGENTE": "LUCIANO_ZAFANI", "ACAO": "REALIZAR_PRIMEIRA_VISITA_POTENCIAL", "RAZAO_SOCIAL": "PULVERMAQ_LTDA", "ENDERECO": "RUA_EDGARD_DE_CASTRO_MARQUES_103_JOSE_RIBEIRO_GARCA_BRASIL", "CIDADE": "GARCA", "LATITUDE": -22.2280332, "LONGITUDE": -49.6483514 }, "geometry": { "type": "Point", "coordinates": [ -49.6483514, -22.2280332 ] } },
{ "type": "Feature", "properties": { "CNPJ": 47051375000144, "AGENTE": "LUCIANO_ZAFANI", "ACAO": "REALIZAR_PRIMEIRA_VISITA_POTENCIAL", "RAZAO_SOCIAL": "JOSE_ANTONIO_CARDOSO_FILHO", "ENDERECO": "RUA_PEDRO_URBANO_BOMFIM_230_JARDIM_ECOVILLE_GARCA_BRASIL", "CIDADE": "GARCA", "LATITUDE": -22.232237, "LONGITUDE": -49.640087 }, "geometry": { "type": "Point", "coordinates": [ -49.640087, -22.232237 ] } },
{ "type": "Feature", "properties": { "CNPJ": 40880902000184, "AGENTE": "LUCIANO_ZAFANI", "ACAO": "REALIZAR_PRIMEIRA_VISITA_POTENCIAL", "RAZAO_SOCIAL": "GISELE_ISAIRA_ISQUERDO_AONO", "ENDERECO": "RUA_COMERCIANTE_MANOEL_IGNACIO_1230_CONJUNTO_HABITACIONAL_DEPUTADO_JAMIL_DUALIBI_TUPA_BRASIL", "CIDADE": "TUPA", "LATITUDE": -21.9198599, "LONGITUDE": -50.4931255 }, "geometry": { "type": "Point", "coordinates": [ -50.4931255, -21.9198599 ] } },
{ "type": "Feature", "properties": { "CNPJ": 19537700000148, "AGENTE": "LUCIANO_ZAFANI", "ACAO": "REALIZAR_PRIMEIRA_VISITA_POTENCIAL", "RAZAO_SOCIAL": "CARINE_DA_SILVA_SERVILHA", "ENDERECO": "RUA_GENTIL_MORABITO_625_CONJUNTO_HABITACIONAL_DEPUTADO_JAMIL_DUALIBI_TUPA_BRASIL", "CIDADE": "TUPA", "LATITUDE": -21.9246981, "LONGITUDE": -50.4898416 }, "geometry": { "type": "Point", "coordinates": [ -50.4898416, -21.9246981 ] } },
{ "type": "Feature", "properties": { "CNPJ": 22617663000192, "AGENTE": "LUCIANO_ZAFANI", "ACAO": "REALIZAR_PRIMEIRA_VISITA_POTENCIAL", "RAZAO_SOCIAL": "GABRIEL_HENRIQUE_LEITE_CALDEIRAS", "ENDERECO": "RUA_PIONEIRO_LUIZ_PITILIN_51_NOVA_TUPA_TUPA_BRASIL", "CIDADE": "TUPA", "LATITUDE": -21.9247928, "LONGITUDE": -50.491574 }, "geometry": { "type": "Point", "coordinates": [ -50.491574, -21.9247928 ] } },
{ "type": "Feature", "properties": { "CNPJ": 40727522000104, "AGENTE": "LUCIANO_ZAFANI", "ACAO": "REALIZAR_PRIMEIRA_VISITA_POTENCIAL", "RAZAO_SOCIAL": "ROSIANE_ROSA_NUNES_SILVA", "ENDERECO": "RUA_PIONEIRO_LUIZ_PITILIN_150_NOVA_TUPA_TUPA_BRASIL", "CIDADE": "TUPA", "LATITUDE": -21.9249413, "LONGITUDE": -50.4905304 }, "geometry": { "type": "Point", "coordinates": [ -50.4905304, -21.9249413 ] } },
{ "type": "Feature", "properties": { "CNPJ": 36896567000135, "AGENTE": "LUCIANO_ZAFANI", "ACAO": "REALIZAR_PRIMEIRA_VISITA_POTENCIAL", "RAZAO_SOCIAL": "MANOEL_PEREIRA_DA_SILVA", "ENDERECO": "RUA_ARISTIN_FERNANDES_31_CONJUNTO_HABITACIONAL_JOSE_MARIA_GONCALVES_GAMEIRO_TUPA_BRASIL", "CIDADE": "TUPA", "LATITUDE": -21.9260453, "LONGITUDE": -50.4933885 }, "geometry": { "type": "Point", "coordinates": [ -50.4933885, -21.9260453 ] } },
{ "type": "Feature", "properties": { "CNPJ": 35353990000126, "AGENTE": "LUCIANO_ZAFANI", "ACAO": "REALIZAR_PRIMEIRA_VISITA_POTENCIAL", "RAZAO_SOCIAL": "SONIA_CONCEICAO_FLACON_DOS_SANTOS", "ENDERECO": "RUA_CLEMENTINO_CAMPOS_ROCHA_470_CONJUNTO_HABITACIONAL_VEREADOR_JOAQUIM_RIBEIRO_PORTO_TUPA_BRASIL", "CIDADE": "TUPA", "LATITUDE": -21.9286125, "LONGITUDE": -50.4962376 }, "geometry": { "type": "Point", "coordinates": [ -50.4962376, -21.9286125 ] } },
{ "type": "Feature", "properties": { "CNPJ": 5029162100014, "AGENTE": "LUCIANO_ZAFANI", "ACAO": "REALIZAR_PRIMEIRA_VISITA_POTENCIAL", "RAZAO_SOCIAL": "NATHAN_HENRIQUE_SANTOS_TORRES", "ENDERECO": "RUA_CLEMENTINO_CAMPOS_ROCHA_411_CONJUNTO_HABITACIONAL_VEREADOR_JOAQUIM_RIBEIRO_PORTO_TUPA_BRASIL", "CIDADE": "TUPA", "LATITUDE": -21.9292369, "LONGITUDE": -50.4964593 }, "geometry": { "type": "Point", "coordinates": [ -50.4964593, -21.9292369 ] } },
{ "type": "Feature", "properties": { "CNPJ": 51954492000195, "AGENTE": "LUCIANO_ZAFANI", "ACAO": "REALIZAR_PRIMEIRA_VISITA_POTENCIAL", "RAZAO_SOCIAL": "VANESSA_CONTRERA_MARCONATO", "ENDERECO": "RUA_VISTA_ALEGRE_850_JARDIM_ARITANA_TUPA_BRASIL", "CIDADE": "TUPA", "LATITUDE": -21.9312481, "LONGITUDE": -50.4893266 }, "geometry": { "type": "Point", "coordinates": [ -50.4893266, -21.9312481 ] } },
{ "type": "Feature", "properties": { "CNPJ": 41019155000157, "AGENTE": "LUCIANO_ZAFANI", "ACAO": "REALIZAR_PRIMEIRA_VISITA_POTENCIAL", "RAZAO_SOCIAL": "ROBSON_MATEUS_PARRA", "ENDERECO": "RUA_JOAO_CAPIOTO_449_PARQUE_IPIRANGA_TUPA_BRASIL", "CIDADE": "TUPA", "LATITUDE": -21.9324267, "LONGITUDE": -50.4969011 }, "geometry": { "type": "Point", "coordinates": [ -50.4969011, -21.9324267 ] } },
{ "type": "Feature", "properties": { "CNPJ": 1689588200013, "AGENTE": "LUCIANO_ZAFANI", "ACAO": "REALIZAR_PRIMEIRA_VISITA_POTENCIAL", "RAZAO_SOCIAL": "ALFREDO_MUNHOZ_CABRAL", "ENDERECO": "RUA_PASTOR_TEODORO_TOWKAN_TOWKANIUK_370_PARQUE_IPIRANGA_TUPA_BRASIL", "CIDADE": "TUPA", "LATITUDE": -21.933534, "LONGITUDE": -50.4950973 }, "geometry": { "type": "Point", "coordinates": [ -50.4950973, -21.933534 ] } },
{ "type": "Feature", "properties": { "CNPJ": 46633252000159, "AGENTE": "LUCIANO_ZAFANI", "ACAO": "REALIZAR_PRIMEIRA_VISITA_POTENCIAL", "RAZAO_SOCIAL": "LEONARDO_DUTRA_MINHOTO", "ENDERECO": "RUA_ADELIO_DA_SILVA_MOREIRA_201_JARDIM_ITAIPU_TUPA_BRASIL", "CIDADE": "TUPA", "LATITUDE": -21.9360431, "LONGITUDE": -50.4926779 }, "geometry": { "type": "Point", "coordinates": [ -50.4926779, -21.9360431 ] } },
{ "type": "Feature", "properties": { "CNPJ": 22919843000129, "AGENTE": "LUCIANO_ZAFANI", "ACAO": "REALIZAR_PRIMEIRA_VISITA_POTENCIAL", "RAZAO_SOCIAL": "APARECIDA_ROSA_DIAS_DELFINO_PAPELARIA", "ENDERECO": "RUA_MARILIA_3003_VILA_SANTA_INEZ_TUPA_BRASIL", "CIDADE": "TUPA", "LATITUDE": -21.9361016, "LONGITUDE": -50.4995926 }, "geometry": { "type": "Point", "coordinates": [ -50.4995926, -21.9361016 ] } },
{ "type": "Feature", "properties": { "CNPJ": 1382344000019, "AGENTE": "LUCIANO_ZAFANI", "ACAO": "REALIZAR_PRIMEIRA_VISITA_POTENCIAL", "RAZAO_SOCIAL": "F._R._RODRIGUES_FRIOS", "ENDERECO": "RUA_DOUTOR_GIORGIO_MARIO_DE_LEITGEB_80_CONJUNTO_HABITACIONAL_PIONEIRO_JOSE_FELICIANO_TUPA_BRASIL", "CIDADE": "TUPA", "LATITUDE": -21.9388475, "LONGITUDE": -50.4858613 }, "geometry": { "type": "Point", "coordinates": [ -50.4858613, -21.9388475 ] } },
{ "type": "Feature", "properties": { "CNPJ": 36551817000103, "AGENTE": "LUCIANO_ZAFANI", "ACAO": "REALIZAR_PRIMEIRA_VISITA_POTENCIAL", "RAZAO_SOCIAL": "MARIA_APARECIDA_FRESNEDA_MANZANI", "ENDERECO": "RUA_JOAO_GRANDE_240_PARQUE_RESIDENCIAL_CASARI_TUPA_BRASIL", "CIDADE": "TUPA", "LATITUDE": -21.9390215, "LONGITUDE": -50.4930777 }, "geometry": { "type": "Point", "coordinates": [ -50.4930777, -21.9390215 ] } }
]
}
