{
"type": "FeatureCollection",
"name": "MARIA_INES_HELFSTEIN",
"crs": { "type": "name", "properties": { "name": "urn:ogc:def:crs:OGC:1.3:CRS84" } },
"xy_coordinate_resolution": 1e-15,
"features": [
{ "type": "Feature", "properties": { "CNPJ": 41039473000180, "AGENTE": "MARIA_INES_HELFSTEIN", "ACAO": "REALIZAR_SEGUNDA_VISITA", "RAZAO_SOCIAL": "RAFAEL_ALVES_PEREIRA_38995512814_-_CHICAGO_BARBEARIA", "ENDERECO": "AVENIDA_ARESTOTELES_COSTA_PINTO_323_JARDIM_DOS_BICHINHOS_SAO_PAULO", "CIDADE": "SAO_PAULO", "LATITUDE": -23.7346827, "LONGITUDE": -46.683083 }, "geometry": { "type": "Point", "coordinates": [ -46.683083, -23.7346827 ] } },
{ "type": "Feature", "properties": { "CNPJ": 43846833000180, "AGENTE": "MARIA_INES_HELFSTEIN", "ACAO": "REALIZAR_SEGUNDA_VISITA", "RAZAO_SOCIAL": "WESLEY_VINICIUS_LIMA_NASCIMENTO_41800267835_-_WESLEY_VINICIUS_NASCIMENTO", "ENDERECO": "AVENIDA_ARESTOTELES_COSTA_PINTO_808_JARDIM_DOS_BICHINHOS_SAO_PAULO", "CIDADE": "SAO_PAULO", "LATITUDE": -23.7347376, "LONGITUDE": -46.6829834 }, "geometry": { "type": "Point", "coordinates": [ -46.6829834, -23.7347376 ] } },
{ "type": "Feature", "properties": { "CNPJ": 18436948000150, "AGENTE": "MARIA_INES_HELFSTEIN", "ACAO": "REALIZAR_SEGUNDA_VISITA", "RAZAO_SOCIAL": "JRN_AUTO_MECANICA_SERVICOS_E_PECAS_LTDA_-_JRN_SERVICOS_AUTOMOTIVOS_E_PECAS", "ENDERECO": "AVENIDA_ARESTOTELES_COSTA_PINTO_947_JARDIM_DOS_BICHINHOS_SAO_PAULO", "CIDADE": "SAO_PAULO", "LATITUDE": -23.7359892, "LONGITUDE": -46.683677 }, "geometry": { "type": "Point", "coordinates": [ -46.683677, -23.7359892 ] } },
{ "type": "Feature", "properties": { "CNPJ": 30949045000178, "AGENTE": "MARIA_INES_HELFSTEIN", "ACAO": "REALIZAR_SEGUNDA_VISITA", "RAZAO_SOCIAL": "30.949.045_TAINARA_ALVES_DA_FONSECA_-_NARA_FONSECA_HAIR_SALON", "ENDERECO": "AVENIDA_ATLANTICA_5822_JARDIM_CRUZEIRO_SAO_PAULO", "CIDADE": "SAO_PAULO", "LATITUDE": -23.7156413, "LONGITUDE": -46.7067037 }, "geometry": { "type": "Point", "coordinates": [ -46.7067037, -23.7156413 ] } },
{ "type": "Feature", "properties": { "CNPJ": 28985374000122, "AGENTE": "MARIA_INES_HELFSTEIN", "ACAO": "REALIZAR_SEGUNDA_VISITA", "RAZAO_SOCIAL": "SIGA_EM_FRENTE_CENTRO_DE_TREINAMENTO_PARA_HABILITADOS_LTDA_-_SIGA_EM_FRENTE_TREINAMENTOS_PARA_HABILITADOS", "ENDERECO": "AVENIDA_DO_JANGADEIRO_400_CIDADE_DUTRA_SAO_PAULO", "CIDADE": "SAO_PAULO", "LATITUDE": -23.7073799, "LONGITUDE": -46.699111 }, "geometry": { "type": "Point", "coordinates": [ -46.699111, -23.7073799 ] } },
{ "type": "Feature", "properties": { "CNPJ": 7971600000146, "AGENTE": "MARIA_INES_HELFSTEIN", "ACAO": "REALIZAR_SEGUNDA_VISITA", "RAZAO_SOCIAL": "RICOFIT_ACADEMIA_LTDA_-_RICOFIT_ACADEMIA_LTDA", "ENDERECO": "AVENIDA_DOUTOR_LUIS_ARROBAS_MARTINS_172_VELEIROS_SAO_PAULO", "CIDADE": "SAO_PAULO", "LATITUDE": -23.6873478, "LONGITUDE": -46.7039287 }, "geometry": { "type": "Point", "coordinates": [ -46.7039287, -23.6873478 ] } },
{ "type": "Feature", "properties": { "CNPJ": 22917856000169, "AGENTE": "MARIA_INES_HELFSTEIN", "ACAO": "REALIZAR_SEGUNDA_VISITA", "RAZAO_SOCIAL": "CACCTUS_LOUNGE_LTDA_-_CACCTUS__LOUNGE", "ENDERECO": "AVENIDA_DOUTOR_LUIS_ARROBAS_MARTINS_680_SOCORRO_SAO_PAULO", "CIDADE": "SAO_PAULO", "LATITUDE": -23.6857208, "LONGITUDE": -46.7080049 }, "geometry": { "type": "Point", "coordinates": [ -46.7080049, -23.6857208 ] } },
{ "type": "Feature", "properties": { "CNPJ": 17160871000175, "AGENTE": "MARIA_INES_HELFSTEIN", "ACAO": "REALIZAR_SEGUNDA_VISITA", "RAZAO_SOCIAL": "R&J_HAIR_CABELEIREIROS_LTDA_-_RITA_CABELEIREIRA", "ENDERECO": "AVENIDA_FELICIANO_CORREIA_58_JARDIM_SATELITE_SAO_PAULO", "CIDADE": "SAO_PAULO", "LATITUDE": -23.7032297, "LONGITUDE": -46.6890301 }, "geometry": { "type": "Point", "coordinates": [ -46.6890301, -23.7032297 ] } },
{ "type": "Feature", "properties": { "CNPJ": 20697016000102, "AGENTE": "MARIA_INES_HELFSTEIN", "ACAO": "REALIZAR_SEGUNDA_VISITA", "RAZAO_SOCIAL": "T._DE_O._CARNEIRO_PET_SHOP_-_CENTRO_ESTETICO_BICHO_SOLTO", "ENDERECO": "AVENIDA_GREGORIO_BEZERRA_255_JARDIM_PRIMAVERA_SAO_PAULO", "CIDADE": "SAO_PAULO", "LATITUDE": -23.7098553, "LONGITUDE": -46.6882009 }, "geometry": { "type": "Point", "coordinates": [ -46.6882009, -23.7098553 ] } },
{ "type": "Feature", "properties": { "CNPJ": 37534642000180, "AGENTE": "MARIA_INES_HELFSTEIN", "ACAO": "REALIZAR_SEGUNDA_VISITA", "RAZAO_SOCIAL": "YASMIN_SUZANO_CALABRO_47352346830_-_YASMIN_CALABRO", "ENDERECO": "AVENIDA_IPANEMA_179_VELEIROS_SAO_PAULO", "CIDADE": "SAO_PAULO", "LATITUDE": -23.6812841, "LONGITUDE": -46.7073607 }, "geometry": { "type": "Point", "coordinates": [ -46.7073607, -23.6812841 ] } },
{ "type": "Feature", "properties": { "CNPJ": 28951701000125, "AGENTE": "MARIA_INES_HELFSTEIN", "ACAO": "REALIZAR_SEGUNDA_VISITA", "RAZAO_SOCIAL": "LABORATORIO_E_ARTIGOS_PARA_CACA_E_PESCA_LTDA_-_LABORATORIO_E_ARTIGOS_PARA_CACA_E_PESCA_LTDA", "ENDERECO": "AVENIDA_JOAO_CARLOS_DA_SILVA_BORGES_221_VILA_CRUZEIRO_SAO_PAULO", "CIDADE": "SAO_PAULO", "LATITUDE": -23.6435959, "LONGITUDE": -46.7118648 }, "geometry": { "type": "Point", "coordinates": [ -46.7118648, -23.6435959 ] } },
{ "type": "Feature", "properties": { "CNPJ": 59207741000190, "AGENTE": "MARIA_INES_HELFSTEIN", "ACAO": "REALIZAR_SEGUNDA_VISITA", "RAZAO_SOCIAL": "LUCAS_G_DE_SOUZA_-_LUCAS_VELLA_BARBEARIA", "ENDERECO": "AVENIDA_JOAO_PAULO_DA_SILVA_277_VILA_DA_PAZ_SAO_PAULO", "CIDADE": "SAO_PAULO", "LATITUDE": -23.6937865, "LONGITUDE": -46.6965352 }, "geometry": { "type": "Point", "coordinates": [ -46.6965352, -23.6937865 ] } },
{ "type": "Feature", "properties": { "CNPJ": 45984747000160, "AGENTE": "MARIA_INES_HELFSTEIN", "ACAO": "REALIZAR_SEGUNDA_VISITA", "RAZAO_SOCIAL": "LANCHES_E_BAR_LEBLON_LTDA_-_LANCHES_LEBLON", "ENDERECO": "AVENIDA_LEBLON_555_VELEIROS_SAO_PAULO", "CIDADE": "SAO_PAULO", "LATITUDE": -23.683576, "LONGITUDE": -46.7100388 }, "geometry": { "type": "Point", "coordinates": [ -46.7100388, -23.683576 ] } },
{ "type": "Feature", "properties": { "CNPJ": 37125415000100, "AGENTE": "MARIA_INES_HELFSTEIN", "ACAO": "REALIZAR_SEGUNDA_VISITA", "RAZAO_SOCIAL": "WILLIAM_NUNES_FIRMINO_BAR_E_LANCHONETE_-_RESTAURANTE_E_LANCHONETE_BRUTUS", "ENDERECO": "AVENIDA_MANUEL_ALVES_SOARES_1124_JARDIM_PRIMAVERA_SAO_PAULO", "CIDADE": "SAO_PAULO", "LATITUDE": -23.7235601, "LONGITUDE": -46.6883897 }, "geometry": { "type": "Point", "coordinates": [ -46.6883897, -23.7235601 ] } },
{ "type": "Feature", "properties": { "CNPJ": 7845088000191, "AGENTE": "MARIA_INES_HELFSTEIN", "ACAO": "REALIZAR_SEGUNDA_VISITA", "RAZAO_SOCIAL": "CENTRO_DE_FORMACAO_DE_CONDUTORES_GONCALVES_&_MENEZES_LTDA_-_AUTO_ESCOLA_TERMINAL_VARGINHA", "ENDERECO": "AVENIDA_PAULO_GUILGUER_REIMBERG_370_JARDIM_NOVO_HORIZONTE_SAO_PAULO", "CIDADE": "SAO_PAULO", "LATITUDE": -23.7336144, "LONGITUDE": -46.6843219 }, "geometry": { "type": "Point", "coordinates": [ -46.6843219, -23.7336144 ] } },
{ "type": "Feature", "properties": { "CNPJ": 39497087000190, "AGENTE": "MARIA_INES_HELFSTEIN", "ACAO": "REALIZAR_SEGUNDA_VISITA", "RAZAO_SOCIAL": "DA_RIBEIRO_COMERCIO_E_SERVICOS_PARA_MOTOCICLETAS_-_NOVA_ERA_OFICINA", "ENDERECO": "AVENIDA_PRESIDENTE_JOAO_GOULART_2033_JARDIM_GUAEMBU_SAO_PAULO", "CIDADE": "SAO_PAULO", "LATITUDE": -23.7234393, "LONGITUDE": -46.6814925 }, "geometry": { "type": "Point", "coordinates": [ -46.6814925, -23.7234393 ] } },
{ "type": "Feature", "properties": { "CNPJ": 21600327000174, "AGENTE": "MARIA_INES_HELFSTEIN", "ACAO": "REALIZAR_SEGUNDA_VISITA", "RAZAO_SOCIAL": "MARLI_DA_CONCEICAO_BARBOSA_75241510982_-_SM_FERRAGENS", "ENDERECO": "AVENIDA_PRESIDENTE_JOAO_GOULART_375_JARDIM_MALIA_SAO_PAULO", "CIDADE": "SAO_PAULO", "LATITUDE": -23.721798, "LONGITUDE": -46.6955852 }, "geometry": { "type": "Point", "coordinates": [ -46.6955852, -23.721798 ] } },
{ "type": "Feature", "properties": { "CNPJ": 21735264000163, "AGENTE": "MARIA_INES_HELFSTEIN", "ACAO": "REALIZAR_SEGUNDA_VISITA", "RAZAO_SOCIAL": "SATWAY_CORRETORA_DE_SEGUROS_E_SEGURANCA_AUTOMOTIVA_LTDA_-_SATWAY", "ENDERECO": "AVENIDA_PROFESSOR_PAPINI_37_CIDADE_DUTRA_SAO_PAULO", "CIDADE": "SAO_PAULO", "LATITUDE": -23.7148028, "LONGITUDE": -46.7066942 }, "geometry": { "type": "Point", "coordinates": [ -46.7066942, -23.7148028 ] } },
{ "type": "Feature", "properties": { "CNPJ": 54536588000121, "AGENTE": "MARIA_INES_HELFSTEIN", "ACAO": "REALIZAR_SEGUNDA_VISITA", "RAZAO_SOCIAL": "54.536.588_MAURICIO_EDUARDO_HENNING_-_BABA_YAGA", "ENDERECO": "AVENIDA_RUBENS_MONTANARO_DE_BORBA_101_JARDIM_REGIS_SAO_PAULO", "CIDADE": "SAO_PAULO", "LATITUDE": -23.7079736, "LONGITUDE": -46.6943309 }, "geometry": { "type": "Point", "coordinates": [ -46.6943309, -23.7079736 ] } },
{ "type": "Feature", "properties": { "CNPJ": 19115642000164, "AGENTE": "MARIA_INES_HELFSTEIN", "ACAO": "REALIZAR_SEGUNDA_VISITA", "RAZAO_SOCIAL": "ALEX_SERAFIM_LEITE_MERCADINHO_-_MERCADINHO_ALEX_SERAFIM", "ENDERECO": "AVENIDA_SERGIO_LANDULFO_FURTADO_106_JARDIM_GUANHEMBU_SAO_PAULO", "CIDADE": "SAO_PAULO", "LATITUDE": -23.7337343, "LONGITUDE": -46.684106 }, "geometry": { "type": "Point", "coordinates": [ -46.684106, -23.7337343 ] } },
{ "type": "Feature", "properties": { "CNPJ": 44129288000174, "AGENTE": "MARIA_INES_HELFSTEIN", "ACAO": "REALIZAR_SEGUNDA_VISITA", "RAZAO_SOCIAL": "44.129.288_ENRIQUE_MATHEUS_FELICIANO_-_PILGER_ESTETICA_AUTOMATICA", "ENDERECO": "AVENIDA_SERGIO_LANDULFO_FURTADO_13_JARDIM_GUANHEMBU_SAO_PAULO", "CIDADE": "SAO_PAULO", "LATITUDE": -23.7320013, "LONGITUDE": -46.687841 }, "geometry": { "type": "Point", "coordinates": [ -46.687841, -23.7320013 ] } },
{ "type": "Feature", "properties": { "CNPJ": 47834272000150, "AGENTE": "MARIA_INES_HELFSTEIN", "ACAO": "REALIZAR_SEGUNDA_VISITA", "RAZAO_SOCIAL": "47.834.272_JOSE_ROBERTO_MODESTO_DE_ARAUJO_-_BOX_11_IMPORTS", "ENDERECO": "AVENIDA_SERGIO_LANDULFO_FURTADO_146_JARDIM_GUANHEMBU_SAO_PAULO", "CIDADE": "SAO_PAULO", "LATITUDE": -23.7336129, "LONGITUDE": -46.6843868 }, "geometry": { "type": "Point", "coordinates": [ -46.6843868, -23.7336129 ] } },
{ "type": "Feature", "properties": { "CNPJ": 52626260000170, "AGENTE": "MARIA_INES_HELFSTEIN", "ACAO": "REALIZAR_SEGUNDA_VISITA", "RAZAO_SOCIAL": "52.626.260_JOSE_LUCIANO_ABREU_VASCONCELOS_-_PADARIA_PAI_E_FILHO", "ENDERECO": "AVENIDA_SERGIO_LANDULFO_FURTADO_255_JARDIM_GUANHEMBU_SAO_PAULO", "CIDADE": "SAO_PAULO", "LATITUDE": -23.7334765, "LONGITUDE": -46.6853347 }, "geometry": { "type": "Point", "coordinates": [ -46.6853347, -23.7334765 ] } },
{ "type": "Feature", "properties": { "CNPJ": 57092919000170, "AGENTE": "MARIA_INES_HELFSTEIN", "ACAO": "REALIZAR_SEGUNDA_VISITA", "RAZAO_SOCIAL": "CASA_DE_RAO_REI_DAS_AVES_LTDA_-_CASA_DE_RAO_REI_DAS_AVES", "ENDERECO": "AVENIDA_SERGIO_LANDULFO_FURTADO_46_JARDIM_GUANHEMBU_SAO_PAULO", "CIDADE": "SAO_PAULO", "LATITUDE": -23.7339063, "LONGITUDE": -46.6834008 }, "geometry": { "type": "Point", "coordinates": [ -46.6834008, -23.7339063 ] } },
{ "type": "Feature", "properties": { "CNPJ": 39652947000112, "AGENTE": "MARIA_INES_HELFSTEIN", "ACAO": "REALIZAR_SEGUNDA_VISITA", "RAZAO_SOCIAL": "CASA_DO_NORTE_BACANAS_E_RESTAURANTE_LTDA_-_BACANAS_CASA_DO_NORTE", "ENDERECO": "AVENIDA_SERGIO_LANDULFO_FURTADO_510_JARDIM_GUANHEMBU_SAO_PAULO", "CIDADE": "SAO_PAULO", "LATITUDE": -23.7331148, "LONGITUDE": -46.6857214 }, "geometry": { "type": "Point", "coordinates": [ -46.6857214, -23.7331148 ] } },
{ "type": "Feature", "properties": { "CNPJ": 52463021000147, "AGENTE": "MARIA_INES_HELFSTEIN", "ACAO": "REALIZAR_SEGUNDA_VISITA", "RAZAO_SOCIAL": "52.463.021_DIEGO_HENRIQUE_ELIDIO_DA_SILVA_-_ART_MOBILE_PLANEMADOS", "ENDERECO": "ESTRADA_DO_SCHMIDT_1010_CHACARA_DO_SOL_SAO_PAULO", "CIDADE": "SAO_PAULO", "LATITUDE": -23.7808616, "LONGITUDE": -46.6718863 }, "geometry": { "type": "Point", "coordinates": [ -46.6718863, -23.7808616 ] } },
{ "type": "Feature", "properties": { "CNPJ": 14638210000114, "AGENTE": "MARIA_INES_HELFSTEIN", "ACAO": "REALIZAR_SEGUNDA_VISITA", "RAZAO_SOCIAL": "VIDAGOL_-_VIDA_GOL_CAFETEIRA", "ENDERECO": "RUA_ADEN_154_RIO_BONITO_SAO_PAULO", "CIDADE": "SAO_PAULO", "LATITUDE": -23.7213304, "LONGITUDE": -46.7057335 }, "geometry": { "type": "Point", "coordinates": [ -46.7057335, -23.7213304 ] } },
{ "type": "Feature", "properties": { "CNPJ": 34562706000169, "AGENTE": "MARIA_INES_HELFSTEIN", "ACAO": "REALIZAR_SEGUNDA_VISITA", "RAZAO_SOCIAL": "PLACE_OF_BURGER_LTDA_-_PLACE_OF_BURGER", "ENDERECO": "RUA_AGUILAR_58_CIDADE_DUTRA_SAO_PAULO", "CIDADE": "SAO_PAULO", "LATITUDE": -23.7328065, "LONGITUDE": -46.6986877 }, "geometry": { "type": "Point", "coordinates": [ -46.6986877, -23.7328065 ] } },
{ "type": "Feature", "properties": { "CNPJ": 24253707000178, "AGENTE": "MARIA_INES_HELFSTEIN", "ACAO": "REALIZAR_SEGUNDA_VISITA", "RAZAO_SOCIAL": "DANIELA_LEITE_DE_OLIVEIRA_26294549833_-_FOCUS_DECORACOES", "ENDERECO": "RUA_ANDRE_DE_LEAO_82_VILA_SOCORRO_SAO_PAULO", "CIDADE": "SAO_PAULO", "LATITUDE": -23.6669202, "LONGITUDE": -46.7162921 }, "geometry": { "type": "Point", "coordinates": [ -46.7162921, -23.6669202 ] } },
{ "type": "Feature", "properties": { "CNPJ": 14372760000134, "AGENTE": "MARIA_INES_HELFSTEIN", "ACAO": "REALIZAR_SEGUNDA_VISITA", "RAZAO_SOCIAL": "14.372.760_ANTONIO_JESUS_GONCALVES_-_CHAVEIROS_GONCHAVES", "ENDERECO": "RUA_ARMANDO_VIEIRA_47_VI_CENTENARIO_SAO_PAULO", "CIDADE": "SAO_PAULO", "LATITUDE": -23.7067649, "LONGITUDE": -46.6877237 }, "geometry": { "type": "Point", "coordinates": [ -46.6877237, -23.7067649 ] } },
{ "type": "Feature", "properties": { "CNPJ": 40758398000144, "AGENTE": "MARIA_INES_HELFSTEIN", "ACAO": "REALIZAR_SEGUNDA_VISITA", "RAZAO_SOCIAL": "SANDRA_APARECIDA_FLORES_10748061827_-_CAFE_DA_VOVO", "ENDERECO": "RUA_ARTUR_NASCIMENTO_JUNIOR_81_INTERLAGOS_SAO_PAULO", "CIDADE": "SAO_PAULO", "LATITUDE": -23.7033024, "LONGITUDE": -46.6913191 }, "geometry": { "type": "Point", "coordinates": [ -46.6913191, -23.7033024 ] } },
{ "type": "Feature", "properties": { "CNPJ": 28718037000179, "AGENTE": "MARIA_INES_HELFSTEIN", "ACAO": "REALIZAR_SEGUNDA_VISITA", "RAZAO_SOCIAL": "28.718.037_CARLOS_ALBERTO_BARBOSA_DE_SOUZA_SANTOS_-_HOSPITAL_DO_OCULOS", "ENDERECO": "RUA_BARAO_DE_DUPRAT_280_SANTO_AMARO_SAO_PAULO", "CIDADE": "SAO_PAULO", "LATITUDE": -23.6551595, "LONGITUDE": -46.7029233 }, "geometry": { "type": "Point", "coordinates": [ -46.7029233, -23.6551595 ] } },
{ "type": "Feature", "properties": { "CNPJ": 58159560000173, "AGENTE": "MARIA_INES_HELFSTEIN", "ACAO": "REALIZAR_SEGUNDA_VISITA", "RAZAO_SOCIAL": "58.159.560_ALEX_FERREIRA_DE_MORAES_-_ALEX_FERREIRA", "ENDERECO": "RUA_CHRISTIAN_HEINS_87_JARDIM_SATELITE_SAO_PAULO", "CIDADE": "SAO_PAULO", "LATITUDE": -23.7000609, "LONGITUDE": -46.6919009 }, "geometry": { "type": "Point", "coordinates": [ -46.6919009, -23.7000609 ] } },
{ "type": "Feature", "properties": { "CNPJ": 34902913000115, "AGENTE": "MARIA_INES_HELFSTEIN", "ACAO": "REALIZAR_SEGUNDA_VISITA", "RAZAO_SOCIAL": "LUCAS_FABRICIO_ARAUJO_TAVEIRA_37233463832_-_BARUK_TALENTOS_BARBEARIA", "ENDERECO": "RUA_DINALVA_OLIVEIRA_TEIXEIRA_91_JARDIM_GUANHEMBU_SAO_PAULO", "CIDADE": "SAO_PAULO", "LATITUDE": -23.7290164, "LONGITUDE": -46.6836279 }, "geometry": { "type": "Point", "coordinates": [ -46.6836279, -23.7290164 ] } },
{ "type": "Feature", "properties": { "CNPJ": 21405309000131, "AGENTE": "MARIA_INES_HELFSTEIN", "ACAO": "REALIZAR_SEGUNDA_VISITA", "RAZAO_SOCIAL": "SHIRLEY_PAULA_DELMIRO_26507182850_-_SBS_SALVADOR_E__BOLOS", "ENDERECO": "RUA_DJALMA_PESSOLATO_112_JARDIM_SATELITE_SAO_PAULO", "CIDADE": "SAO_PAULO", "LATITUDE": -23.7071627, "LONGITUDE": -46.6899251 }, "geometry": { "type": "Point", "coordinates": [ -46.6899251, -23.7071627 ] } },
{ "type": "Feature", "properties": { "CNPJ": 37627708000187, "AGENTE": "MARIA_INES_HELFSTEIN", "ACAO": "REALIZAR_SEGUNDA_VISITA", "RAZAO_SOCIAL": "37.627.708_CAROLINE_FAVA_MANTOVANI_-_RISOS_CESTAS", "ENDERECO": "RUA_ERMELINDA_MELETTI_TELDESCHI_14_JARDIM_SUSANA_SAO_PAULO", "CIDADE": "SAO_PAULO", "LATITUDE": -23.6910452, "LONGITUDE": -46.7084905 }, "geometry": { "type": "Point", "coordinates": [ -46.7084905, -23.6910452 ] } },
{ "type": "Feature", "properties": { "CNPJ": 48663166000114, "AGENTE": "MARIA_INES_HELFSTEIN", "ACAO": "REALIZAR_SEGUNDA_VISITA", "RAZAO_SOCIAL": "DIRCEU_LIRA_DE_SOUZA_ELETRICA_-_SOLUCAO_LUZ", "ENDERECO": "RUA_FREDERICO_RENE_DE_JAEGHER_726_RIO_BONITO_SAO_PAULO", "CIDADE": "SAO_PAULO", "LATITUDE": -23.7195743, "LONGITUDE": -46.706124 }, "geometry": { "type": "Point", "coordinates": [ -46.706124, -23.7195743 ] } },
{ "type": "Feature", "properties": { "CNPJ": 10258090000179, "AGENTE": "MARIA_INES_HELFSTEIN", "ACAO": "REALIZAR_SEGUNDA_VISITA", "RAZAO_SOCIAL": "D_ACRILICO_COMERCIAL_LTDA_-_D.ACRILICOS", "ENDERECO": "RUA_HUMBERTO_ALBUQUERQUE_CAMARA_NETO_1113_JARDIM_GUANHEMBU_SAO_PAULO", "CIDADE": "SAO_PAULO", "LATITUDE": -23.7316691, "LONGITUDE": -46.6881114 }, "geometry": { "type": "Point", "coordinates": [ -46.6881114, -23.7316691 ] } },
{ "type": "Feature", "properties": { "CNPJ": 37467441000108, "AGENTE": "MARIA_INES_HELFSTEIN", "ACAO": "REALIZAR_SEGUNDA_VISITA", "RAZAO_SOCIAL": "KAREN_BARBARA_GONCALVES_SILVA_23359101839_-_STUDIO_CK_HAIR", "ENDERECO": "RUA_ICANHEMA_207_CIDADE_DUTRA_SAO_PAULO", "CIDADE": "SAO_PAULO", "LATITUDE": -23.7093543, "LONGITUDE": -46.6984885 }, "geometry": { "type": "Point", "coordinates": [ -46.6984885, -23.7093543 ] } },
{ "type": "Feature", "properties": { "CNPJ": 40828800000110, "AGENTE": "MARIA_INES_HELFSTEIN", "ACAO": "REALIZAR_SEGUNDA_VISITA", "RAZAO_SOCIAL": "40.828.800_EWERTON_VINICIUS_ALVES_DA_SILVA_-_EWERTON_VINICIUS", "ENDERECO": "RUA_IEDA_SANTOS_DELGADO_293_JARDIM_TOCA_SAO_PAULO", "CIDADE": "SAO_PAULO", "LATITUDE": -23.7346791, "LONGITUDE": -46.6831016 }, "geometry": { "type": "Point", "coordinates": [ -46.6831016, -23.7346791 ] } },
{ "type": "Feature", "properties": { "CNPJ": 1861182000158, "AGENTE": "MARIA_INES_HELFSTEIN", "ACAO": "REALIZAR_SEGUNDA_VISITA", "RAZAO_SOCIAL": "FANTUCCI_COMERCIO_DE_AUTO_PECAS_LTDA_-_MANGUEIRAUTO", "ENDERECO": "RUA_JEQUIRITUBA_1113_JARDIM_GUAEMBU_SAO_PAULO", "CIDADE": "SAO_PAULO", "LATITUDE": -23.731894, "LONGITUDE": -46.6879702 }, "geometry": { "type": "Point", "coordinates": [ -46.6879702, -23.731894 ] } },
{ "type": "Feature", "properties": { "CNPJ": 43004359000140, "AGENTE": "MARIA_INES_HELFSTEIN", "ACAO": "REALIZAR_SEGUNDA_VISITA", "RAZAO_SOCIAL": "RICARDO_APARECIDO_OTICA_LTDA_-_HOSPITAL_DO_OCULOS", "ENDERECO": "RUA_JEQUIRITUBA_1380_PARQUE_AMERICA_SAO_PAULO", "CIDADE": "SAO_PAULO", "LATITUDE": -23.7333395, "LONGITUDE": -46.68874 }, "geometry": { "type": "Point", "coordinates": [ -46.68874, -23.7333395 ] } },
{ "type": "Feature", "properties": { "CNPJ": 44322472000136, "AGENTE": "MARIA_INES_HELFSTEIN", "ACAO": "REALIZAR_SEGUNDA_VISITA", "RAZAO_SOCIAL": "44.322.472_TAMIRES_ARAUJO_DOS_SANTOS_-_STUDIO_THAMMYRES_MATTOS", "ENDERECO": "RUA_JEQUIRITUBA_1751_PARQUE_AMERICA_SAO_PAULO", "CIDADE": "SAO_PAULO", "LATITUDE": -23.736342, "LONGITUDE": -46.6882594 }, "geometry": { "type": "Point", "coordinates": [ -46.6882594, -23.736342 ] } },
{ "type": "Feature", "properties": { "CNPJ": 57780331000109, "AGENTE": "MARIA_INES_HELFSTEIN", "ACAO": "REALIZAR_SEGUNDA_VISITA", "RAZAO_SOCIAL": "57.780.331_FABIANA_SILVA_DOS_SANTOS_-_AMERICA_DISTRIBUIDORA_DE_BEBIDAS", "ENDERECO": "RUA_JEQUIRITUBA_832_PARQUE_AMERICA_SAO_PAULO", "CIDADE": "SAO_PAULO", "LATITUDE": -23.728792, "LONGITUDE": -46.6892047 }, "geometry": { "type": "Point", "coordinates": [ -46.6892047, -23.728792 ] } },
{ "type": "Feature", "properties": { "CNPJ": 41747886000119, "AGENTE": "MARIA_INES_HELFSTEIN", "ACAO": "REALIZAR_SEGUNDA_VISITA", "RAZAO_SOCIAL": "ANGELO_DE_SOUSA_ALVES_45008948881_-_PLANO_A_BARBEARIA", "ENDERECO": "RUA_JOANA_AVANCINI_PRADO_365_JARDIM_LALLO_SAO_PAULO", "CIDADE": "SAO_PAULO", "LATITUDE": -23.7067048, "LONGITUDE": -46.6873523 }, "geometry": { "type": "Point", "coordinates": [ -46.6873523, -23.7067048 ] } },
{ "type": "Feature", "properties": { "CNPJ": 19666281000144, "AGENTE": "MARIA_INES_HELFSTEIN", "ACAO": "REALIZAR_SEGUNDA_VISITA", "RAZAO_SOCIAL": "19.666.281_FRANCISCO_DAS_CHAGAS_PEREIRA_TEIXEIRA_-_BAR_ACOCHEGO", "ENDERECO": "RUA_JUPI_93_SANTO_AMARO_SAO_PAULO", "CIDADE": "SAO_PAULO", "LATITUDE": -23.6466914, "LONGITUDE": -46.7114279 }, "geometry": { "type": "Point", "coordinates": [ -46.7114279, -23.6466914 ] } },
{ "type": "Feature", "properties": { "CNPJ": 55893959000195, "AGENTE": "MARIA_INES_HELFSTEIN", "ACAO": "REALIZAR_SEGUNDA_VISITA", "RAZAO_SOCIAL": "55.893.959_LIDIA_TERESINHA_ZIMIANO_-_CHURRAS_CO", "ENDERECO": "RUA_LEONARDO_DE_FASSIO_547_JARDIM_SUSANA_SAO_PAULO", "CIDADE": "SAO_PAULO", "LATITUDE": -23.6925205, "LONGITUDE": -46.7088013 }, "geometry": { "type": "Point", "coordinates": [ -46.7088013, -23.6925205 ] } },
{ "type": "Feature", "properties": { "CNPJ": 16903811000132, "AGENTE": "MARIA_INES_HELFSTEIN", "ACAO": "REALIZAR_SEGUNDA_VISITA", "RAZAO_SOCIAL": "PAMELA_G.DEFILLIPO_COMERCIO_PET_-_LILI_FOFURINHA", "ENDERECO": "RUA_LUCIO_PETIT_DA_SILVA_2_JARDIM_GUANHEMBU_SAO_PAULO", "CIDADE": "SAO_PAULO", "LATITUDE": -23.7338681, "LONGITUDE": -46.6841043 }, "geometry": { "type": "Point", "coordinates": [ -46.6841043, -23.7338681 ] } },
{ "type": "Feature", "properties": { "CNPJ": 38106908000157, "AGENTE": "MARIA_INES_HELFSTEIN", "ACAO": "REALIZAR_SEGUNDA_VISITA", "RAZAO_SOCIAL": "JOSENILDA_BISPO_DOS_SANTOS_SILVA_12960125819_-_VIRTUDES_AGUA", "ENDERECO": "RUA_LUCIO_PETIT_DA_SILVA_56_JARDIM_GUAEMBU_SAO_PAULO", "CIDADE": "SAO_PAULO", "LATITUDE": -23.7340507, "LONGITUDE": -46.6841137 }, "geometry": { "type": "Point", "coordinates": [ -46.6841137, -23.7340507 ] } },
{ "type": "Feature", "properties": { "CNPJ": 46532790000157, "AGENTE": "MARIA_INES_HELFSTEIN", "ACAO": "REALIZAR_SEGUNDA_VISITA", "RAZAO_SOCIAL": "S.H.O_SOLUCOES_LTDA_-_S.H.O_SOLUCOES_LTDA", "ENDERECO": "RUA_MARLENE_DIETRICH_46_JARDIM_GUAEMBU_SAO_PAULO", "CIDADE": "SAO_PAULO", "LATITUDE": -23.7244523, "LONGITUDE": -46.6807829 }, "geometry": { "type": "Point", "coordinates": [ -46.6807829, -23.7244523 ] } },
{ "type": "Feature", "properties": { "CNPJ": 44301645000130, "AGENTE": "MARIA_INES_HELFSTEIN", "ACAO": "REALIZAR_SEGUNDA_VISITA", "RAZAO_SOCIAL": "GALM_RESTAURANTE_LTDA_-_SHEIK_ADEGA_E__TABACARIA", "ENDERECO": "RUA_MARTINOPOLIS_44_CIDADE_DUTRA_SAO_PAULO", "CIDADE": "SAO_PAULO", "LATITUDE": -23.7119486, "LONGITUDE": -46.7031477 }, "geometry": { "type": "Point", "coordinates": [ -46.7031477, -23.7119486 ] } },
{ "type": "Feature", "properties": { "CNPJ": 24639543000111, "AGENTE": "MARIA_INES_HELFSTEIN", "ACAO": "REALIZAR_SEGUNDA_VISITA", "RAZAO_SOCIAL": "CRIA_CONFECCOES_LTDA_-_CRIA_CONFECCAO", "ENDERECO": "RUA_OSCAR_NELSON_8_JORDANOPOLIS_SAO_PAULO", "CIDADE": "SAO_PAULO", "LATITUDE": -23.7349089, "LONGITUDE": -46.7002408 }, "geometry": { "type": "Point", "coordinates": [ -46.7002408, -23.7349089 ] } },
{ "type": "Feature", "properties": { "CNPJ": 39669285000193, "AGENTE": "MARIA_INES_HELFSTEIN", "ACAO": "REALIZAR_SEGUNDA_VISITA", "RAZAO_SOCIAL": "RR_MOBILIARIO_LTDA_-_RR_MOBILIARIO", "ENDERECO": "RUA_PROFESSOR_ENEAS_DE_SIQUEIRA_NETO_321_JARDIM_DAS_IMBUIAS_SAO_PAULO", "CIDADE": "SAO_PAULO", "LATITUDE": -23.7283279, "LONGITUDE": -46.7123455 }, "geometry": { "type": "Point", "coordinates": [ -46.7123455, -23.7283279 ] } },
{ "type": "Feature", "properties": { "CNPJ": 13923411000109, "AGENTE": "MARIA_INES_HELFSTEIN", "ACAO": "REALIZAR_SEGUNDA_VISITA", "RAZAO_SOCIAL": "JOELMA_SANTANA_DO_NASCIMENTO_31447889886_-_SANTANA_MODA_UNIVERSITARIA", "ENDERECO": "RUA_PROFESSOR_ENEAS_DE_SIQUEIRA_NETO_495_JARDIM_DAS_IMBUIAS_SAO_PAULO", "CIDADE": "SAO_PAULO", "LATITUDE": -23.7293097, "LONGITUDE": -46.7110235 }, "geometry": { "type": "Point", "coordinates": [ -46.7110235, -23.7293097 ] } },
{ "type": "Feature", "properties": { "CNPJ": 51971551000133, "AGENTE": "MARIA_INES_HELFSTEIN", "ACAO": "REALIZAR_SEGUNDA_VISITA", "RAZAO_SOCIAL": "NOTA_10_CONFECCAO_LTDA_-_A_FABRICA_CRIA", "ENDERECO": "RUA_PROFESSOR_ENEAS_DE_SIQUEIRA_NETO_501_JARDIM_DAS_IMBUIAS_SAO_PAULO", "CIDADE": "SAO_PAULO", "LATITUDE": -23.7294066, "LONGITUDE": -46.7108819 }, "geometry": { "type": "Point", "coordinates": [ -46.7108819, -23.7294066 ] } },
{ "type": "Feature", "properties": { "CNPJ": 31426157000107, "AGENTE": "MARIA_INES_HELFSTEIN", "ACAO": "REALIZAR_SEGUNDA_VISITA", "RAZAO_SOCIAL": "BRL_MARKTING_DIGITAL_LTDA_-_DUSS_DIGITAL", "ENDERECO": "RUA_RAIZ_DE_GUINE_121_PARQUE_DAS_ARVORES_SAO_PAULO", "CIDADE": "SAO_PAULO", "LATITUDE": -23.7316332, "LONGITUDE": -46.6943232 }, "geometry": { "type": "Point", "coordinates": [ -46.6943232, -23.7316332 ] } },
{ "type": "Feature", "properties": { "CNPJ": 26114403000155, "AGENTE": "MARIA_INES_HELFSTEIN", "ACAO": "REALIZAR_SEGUNDA_VISITA", "RAZAO_SOCIAL": "TRANSBROTHERS_TRANSPORTES_E_TURISMO_LTDA_-_BROTHERS_VANS", "ENDERECO": "RUA_RENE_FALCONETTI_36_PARQUE_AMERICA_SAO_PAULO", "CIDADE": "SAO_PAULO", "LATITUDE": -23.7342673, "LONGITUDE": -46.6873113 }, "geometry": { "type": "Point", "coordinates": [ -46.6873113, -23.7342673 ] } },
{ "type": "Feature", "properties": { "CNPJ": 35433885000105, "AGENTE": "MARIA_INES_HELFSTEIN", "ACAO": "REALIZAR_SEGUNDA_VISITA", "RAZAO_SOCIAL": "PIZZARIA_GRANDINI_II_LTDA_-_PIZZARIA_GRANDINI", "ENDERECO": "RUA_RUBEM_SOUTO_DE_ARAUJO_80_JARDIM_PRESIDENTE_SAO_PAULO", "CIDADE": "SAO_PAULO", "LATITUDE": -23.7352965, "LONGITUDE": -46.7020501 }, "geometry": { "type": "Point", "coordinates": [ -46.7020501, -23.7352965 ] } },
{ "type": "Feature", "properties": { "CNPJ": 19584792000117, "AGENTE": "MARIA_INES_HELFSTEIN", "ACAO": "REALIZAR_SEGUNDA_VISITA", "RAZAO_SOCIAL": "19.584.792_ANA_CRISTINA_ALMEIDA_DE_SOUZA_-_ANA_CRISTINA", "ENDERECO": "RUA_VALENTIM_CORDEIRO_60_JARDIM_SAMANBAIA_SAO_PAULO", "CIDADE": "SAO_PAULO", "LATITUDE": -23.7092492, "LONGITUDE": -46.6987928 }, "geometry": { "type": "Point", "coordinates": [ -46.6987928, -23.7092492 ] } }
]
}
