{
"type": "FeatureCollection",
"name": "MARIA_INES_HELFSTEIN",
"crs": { "type": "name", "properties": { "name": "urn:ogc:def:crs:OGC:1.3:CRS84" } },
"xy_coordinate_resolution": 1e-15,
"features": [
{ "type": "Feature", "properties": { "CNPJ": 54536588000121, "AGENTE": "MARIA_INES_HELFSTEIN", "ACAO": "REALIZAR_SEGUNDA_VISITA", "RAZAO_SOCIAL": "54.536.588_MAURICIO_EDUARDO_HENNING_-_BABA_YAGA", "ENDERECO": "AVENIDARUBENSMONTANARODEBORBA_101_JARDIMREGIS_SAOPAULO", "CIDADE": "SAO_PAULO", "LATITUDE": -23.7079736, "LONGITUDE": -46.6943309, "BASE": "ATENDIDOS" }, "geometry": { "type": "Point", "coordinates": [ -46.6943309, -23.7079736 ] } },
{ "type": "Feature", "properties": { "CNPJ": 39669285000193, "AGENTE": "MARIA_INES_HELFSTEIN", "ACAO": "REALIZAR_SEGUNDA_VISITA", "RAZAO_SOCIAL": "RR_MOBILIARIO_LTDA_-_RR_MOBILIARIO", "ENDERECO": "RUAPROFESSORENEASDESIQUEIRANETO_321_JARDIMDASIMBUIAS_SAOPAULO", "CIDADE": "SAO_PAULO", "LATITUDE": -23.7283279, "LONGITUDE": -46.7123455, "BASE": "ATENDIDOS" }, "geometry": { "type": "Point", "coordinates": [ -46.7123455, -23.7283279 ] } },
{ "type": "Feature", "properties": { "CNPJ": 27756085000199, "AGENTE": "MARIA_INES_HELFSTEIN", "ACAO": "REALIZAR_SEGUNDA_VISITA", "RAZAO_SOCIAL": "ETB_SOLUCOES_E_COMUNICACAO_VISUAL", "ENDERECO": "RUA_AMARO_BERNARDO_DA_SILVA_113_TERCEIRA_DIVISAO_DE_INTERLAGOS_SAO_PAULO_BRASIL", "CIDADE": "SAO_PAULO", "LATITUDE": -23.7162319, "LONGITUDE": -46.6944131, "BASE": "ATENDIDOS" }, "geometry": { "type": "Point", "coordinates": [ -46.6944131, -23.7162319 ] } },
{ "type": "Feature", "properties": { "CNPJ": 38972882000120, "AGENTE": "MARIA_INES_HELFSTEIN", "ACAO": "REALIZAR_SEGUNDA_VISITA", "RAZAO_SOCIAL": "SIMPLIQUE_INGLES", "ENDERECO": "RUA_BELARMINO_CARDOSO_DE_ANDRADE_263_TERCEIRA_DIVISAO_DE_INTERLAGOS_SAO_PAULO_BRASIL", "CIDADE": "SAO_PAULO", "LATITUDE": -23.7138315, "LONGITUDE": -46.6924018, "BASE": "ATENDIDOS" }, "geometry": { "type": "Point", "coordinates": [ -46.6924018, -23.7138315 ] } },
{ "type": "Feature", "properties": { "CNPJ": 32199987000101, "AGENTE": "MARIA_INES_HELFSTEIN", "ACAO": "REALIZAR_SEGUNDA_VISITA", "RAZAO_SOCIAL": "ATRIU_LITURGICO", "ENDERECO": "RUA_JULIO_DE_BARROS_25_JARDIM_REGIS_SAO_PAULO_BRASIL", "CIDADE": "SAO_PAULO", "LATITUDE": -23.7105772, "LONGITUDE": -46.6910122, "BASE": "ATENDIDOS" }, "geometry": { "type": "Point", "coordinates": [ -46.6910122, -23.7105772 ] } },
{ "type": "Feature", "properties": { "CNPJ": 22210974000132, "AGENTE": "MARIA_INES_HELFSTEIN", "ACAO": "REALIZAR_SEGUNDA_VISITA", "RAZAO_SOCIAL": "POPS_BABY_TRICO", "ENDERECO": "RUA_UBATA_524_CIDADE_DUTRA_SAO_PAULO_BRASIL", "CIDADE": "SAO_PAULO", "LATITUDE": -23.7134314, "LONGITUDE": -46.7035304, "BASE": "ATENDIDOS" }, "geometry": { "type": "Point", "coordinates": [ -46.7035304, -23.7134314 ] } },
{ "type": "Feature", "properties": { "CNPJ": 7971600000146, "AGENTE": "MARIA_INES_HELFSTEIN", "ACAO": "REALIZAR_SEGUNDA_VISITA", "RAZAO_SOCIAL": "RICOFIT_ACADEMIA_LTDA_-_RICOFIT_ACADEMIA_LTDA", "ENDERECO": "AVENIDADOUTORLUISARROBASMARTINS_172_VELEIROS_SAOPAULO", "CIDADE": "SAO_PAULO", "LATITUDE": -23.6873478, "LONGITUDE": -46.7039287, "BASE": "ATENDIDOS" }, "geometry": { "type": "Point", "coordinates": [ -46.7039287, -23.6873478 ] } },
{ "type": "Feature", "properties": { "CNPJ": 46532790000157, "AGENTE": "MARIA_INES_HELFSTEIN", "ACAO": "REALIZAR_SEGUNDA_VISITA", "RAZAO_SOCIAL": "S.H.O_SOLUCOES_LTDA_-_S.H.O_SOLUCOES_LTDA", "ENDERECO": "RUAMARLENEDIETRICH_46_JARDIMGUAEMBU_SAOPAULO", "CIDADE": "SAO_PAULO", "LATITUDE": -23.7244523, "LONGITUDE": -46.6807829, "BASE": "ATENDIDOS" }, "geometry": { "type": "Point", "coordinates": [ -46.6807829, -23.7244523 ] } },
{ "type": "Feature", "properties": { "CNPJ": 24253707000178, "AGENTE": "MARIA_INES_HELFSTEIN", "ACAO": "REALIZAR_SEGUNDA_VISITA", "RAZAO_SOCIAL": "DANIELA_LEITE_DE_OLIVEIRA_26294549833_-_FOCUS_DECORACOES", "ENDERECO": "RUAANDREDELEAO_82_VILASOCORRO_SAOPAULO", "CIDADE": "SAO_PAULO", "LATITUDE": -23.6669202, "LONGITUDE": -46.7162921, "BASE": "ATENDIDOS" }, "geometry": { "type": "Point", "coordinates": [ -46.7162921, -23.6669202 ] } },
{ "type": "Feature", "properties": { "CNPJ": 30732538000151, "AGENTE": "MARIA_INES_HELFSTEIN", "ACAO": "REALIZAR_SEGUNDA_VISITA", "RAZAO_SOCIAL": "THE_MULLER", "ENDERECO": "AVENIDA_JOAO_PAULO_DA_SILVA_183_VILA_DA_PAZ_SAO_PAULO_BRASIL", "CIDADE": "SAO_PAULO", "LATITUDE": -23.6936906, "LONGITUDE": -46.6967955, "BASE": "ATENDIDOS" }, "geometry": { "type": "Point", "coordinates": [ -46.6967955, -23.6936906 ] } },
{ "type": "Feature", "properties": { "CNPJ": 38127282000165, "AGENTE": "MARIA_INES_HELFSTEIN", "ACAO": "REALIZAR_SEGUNDA_VISITA", "RAZAO_SOCIAL": "ROSILENE_RUAS", "ENDERECO": "RUA_CASQUEIRO_92_CIDADE_DUTRA_SAO_PAULO_BRASIL", "CIDADE": "SAO_PAULO", "LATITUDE": -23.7090024, "LONGITUDE": -46.6971007, "BASE": "ATENDIDOS" }, "geometry": { "type": "Point", "coordinates": [ -46.6971007, -23.7090024 ] } },
{ "type": "Feature", "properties": { "CNPJ": 29015529000160, "AGENTE": "MARIA_INES_HELFSTEIN", "ACAO": "REALIZAR_SEGUNDA_VISITA", "RAZAO_SOCIAL": "PROMOVIDROS", "ENDERECO": "RUA_DOUTOR_PAULO_DE_BARROS_WHITAKER_199_CIDADE_DUTRA_SAO_PAULO_BRASIL", "CIDADE": "SAO_PAULO", "LATITUDE": -23.7147701, "LONGITUDE": -46.6969101, "BASE": "ATENDIDOS" }, "geometry": { "type": "Point", "coordinates": [ -46.6969101, -23.7147701 ] } },
{ "type": "Feature", "properties": { "CNPJ": 37534642000180, "AGENTE": "MARIA_INES_HELFSTEIN", "ACAO": "REALIZAR_SEGUNDA_VISITA", "RAZAO_SOCIAL": "YASMIN_SUZANO_CALABRO_47352346830_-_YASMIN_CALABRO", "ENDERECO": "AVENIDAIPANEMA_179_VELEIROS_SAOPAULO", "CIDADE": "SAO_PAULO", "LATITUDE": -23.6812841, "LONGITUDE": -46.7073607, "BASE": "ATENDIDOS" }, "geometry": { "type": "Point", "coordinates": [ -46.7073607, -23.6812841 ] } },
{ "type": "Feature", "properties": { "CNPJ": 45984747000160, "AGENTE": "MARIA_INES_HELFSTEIN", "ACAO": "REALIZAR_SEGUNDA_VISITA", "RAZAO_SOCIAL": "LANCHES_E_BAR_LEBLON_LTDA_-_LANCHES_LEBLON", "ENDERECO": "AVENIDALEBLON_555_VELEIROS_SAOPAULO", "CIDADE": "SAO_PAULO", "LATITUDE": -23.683576, "LONGITUDE": -46.7100388, "BASE": "ATENDIDOS" }, "geometry": { "type": "Point", "coordinates": [ -46.7100388, -23.683576 ] } },
{ "type": "Feature", "properties": { "CNPJ": 22917856000169, "AGENTE": "MARIA_INES_HELFSTEIN", "ACAO": "REALIZAR_SEGUNDA_VISITA", "RAZAO_SOCIAL": "CACCTUS_LOUNGE_LTDA_-_CACCTUS__LOUNGE", "ENDERECO": "AVENIDADOUTORLUISARROBASMARTINS_680_SOCORRO_SAOPAULO", "CIDADE": "SAO_PAULO", "LATITUDE": -23.6857208, "LONGITUDE": -46.7080049, "BASE": "ATENDIDOS" }, "geometry": { "type": "Point", "coordinates": [ -46.7080049, -23.6857208 ] } },
{ "type": "Feature", "properties": { "CNPJ": 37627708000187, "AGENTE": "MARIA_INES_HELFSTEIN", "ACAO": "REALIZAR_SEGUNDA_VISITA", "RAZAO_SOCIAL": "37.627.708_CAROLINE_FAVA_MANTOVANI_-_RISOS_CESTAS", "ENDERECO": "RUAERMELINDAMELETTITELDESCHI_14_JARDIMSUSANA_SAOPAULO", "CIDADE": "SAO_PAULO", "LATITUDE": -23.6910452, "LONGITUDE": -46.7084905, "BASE": "ATENDIDOS" }, "geometry": { "type": "Point", "coordinates": [ -46.7084905, -23.6910452 ] } },
{ "type": "Feature", "properties": { "CNPJ": 55893959000195, "AGENTE": "MARIA_INES_HELFSTEIN", "ACAO": "REALIZAR_SEGUNDA_VISITA", "RAZAO_SOCIAL": "55.893.959_LIDIA_TERESINHA_ZIMIANO_-_CHURRAS_CO", "ENDERECO": "RUALEONARDODEFASSIO_547_JARDIMSUSANA_SAOPAULO", "CIDADE": "SAO_PAULO", "LATITUDE": -23.6925205, "LONGITUDE": -46.7088013, "BASE": "ATENDIDOS" }, "geometry": { "type": "Point", "coordinates": [ -46.7088013, -23.6925205 ] } },
{ "type": "Feature", "properties": { "CNPJ": 59207741000190, "AGENTE": "MARIA_INES_HELFSTEIN", "ACAO": "REALIZAR_SEGUNDA_VISITA", "RAZAO_SOCIAL": "LUCAS_G_DE_SOUZA_-_LUCAS_VELLA_BARBEARIA", "ENDERECO": "AVENIDAJOAOPAULODASILVA_277_VILADAPAZ_SAOPAULO", "CIDADE": "SAO_PAULO", "LATITUDE": -23.6937865, "LONGITUDE": -46.6965352, "BASE": "ATENDIDOS" }, "geometry": { "type": "Point", "coordinates": [ -46.6965352, -23.6937865 ] } },
{ "type": "Feature", "properties": { "CNPJ": 58159560000173, "AGENTE": "MARIA_INES_HELFSTEIN", "ACAO": "REALIZAR_SEGUNDA_VISITA", "RAZAO_SOCIAL": "58.159.560_ALEX_FERREIRA_DE_MORAES_-_ALEX_FERREIRA", "ENDERECO": "RUACHRISTIANHEINS_87_JARDIMSATELITE_SAOPAULO", "CIDADE": "SAO_PAULO", "LATITUDE": -23.7000609, "LONGITUDE": -46.6919009, "BASE": "ATENDIDOS" }, "geometry": { "type": "Point", "coordinates": [ -46.6919009, -23.7000609 ] } },
{ "type": "Feature", "properties": { "CNPJ": 40758398000144, "AGENTE": "MARIA_INES_HELFSTEIN", "ACAO": "REALIZAR_SEGUNDA_VISITA", "RAZAO_SOCIAL": "SANDRA_APARECIDA_FLORES_10748061827_-_CAFE_DA_VOVO", "ENDERECO": "RUAARTURNASCIMENTOJUNIOR_81_INTERLAGOS_SAOPAULO", "CIDADE": "SAO_PAULO", "LATITUDE": -23.7033024, "LONGITUDE": -46.6913191, "BASE": "ATENDIDOS" }, "geometry": { "type": "Point", "coordinates": [ -46.6913191, -23.7033024 ] } },
{ "type": "Feature", "properties": { "CNPJ": 21405309000131, "AGENTE": "MARIA_INES_HELFSTEIN", "ACAO": "REALIZAR_SEGUNDA_VISITA", "RAZAO_SOCIAL": "SHIRLEY_PAULA_DELMIRO_26507182850_-_SBS_SALVADOR_E__BOLOS", "ENDERECO": "RUADJALMAPESSOLATO_112_JARDIMSATELITE_SAOPAULO", "CIDADE": "SAO_PAULO", "LATITUDE": -23.7071627, "LONGITUDE": -46.6899251, "BASE": "ATENDIDOS" }, "geometry": { "type": "Point", "coordinates": [ -46.6899251, -23.7071627 ] } },
{ "type": "Feature", "properties": { "CNPJ": 19584792000117, "AGENTE": "MARIA_INES_HELFSTEIN", "ACAO": "REALIZAR_SEGUNDA_VISITA", "RAZAO_SOCIAL": "19.584.792_ANA_CRISTINA_ALMEIDA_DE_SOUZA_-_ANA_CRISTINA", "ENDERECO": "RUAVALENTIMCORDEIRO_60_JARDIMSAMANBAIA_SAOPAULO", "CIDADE": "SAO_PAULO", "LATITUDE": -23.7092492, "LONGITUDE": -46.6987928, "BASE": "ATENDIDOS" }, "geometry": { "type": "Point", "coordinates": [ -46.6987928, -23.7092492 ] } },
{ "type": "Feature", "properties": { "CNPJ": 37467441000108, "AGENTE": "MARIA_INES_HELFSTEIN", "ACAO": "REALIZAR_SEGUNDA_VISITA", "RAZAO_SOCIAL": "KAREN_BARBARA_GONCALVES_SILVA_23359101839_-_STUDIO_CK_HAIR", "ENDERECO": "RUAICANHEMA_207_CIDADEDUTRA_SAOPAULO", "CIDADE": "SAO_PAULO", "LATITUDE": -23.7093543, "LONGITUDE": -46.6984885, "BASE": "ATENDIDOS" }, "geometry": { "type": "Point", "coordinates": [ -46.6984885, -23.7093543 ] } },
{ "type": "Feature", "properties": { "CNPJ": 44301645000130, "AGENTE": "MARIA_INES_HELFSTEIN", "ACAO": "REALIZAR_SEGUNDA_VISITA", "RAZAO_SOCIAL": "GALM_RESTAURANTE_LTDA_-_SHEIK_ADEGA_E__TABACARIA", "ENDERECO": "RUAMARTINOPOLIS_44_CIDADEDUTRA_SAOPAULO", "CIDADE": "SAO_PAULO", "LATITUDE": -23.7119486, "LONGITUDE": -46.7031477, "BASE": "ATENDIDOS" }, "geometry": { "type": "Point", "coordinates": [ -46.7031477, -23.7119486 ] } },
{ "type": "Feature", "properties": { "CNPJ": 30949045000178, "AGENTE": "MARIA_INES_HELFSTEIN", "ACAO": "REALIZAR_SEGUNDA_VISITA", "RAZAO_SOCIAL": "30.949.045_TAINARA_ALVES_DA_FONSECA_-_NARA_FONSECA_HAIR_SALON", "ENDERECO": "AVENIDAATLANTICA_5822_JARDIMCRUZEIRO_SAOPAULO", "CIDADE": "SAO_PAULO", "LATITUDE": -23.7156413, "LONGITUDE": -46.7067037, "BASE": "ATENDIDOS" }, "geometry": { "type": "Point", "coordinates": [ -46.7067037, -23.7156413 ] } },
{ "type": "Feature", "properties": { "CNPJ": 48663166000114, "AGENTE": "MARIA_INES_HELFSTEIN", "ACAO": "REALIZAR_SEGUNDA_VISITA", "RAZAO_SOCIAL": "DIRCEU_LIRA_DE_SOUZA_ELETRICA_-_SOLUCAO_LUZ", "ENDERECO": "RUAFREDERICORENEDEJAEGHER_726_RIOBONITO_SAOPAULO", "CIDADE": "SAO_PAULO", "LATITUDE": -23.7195743, "LONGITUDE": -46.706124, "BASE": "ATENDIDOS" }, "geometry": { "type": "Point", "coordinates": [ -46.706124, -23.7195743 ] } },
{ "type": "Feature", "properties": { "CNPJ": 14638210000114, "AGENTE": "MARIA_INES_HELFSTEIN", "ACAO": "REALIZAR_SEGUNDA_VISITA", "RAZAO_SOCIAL": "VIDAGOL_-_VIDA_GOL_CAFETEIRA", "ENDERECO": "RUAADEN_154_RIOBONITO_SAOPAULO", "CIDADE": "SAO_PAULO", "LATITUDE": -23.7213304, "LONGITUDE": -46.7057335, "BASE": "ATENDIDOS" }, "geometry": { "type": "Point", "coordinates": [ -46.7057335, -23.7213304 ] } },
{ "type": "Feature", "properties": { "CNPJ": 37125415000100, "AGENTE": "MARIA_INES_HELFSTEIN", "ACAO": "REALIZAR_SEGUNDA_VISITA", "RAZAO_SOCIAL": "WILLIAM_NUNES_FIRMINO_BAR_E_LANCHONETE_-_RESTAURANTE_E_LANCHONETE_BRUTUS", "ENDERECO": "AVENIDAMANUELALVESSOARES_1124_JARDIMPRIMAVERA_SAOPAULO", "CIDADE": "SAO_PAULO", "LATITUDE": -23.7235601, "LONGITUDE": -46.6883897, "BASE": "ATENDIDOS" }, "geometry": { "type": "Point", "coordinates": [ -46.6883897, -23.7235601 ] } },
{ "type": "Feature", "properties": { "CNPJ": 57780331000109, "AGENTE": "MARIA_INES_HELFSTEIN", "ACAO": "REALIZAR_SEGUNDA_VISITA", "RAZAO_SOCIAL": "57.780.331_FABIANA_SILVA_DOS_SANTOS_-_AMERICA_DISTRIBUIDORA_DE_BEBIDAS", "ENDERECO": "RUAJEQUIRITUBA_832_PARQUEAMERICA_SAOPAULO", "CIDADE": "SAO_PAULO", "LATITUDE": -23.728792, "LONGITUDE": -46.6892047, "BASE": "ATENDIDOS" }, "geometry": { "type": "Point", "coordinates": [ -46.6892047, -23.728792 ] } },
{ "type": "Feature", "properties": { "CNPJ": 13923411000109, "AGENTE": "MARIA_INES_HELFSTEIN", "ACAO": "REALIZAR_SEGUNDA_VISITA", "RAZAO_SOCIAL": "JOELMA_SANTANA_DO_NASCIMENTO_31447889886_-_SANTANA_MODA_UNIVERSITARIA", "ENDERECO": "RUAPROFESSORENEASDESIQUEIRANETO_495_JARDIMDASIMBUIAS_SAOPAULO", "CIDADE": "SAO_PAULO", "LATITUDE": -23.7293097, "LONGITUDE": -46.7110235, "BASE": "ATENDIDOS" }, "geometry": { "type": "Point", "coordinates": [ -46.7110235, -23.7293097 ] } },
{ "type": "Feature", "properties": { "CNPJ": 51971551000133, "AGENTE": "MARIA_INES_HELFSTEIN", "ACAO": "REALIZAR_SEGUNDA_VISITA", "RAZAO_SOCIAL": "NOTA_10_CONFECCAO_LTDA_-_A_FABRICA_CRIA", "ENDERECO": "RUAPROFESSORENEASDESIQUEIRANETO_501_JARDIMDASIMBUIAS_SAOPAULO", "CIDADE": "SAO_PAULO", "LATITUDE": -23.7294066, "LONGITUDE": -46.7108819, "BASE": "ATENDIDOS" }, "geometry": { "type": "Point", "coordinates": [ -46.7108819, -23.7294066 ] } },
{ "type": "Feature", "properties": { "CNPJ": 47834272000150, "AGENTE": "MARIA_INES_HELFSTEIN", "ACAO": "REALIZAR_SEGUNDA_VISITA", "RAZAO_SOCIAL": "47.834.272_JOSE_ROBERTO_MODESTO_DE_ARAUJO_-_BOX_11_IMPORTS", "ENDERECO": "AVENIDASERGIOLANDULFOFURTADO_146_JARDIMGUANHEMBU_SAOPAULO", "CIDADE": "SAO_PAULO", "LATITUDE": -23.7336129, "LONGITUDE": -46.6843868, "BASE": "ATENDIDOS" }, "geometry": { "type": "Point", "coordinates": [ -46.6843868, -23.7336129 ] } },
{ "type": "Feature", "properties": { "CNPJ": 7845088000191, "AGENTE": "MARIA_INES_HELFSTEIN", "ACAO": "REALIZAR_SEGUNDA_VISITA", "RAZAO_SOCIAL": "CENTRO_DE_FORMACAO_DE_CONDUTORES_GONCALVES_&_MENEZES_LTDA_-_AUTO_ESCOLA_TERMINAL_VARGINHA", "ENDERECO": "AVENIDAPAULOGUILGUERREIMBERG_370_JARDIMNOVOHORIZONTE_SAOPAULO", "CIDADE": "SAO_PAULO", "LATITUDE": -23.7336144, "LONGITUDE": -46.6843219, "BASE": "ATENDIDOS" }, "geometry": { "type": "Point", "coordinates": [ -46.6843219, -23.7336144 ] } },
{ "type": "Feature", "properties": { "CNPJ": 57092919000170, "AGENTE": "MARIA_INES_HELFSTEIN", "ACAO": "REALIZAR_SEGUNDA_VISITA", "RAZAO_SOCIAL": "CASA_DE_RAO_REI_DAS_AVES_LTDA_-_CASA_DE_RAO_REI_DAS_AVES", "ENDERECO": "AVENIDASERGIOLANDULFOFURTADO_46_JARDIMGUANHEMBU_SAOPAULO", "CIDADE": "SAO_PAULO", "LATITUDE": -23.7339063, "LONGITUDE": -46.6834008, "BASE": "ATENDIDOS" }, "geometry": { "type": "Point", "coordinates": [ -46.6834008, -23.7339063 ] } },
{ "type": "Feature", "properties": { "CNPJ": 24639543000111, "AGENTE": "MARIA_INES_HELFSTEIN", "ACAO": "REALIZAR_SEGUNDA_VISITA", "RAZAO_SOCIAL": "CRIA_CONFECCOES_LTDA_-_CRIA_CONFECCAO", "ENDERECO": "RUAOSCARNELSON_8_JORDANOPOLIS_SAOPAULO", "CIDADE": "SAO_PAULO", "LATITUDE": -23.7349089, "LONGITUDE": -46.7002408, "BASE": "ATENDIDOS" }, "geometry": { "type": "Point", "coordinates": [ -46.7002408, -23.7349089 ] } },
{ "type": "Feature", "properties": { "CNPJ": 44322472000136, "AGENTE": "MARIA_INES_HELFSTEIN", "ACAO": "REALIZAR_SEGUNDA_VISITA", "RAZAO_SOCIAL": "44.322.472_TAMIRES_ARAUJO_DOS_SANTOS_-_STUDIO_THAMMYRES_MATTOS", "ENDERECO": "RUAJEQUIRITUBA_1751_PARQUEAMERICA_SAOPAULO", "CIDADE": "SAO_PAULO", "LATITUDE": -23.736342, "LONGITUDE": -46.6882594, "BASE": "ATENDIDOS" }, "geometry": { "type": "Point", "coordinates": [ -46.6882594, -23.736342 ] } },
{ "type": "Feature", "properties": { "CNPJ": 52463021000147, "AGENTE": "MARIA_INES_HELFSTEIN", "ACAO": "REALIZAR_SEGUNDA_VISITA", "RAZAO_SOCIAL": "52.463.021_DIEGO_HENRIQUE_ELIDIO_DA_SILVA_-_ART_MOBILE_PLANEMADOS", "ENDERECO": "ESTRADADOSCHMIDT_1010_CHACARADOSOL_SAOPAULO", "CIDADE": "SAO_PAULO", "LATITUDE": -23.7808616, "LONGITUDE": -46.6718863, "BASE": "ATENDIDOS" }, "geometry": { "type": "Point", "coordinates": [ -46.6718863, -23.7808616 ] } },
{ "type": "Feature", "properties": { "CNPJ": 54136784000109, "AGENTE": "MARIA_INES_HELFSTEIN", "ACAO": "REALIZAR_SEGUNDA_VISITA", "RAZAO_SOCIAL": "RED_BLACK_MOTOS", "ENDERECO": "RUA_LUIS_HENRIQUE_POMPEU_DE_CAMARGO_32_JARDIM_SATELITE_SAO_PAULO_BRASIL", "CIDADE": "SAO_PAULO", "LATITUDE": -23.7000146, "LONGITUDE": -46.6922225, "BASE": "ATENDIDOS" }, "geometry": { "type": "Point", "coordinates": [ -46.6922225, -23.7000146 ] } }
]
}
