{
"type": "FeatureCollection",
"name": "MARIA_INES_HELFSTEIN",
"crs": { "type": "name", "properties": { "name": "urn:ogc:def:crs:OGC:1.3:CRS84" } },
"xy_coordinate_resolution": 1e-15,
"features": [
{ "type": "Feature", "properties": { "CNPJ": 41039473000180, "AGENTE": "MARIA_INES_HELFSTEIN", "ACAO": "REALIZAR_SEGUNDA_VISITA", "RAZAO_SOCIAL": "RAFAEL_ALVES_PEREIRA_38995512814_-_CHICAGO_BARBEARIA", "ENDERECO": "AVENIDA_ARESTOTELES_COSTA_PINTO_323_JARDIM_DOS_BICHINHOS_SAO_PAULO", "CIDADE": "SAO_PAULO", "LATITUDE": -23.7346827, "LONGITUDE": -46.683083 }, "geometry": { "type": "Point", "coordinates": [ -46.683083, -23.7346827 ] } },
{ "type": "Feature", "properties": { "CNPJ": 43846833000180, "AGENTE": "MARIA_INES_HELFSTEIN", "ACAO": "REALIZAR_SEGUNDA_VISITA", "RAZAO_SOCIAL": "WESLEY_VINICIUS_LIMA_NASCIMENTO_41800267835_-_WESLEY_VINICIUS_NASCIMENTO", "ENDERECO": "AVENIDA_ARESTOTELES_COSTA_PINTO_808_JARDIM_DOS_BICHINHOS_SAO_PAULO", "CIDADE": "SAO_PAULO", "LATITUDE": -23.7347376, "LONGITUDE": -46.6829834 }, "geometry": { "type": "Point", "coordinates": [ -46.6829834, -23.7347376 ] } },
{ "type": "Feature", "properties": { "CNPJ": 18436948000150, "AGENTE": "MARIA_INES_HELFSTEIN", "ACAO": "REALIZAR_SEGUNDA_VISITA", "RAZAO_SOCIAL": "JRN_AUTO_MECANICA_SERVICOS_E_PECAS_LTDA_-_JRN_SERVICOS_AUTOMOTIVOS_E_PECAS", "ENDERECO": "AVENIDA_ARESTOTELES_COSTA_PINTO_947_JARDIM_DOS_BICHINHOS_SAO_PAULO", "CIDADE": "SAO_PAULO", "LATITUDE": -23.7359892, "LONGITUDE": -46.683677 }, "geometry": { "type": "Point", "coordinates": [ -46.683677, -23.7359892 ] } },
{ "type": "Feature", "properties": { "CNPJ": 30949045000178, "AGENTE": "MARIA_INES_HELFSTEIN", "ACAO": "REALIZAR_SEGUNDA_VISITA", "RAZAO_SOCIAL": "30.949.045_TAINARA_ALVES_DA_FONSECA_-_NARA_FONSECA_HAIR_SALON", "ENDERECO": "AVENIDA_ATLANTICA_5822_JARDIM_CRUZEIRO_SAO_PAULO", "CIDADE": "SAO_PAULO", "LATITUDE": -23.7156413, "LONGITUDE": -46.7067037 }, "geometry": { "type": "Point", "coordinates": [ -46.7067037, -23.7156413 ] } },
{ "type": "Feature", "properties": { "CNPJ": 28985374000122, "AGENTE": "MARIA_INES_HELFSTEIN", "ACAO": "REALIZAR_SEGUNDA_VISITA", "RAZAO_SOCIAL": "SIGA_EM_FRENTE_CENTRO_DE_TREINAMENTO_PARA_HABILITADOS_LTDA_-_SIGA_EM_FRENTE_TREINAMENTOS_PARA_HABILITADOS", "ENDERECO": "AVENIDA_DO_JANGADEIRO_400_CIDADE_DUTRA_SAO_PAULO", "CIDADE": "SAO_PAULO", "LATITUDE": -23.7073799, "LONGITUDE": -46.699111 }, "geometry": { "type": "Point", "coordinates": [ -46.699111, -23.7073799 ] } },
{ "type": "Feature", "properties": { "CNPJ": 7971600000146, "AGENTE": "MARIA_INES_HELFSTEIN", "ACAO": "REALIZAR_SEGUNDA_VISITA", "RAZAO_SOCIAL": "RICOFIT_ACADEMIA_LTDA_-_RICOFIT_ACADEMIA_LTDA", "ENDERECO": "AVENIDA_DOUTOR_LUIS_ARROBAS_MARTINS_172_VELEIROS_SAO_PAULO", "CIDADE": "SAO_PAULO", "LATITUDE": -23.6873478, "LONGITUDE": -46.7039287 }, "geometry": { "type": "Point", "coordinates": [ -46.7039287, -23.6873478 ] } },
{ "type": "Feature", "properties": { "CNPJ": 22917856000169, "AGENTE": "MARIA_INES_HELFSTEIN", "ACAO": "REALIZAR_SEGUNDA_VISITA", "RAZAO_SOCIAL": "CACCTUS_LOUNGE_LTDA_-_CACCTUS__LOUNGE", "ENDERECO": "AVENIDA_DOUTOR_LUIS_ARROBAS_MARTINS_680_SOCORRO_SAO_PAULO", "CIDADE": "SAO_PAULO", "LATITUDE": -23.6857208, "LONGITUDE": -46.7080049 }, "geometry": { "type": "Point", "coordinates": [ -46.7080049, -23.6857208 ] } },
{ "type": "Feature", "properties": { "CNPJ": 17160871000175, "AGENTE": "MARIA_INES_HELFSTEIN", "ACAO": "REALIZAR_SEGUNDA_VISITA", "RAZAO_SOCIAL": "R&J_HAIR_CABELEIREIROS_LTDA_-_RITA_CABELEIREIRA", "ENDERECO": "AVENIDA_FELICIANO_CORREIA_58_JARDIM_SATELITE_SAO_PAULO", "CIDADE": "SAO_PAULO", "LATITUDE": -23.7032297, "LONGITUDE": -46.6890301 }, "geometry": { "type": "Point", "coordinates": [ -46.6890301, -23.7032297 ] } },
{ "type": "Feature", "properties": { "CNPJ": 20697016000102, "AGENTE": "MARIA_INES_HELFSTEIN", "ACAO": "REALIZAR_SEGUNDA_VISITA", "RAZAO_SOCIAL": "T._DE_O._CARNEIRO_PET_SHOP_-_CENTRO_ESTETICO_BICHO_SOLTO", "ENDERECO": "AVENIDA_GREGORIO_BEZERRA_255_JARDIM_PRIMAVERA_SAO_PAULO", "CIDADE": "SAO_PAULO", "LATITUDE": -23.7098553, "LONGITUDE": -46.6882009 }, "geometry": { "type": "Point", "coordinates": [ -46.6882009, -23.7098553 ] } },
{ "type": "Feature", "properties": { "CNPJ": 37534642000180, "AGENTE": "MARIA_INES_HELFSTEIN", "ACAO": "REALIZAR_SEGUNDA_VISITA", "RAZAO_SOCIAL": "YASMIN_SUZANO_CALABRO_47352346830_-_YASMIN_CALABRO", "ENDERECO": "AVENIDA_IPANEMA_179_VELEIROS_SAO_PAULO", "CIDADE": "SAO_PAULO", "LATITUDE": -23.6812841, "LONGITUDE": -46.7073607 }, "geometry": { "type": "Point", "coordinates": [ -46.7073607, -23.6812841 ] } },
{ "type": "Feature", "properties": { "CNPJ": 28951701000125, "AGENTE": "MARIA_INES_HELFSTEIN", "ACAO": "REALIZAR_SEGUNDA_VISITA", "RAZAO_SOCIAL": "LABORATORIO_E_ARTIGOS_PARA_CACA_E_PESCA_LTDA_-_LABORATORIO_E_ARTIGOS_PARA_CACA_E_PESCA_LTDA", "ENDERECO": "AVENIDA_JOAO_CARLOS_DA_SILVA_BORGES_221_VILA_CRUZEIRO_SAO_PAULO", "CIDADE": "SAO_PAULO", "LATITUDE": -23.6435959, "LONGITUDE": -46.7118648 }, "geometry": { "type": "Point", "coordinates": [ -46.7118648, -23.6435959 ] } },
{ "type": "Feature", "properties": { "CNPJ": 59207741000190, "AGENTE": "MARIA_INES_HELFSTEIN", "ACAO": "REALIZAR_SEGUNDA_VISITA", "RAZAO_SOCIAL": "LUCAS_G_DE_SOUZA_-_LUCAS_VELLA_BARBEARIA", "ENDERECO": "AVENIDA_JOAO_PAULO_DA_SILVA_277_VILA_DA_PAZ_SAO_PAULO", "CIDADE": "SAO_PAULO", "LATITUDE": -23.6937865, "LONGITUDE": -46.6965352 }, "geometry": { "type": "Point", "coordinates": [ -46.6965352, -23.6937865 ] } },
{ "type": "Feature", "properties": { "CNPJ": 45984747000160, "AGENTE": "MARIA_INES_HELFSTEIN", "ACAO": "REALIZAR_SEGUNDA_VISITA", "RAZAO_SOCIAL": "LANCHES_E_BAR_LEBLON_LTDA_-_LANCHES_LEBLON", "ENDERECO": "AVENIDA_LEBLON_555_VELEIROS_SAO_PAULO", "CIDADE": "SAO_PAULO", "LATITUDE": -23.683576, "LONGITUDE": -46.7100388 }, "geometry": { "type": "Point", "coordinates": [ -46.7100388, -23.683576 ] } },
{ "type": "Feature", "properties": { "CNPJ": 37125415000100, "AGENTE": "MARIA_INES_HELFSTEIN", "ACAO": "REALIZAR_SEGUNDA_VISITA", "RAZAO_SOCIAL": "WILLIAM_NUNES_FIRMINO_BAR_E_LANCHONETE_-_RESTAURANTE_E_LANCHONETE_BRUTUS", "ENDERECO": "AVENIDA_MANUEL_ALVES_SOARES_1124_JARDIM_PRIMAVERA_SAO_PAULO", "CIDADE": "SAO_PAULO", "LATITUDE": -23.7235601, "LONGITUDE": -46.6883897 }, "geometry": { "type": "Point", "coordinates": [ -46.6883897, -23.7235601 ] } },
{ "type": "Feature", "properties": { "CNPJ": 7845088000191, "AGENTE": "MARIA_INES_HELFSTEIN", "ACAO": "REALIZAR_SEGUNDA_VISITA", "RAZAO_SOCIAL": "CENTRO_DE_FORMACAO_DE_CONDUTORES_GONCALVES_&_MENEZES_LTDA_-_AUTO_ESCOLA_TERMINAL_VARGINHA", "ENDERECO": "AVENIDA_PAULO_GUILGUER_REIMBERG_370_JARDIM_NOVO_HORIZONTE_SAO_PAULO", "CIDADE": "SAO_PAULO", "LATITUDE": -23.7336144, "LONGITUDE": -46.6843219 }, "geometry": { "type": "Point", "coordinates": [ -46.6843219, -23.7336144 ] } },
{ "type": "Feature", "properties": { "CNPJ": 39497087000190, "AGENTE": "MARIA_INES_HELFSTEIN", "ACAO": "REALIZAR_SEGUNDA_VISITA", "RAZAO_SOCIAL": "DA_RIBEIRO_COMERCIO_E_SERVICOS_PARA_MOTOCICLETAS_-_NOVA_ERA_OFICINA", "ENDERECO": "AVENIDA_PRESIDENTE_JOAO_GOULART_2033_JARDIM_GUAEMBU_SAO_PAULO", "CIDADE": "SAO_PAULO", "LATITUDE": -23.7234393, "LONGITUDE": -46.6814925 }, "geometry": { "type": "Point", "coordinates": [ -46.6814925, -23.7234393 ] } },
{ "type": "Feature", "properties": { "CNPJ": 21600327000174, "AGENTE": "MARIA_INES_HELFSTEIN", "ACAO": "REALIZAR_SEGUNDA_VISITA", "RAZAO_SOCIAL": "MARLI_DA_CONCEICAO_BARBOSA_75241510982_-_SM_FERRAGENS", "ENDERECO": "AVENIDA_PRESIDENTE_JOAO_GOULART_375_JARDIM_MALIA_SAO_PAULO", "CIDADE": "SAO_PAULO", "LATITUDE": -23.721798, "LONGITUDE": -46.6955852 }, "geometry": { "type": "Point", "coordinates": [ -46.6955852, -23.721798 ] } },
{ "type": "Feature", "properties": { "CNPJ": 21735264000163, "AGENTE": "MARIA_INES_HELFSTEIN", "ACAO": "REALIZAR_SEGUNDA_VISITA", "RAZAO_SOCIAL": "SATWAY_CORRETORA_DE_SEGUROS_E_SEGURANCA_AUTOMOTIVA_LTDA_-_SATWAY", "ENDERECO": "AVENIDA_PROFESSOR_PAPINI_37_CIDADE_DUTRA_SAO_PAULO", "CIDADE": "SAO_PAULO", "LATITUDE": -23.7148028, "LONGITUDE": -46.7066942 }, "geometry": { "type": "Point", "coordinates": [ -46.7066942, -23.7148028 ] } },
{ "type": "Feature", "properties": { "CNPJ": 54536588000121, "AGENTE": "MARIA_INES_HELFSTEIN", "ACAO": "REALIZAR_SEGUNDA_VISITA", "RAZAO_SOCIAL": "54.536.588_MAURICIO_EDUARDO_HENNING_-_BABA_YAGA", "ENDERECO": "AVENIDA_RUBENS_MONTANARO_DE_BORBA_101_JARDIM_REGIS_SAO_PAULO", "CIDADE": "SAO_PAULO", "LATITUDE": -23.7079736, "LONGITUDE": -46.6943309 }, "geometry": { "type": "Point", "coordinates": [ -46.6943309, -23.7079736 ] } },
{ "type": "Feature", "properties": { "CNPJ": 19115642000164, "AGENTE": "MARIA_INES_HELFSTEIN", "ACAO": "REALIZAR_SEGUNDA_VISITA", "RAZAO_SOCIAL": "ALEX_SERAFIM_LEITE_MERCADINHO_-_MERCADINHO_ALEX_SERAFIM", "ENDERECO": "AVENIDA_SERGIO_LANDULFO_FURTADO_106_JARDIM_GUANHEMBU_SAO_PAULO", "CIDADE": "SAO_PAULO", "LATITUDE": -23.7337343, "LONGITUDE": -46.684106 }, "geometry": { "type": "Point", "coordinates": [ -46.684106, -23.7337343 ] } },
{ "type": "Feature", "properties": { "CNPJ": 44129288000174, "AGENTE": "MARIA_INES_HELFSTEIN", "ACAO": "REALIZAR_SEGUNDA_VISITA", "RAZAO_SOCIAL": "44.129.288_ENRIQUE_MATHEUS_FELICIANO_-_PILGER_ESTETICA_AUTOMATICA", "ENDERECO": "AVENIDA_SERGIO_LANDULFO_FURTADO_13_JARDIM_GUANHEMBU_SAO_PAULO", "CIDADE": "SAO_PAULO", "LATITUDE": -23.7320013, "LONGITUDE": -46.687841 }, "geometry": { "type": "Point", "coordinates": [ -46.687841, -23.7320013 ] } },
{ "type": "Feature", "properties": { "CNPJ": 47834272000150, "AGENTE": "MARIA_INES_HELFSTEIN", "ACAO": "REALIZAR_SEGUNDA_VISITA", "RAZAO_SOCIAL": "47.834.272_JOSE_ROBERTO_MODESTO_DE_ARAUJO_-_BOX_11_IMPORTS", "ENDERECO": "AVENIDA_SERGIO_LANDULFO_FURTADO_146_JARDIM_GUANHEMBU_SAO_PAULO", "CIDADE": "SAO_PAULO", "LATITUDE": -23.7336129, "LONGITUDE": -46.6843868 }, "geometry": { "type": "Point", "coordinates": [ -46.6843868, -23.7336129 ] } },
{ "type": "Feature", "properties": { "CNPJ": 52626260000170, "AGENTE": "MARIA_INES_HELFSTEIN", "ACAO": "REALIZAR_SEGUNDA_VISITA", "RAZAO_SOCIAL": "52.626.260_JOSE_LUCIANO_ABREU_VASCONCELOS_-_PADARIA_PAI_E_FILHO", "ENDERECO": "AVENIDA_SERGIO_LANDULFO_FURTADO_255_JARDIM_GUANHEMBU_SAO_PAULO", "CIDADE": "SAO_PAULO", "LATITUDE": -23.7334765, "LONGITUDE": -46.6853347 }, "geometry": { "type": "Point", "coordinates": [ -46.6853347, -23.7334765 ] } },
{ "type": "Feature", "properties": { "CNPJ": 57092919000170, "AGENTE": "MARIA_INES_HELFSTEIN", "ACAO": "REALIZAR_SEGUNDA_VISITA", "RAZAO_SOCIAL": "CASA_DE_RAO_REI_DAS_AVES_LTDA_-_CASA_DE_RAO_REI_DAS_AVES", "ENDERECO": "AVENIDA_SERGIO_LANDULFO_FURTADO_46_JARDIM_GUANHEMBU_SAO_PAULO", "CIDADE": "SAO_PAULO", "LATITUDE": -23.7339063, "LONGITUDE": -46.6834008 }, "geometry": { "type": "Point", "coordinates": [ -46.6834008, -23.7339063 ] } },
{ "type": "Feature", "properties": { "CNPJ": 39652947000112, "AGENTE": "MARIA_INES_HELFSTEIN", "ACAO": "REALIZAR_SEGUNDA_VISITA", "RAZAO_SOCIAL": "CASA_DO_NORTE_BACANAS_E_RESTAURANTE_LTDA_-_BACANAS_CASA_DO_NORTE", "ENDERECO": "AVENIDA_SERGIO_LANDULFO_FURTADO_510_JARDIM_GUANHEMBU_SAO_PAULO", "CIDADE": "SAO_PAULO", "LATITUDE": -23.7331148, "LONGITUDE": -46.6857214 }, "geometry": { "type": "Point", "coordinates": [ -46.6857214, -23.7331148 ] } },
{ "type": "Feature", "properties": { "CNPJ": 52463021000147, "AGENTE": "MARIA_INES_HELFSTEIN", "ACAO": "REALIZAR_SEGUNDA_VISITA", "RAZAO_SOCIAL": "52.463.021_DIEGO_HENRIQUE_ELIDIO_DA_SILVA_-_ART_MOBILE_PLANEMADOS", "ENDERECO": "ESTRADA_DO_SCHMIDT_1010_CHACARA_DO_SOL_SAO_PAULO", "CIDADE": "SAO_PAULO", "LATITUDE": -23.7808616, "LONGITUDE": -46.6718863 }, "geometry": { "type": "Point", "coordinates": [ -46.6718863, -23.7808616 ] } },
{ "type": "Feature", "properties": { "CNPJ": 14638210000114, "AGENTE": "MARIA_INES_HELFSTEIN", "ACAO": "REALIZAR_SEGUNDA_VISITA", "RAZAO_SOCIAL": "VIDAGOL_-_VIDA_GOL_CAFETEIRA", "ENDERECO": "RUA_ADEN_154_RIO_BONITO_SAO_PAULO", "CIDADE": "SAO_PAULO", "LATITUDE": -23.7213304, "LONGITUDE": -46.7057335 }, "geometry": { "type": "Point", "coordinates": [ -46.7057335, -23.7213304 ] } },
{ "type": "Feature", "properties": { "CNPJ": 34562706000169, "AGENTE": "MARIA_INES_HELFSTEIN", "ACAO": "REALIZAR_SEGUNDA_VISITA", "RAZAO_SOCIAL": "PLACE_OF_BURGER_LTDA_-_PLACE_OF_BURGER", "ENDERECO": "RUA_AGUILAR_58_CIDADE_DUTRA_SAO_PAULO", "CIDADE": "SAO_PAULO", "LATITUDE": -23.7328065, "LONGITUDE": -46.6986877 }, "geometry": { "type": "Point", "coordinates": [ -46.6986877, -23.7328065 ] } },
{ "type": "Feature", "properties": { "CNPJ": 24253707000178, "AGENTE": "MARIA_INES_HELFSTEIN", "ACAO": "REALIZAR_SEGUNDA_VISITA", "RAZAO_SOCIAL": "DANIELA_LEITE_DE_OLIVEIRA_26294549833_-_FOCUS_DECORACOES", "ENDERECO": "RUA_ANDRE_DE_LEAO_82_VILA_SOCORRO_SAO_PAULO", "CIDADE": "SAO_PAULO", "LATITUDE": -23.6669202, "LONGITUDE": -46.7162921 }, "geometry": { "type": "Point", "coordinates": [ -46.7162921, -23.6669202 ] } },
{ "type": "Feature", "properties": { "CNPJ": 14372760000134, "AGENTE": "MARIA_INES_HELFSTEIN", "ACAO": "REALIZAR_SEGUNDA_VISITA", "RAZAO_SOCIAL": "14.372.760_ANTONIO_JESUS_GONCALVES_-_CHAVEIROS_GONCHAVES", "ENDERECO": "RUA_ARMANDO_VIEIRA_47_VI_CENTENARIO_SAO_PAULO", "CIDADE": "SAO_PAULO", "LATITUDE": -23.7067649, "LONGITUDE": -46.6877237 }, "geometry": { "type": "Point", "coordinates": [ -46.6877237, -23.7067649 ] } },
{ "type": "Feature", "properties": { "CNPJ": 40758398000144, "AGENTE": "MARIA_INES_HELFSTEIN", "ACAO": "REALIZAR_SEGUNDA_VISITA", "RAZAO_SOCIAL": "SANDRA_APARECIDA_FLORES_10748061827_-_CAFE_DA_VOVO", "ENDERECO": "RUA_ARTUR_NASCIMENTO_JUNIOR_81_INTERLAGOS_SAO_PAULO", "CIDADE": "SAO_PAULO", "LATITUDE": -23.7033024, "LONGITUDE": -46.6913191 }, "geometry": { "type": "Point", "coordinates": [ -46.6913191, -23.7033024 ] } },
{ "type": "Feature", "properties": { "CNPJ": 28718037000179, "AGENTE": "MARIA_INES_HELFSTEIN", "ACAO": "REALIZAR_SEGUNDA_VISITA", "RAZAO_SOCIAL": "28.718.037_CARLOS_ALBERTO_BARBOSA_DE_SOUZA_SANTOS_-_HOSPITAL_DO_OCULOS", "ENDERECO": "RUA_BARAO_DE_DUPRAT_280_SANTO_AMARO_SAO_PAULO", "CIDADE": "SAO_PAULO", "LATITUDE": -23.6551595, "LONGITUDE": -46.7029233 }, "geometry": { "type": "Point", "coordinates": [ -46.7029233, -23.6551595 ] } },
{ "type": "Feature", "properties": { "CNPJ": 58159560000173, "AGENTE": "MARIA_INES_HELFSTEIN", "ACAO": "REALIZAR_SEGUNDA_VISITA", "RAZAO_SOCIAL": "58.159.560_ALEX_FERREIRA_DE_MORAES_-_ALEX_FERREIRA", "ENDERECO": "RUA_CHRISTIAN_HEINS_87_JARDIM_SATELITE_SAO_PAULO", "CIDADE": "SAO_PAULO", "LATITUDE": -23.7000609, "LONGITUDE": -46.6919009 }, "geometry": { "type": "Point", "coordinates": [ -46.6919009, -23.7000609 ] } },
{ "type": "Feature", "properties": { "CNPJ": 34902913000115, "AGENTE": "MARIA_INES_HELFSTEIN", "ACAO": "REALIZAR_SEGUNDA_VISITA", "RAZAO_SOCIAL": "LUCAS_FABRICIO_ARAUJO_TAVEIRA_37233463832_-_BARUK_TALENTOS_BARBEARIA", "ENDERECO": "RUA_DINALVA_OLIVEIRA_TEIXEIRA_91_JARDIM_GUANHEMBU_SAO_PAULO", "CIDADE": "SAO_PAULO", "LATITUDE": -23.7290164, "LONGITUDE": -46.6836279 }, "geometry": { "type": "Point", "coordinates": [ -46.6836279, -23.7290164 ] } },
{ "type": "Feature", "properties": { "CNPJ": 21405309000131, "AGENTE": "MARIA_INES_HELFSTEIN", "ACAO": "REALIZAR_SEGUNDA_VISITA", "RAZAO_SOCIAL": "SHIRLEY_PAULA_DELMIRO_26507182850_-_SBS_SALVADOR_E__BOLOS", "ENDERECO": "RUA_DJALMA_PESSOLATO_112_JARDIM_SATELITE_SAO_PAULO", "CIDADE": "SAO_PAULO", "LATITUDE": -23.7071627, "LONGITUDE": -46.6899251 }, "geometry": { "type": "Point", "coordinates": [ -46.6899251, -23.7071627 ] } },
{ "type": "Feature", "properties": { "CNPJ": 37627708000187, "AGENTE": "MARIA_INES_HELFSTEIN", "ACAO": "REALIZAR_SEGUNDA_VISITA", "RAZAO_SOCIAL": "37.627.708_CAROLINE_FAVA_MANTOVANI_-_RISOS_CESTAS", "ENDERECO": "RUA_ERMELINDA_MELETTI_TELDESCHI_14_JARDIM_SUSANA_SAO_PAULO", "CIDADE": "SAO_PAULO", "LATITUDE": -23.6910452, "LONGITUDE": -46.7084905 }, "geometry": { "type": "Point", "coordinates": [ -46.7084905, -23.6910452 ] } },
{ "type": "Feature", "properties": { "CNPJ": 48663166000114, "AGENTE": "MARIA_INES_HELFSTEIN", "ACAO": "REALIZAR_SEGUNDA_VISITA", "RAZAO_SOCIAL": "DIRCEU_LIRA_DE_SOUZA_ELETRICA_-_SOLUCAO_LUZ", "ENDERECO": "RUA_FREDERICO_RENE_DE_JAEGHER_726_RIO_BONITO_SAO_PAULO", "CIDADE": "SAO_PAULO", "LATITUDE": -23.7195743, "LONGITUDE": -46.706124 }, "geometry": { "type": "Point", "coordinates": [ -46.706124, -23.7195743 ] } },
{ "type": "Feature", "properties": { "CNPJ": 10258090000179, "AGENTE": "MARIA_INES_HELFSTEIN", "ACAO": "REALIZAR_SEGUNDA_VISITA", "RAZAO_SOCIAL": "D_ACRILICO_COMERCIAL_LTDA_-_D.ACRILICOS", "ENDERECO": "RUA_HUMBERTO_ALBUQUERQUE_CAMARA_NETO_1113_JARDIM_GUANHEMBU_SAO_PAULO", "CIDADE": "SAO_PAULO", "LATITUDE": -23.7316691, "LONGITUDE": -46.6881114 }, "geometry": { "type": "Point", "coordinates": [ -46.6881114, -23.7316691 ] } },
{ "type": "Feature", "properties": { "CNPJ": 37467441000108, "AGENTE": "MARIA_INES_HELFSTEIN", "ACAO": "REALIZAR_SEGUNDA_VISITA", "RAZAO_SOCIAL": "KAREN_BARBARA_GONCALVES_SILVA_23359101839_-_STUDIO_CK_HAIR", "ENDERECO": "RUA_ICANHEMA_207_CIDADE_DUTRA_SAO_PAULO", "CIDADE": "SAO_PAULO", "LATITUDE": -23.7093543, "LONGITUDE": -46.6984885 }, "geometry": { "type": "Point", "coordinates": [ -46.6984885, -23.7093543 ] } },
{ "type": "Feature", "properties": { "CNPJ": 40828800000110, "AGENTE": "MARIA_INES_HELFSTEIN", "ACAO": "REALIZAR_SEGUNDA_VISITA", "RAZAO_SOCIAL": "40.828.800_EWERTON_VINICIUS_ALVES_DA_SILVA_-_EWERTON_VINICIUS", "ENDERECO": "RUA_IEDA_SANTOS_DELGADO_293_JARDIM_TOCA_SAO_PAULO", "CIDADE": "SAO_PAULO", "LATITUDE": -23.7346791, "LONGITUDE": -46.6831016 }, "geometry": { "type": "Point", "coordinates": [ -46.6831016, -23.7346791 ] } },
{ "type": "Feature", "properties": { "CNPJ": 1861182000158, "AGENTE": "MARIA_INES_HELFSTEIN", "ACAO": "REALIZAR_SEGUNDA_VISITA", "RAZAO_SOCIAL": "FANTUCCI_COMERCIO_DE_AUTO_PECAS_LTDA_-_MANGUEIRAUTO", "ENDERECO": "RUA_JEQUIRITUBA_1113_JARDIM_GUAEMBU_SAO_PAULO", "CIDADE": "SAO_PAULO", "LATITUDE": -23.731894, "LONGITUDE": -46.6879702 }, "geometry": { "type": "Point", "coordinates": [ -46.6879702, -23.731894 ] } },
{ "type": "Feature", "properties": { "CNPJ": 43004359000140, "AGENTE": "MARIA_INES_HELFSTEIN", "ACAO": "REALIZAR_SEGUNDA_VISITA", "RAZAO_SOCIAL": "RICARDO_APARECIDO_OTICA_LTDA_-_HOSPITAL_DO_OCULOS", "ENDERECO": "RUA_JEQUIRITUBA_1380_PARQUE_AMERICA_SAO_PAULO", "CIDADE": "SAO_PAULO", "LATITUDE": -23.7333395, "LONGITUDE": -46.68874 }, "geometry": { "type": "Point", "coordinates": [ -46.68874, -23.7333395 ] } },
{ "type": "Feature", "properties": { "CNPJ": 44322472000136, "AGENTE": "MARIA_INES_HELFSTEIN", "ACAO": "REALIZAR_SEGUNDA_VISITA", "RAZAO_SOCIAL": "44.322.472_TAMIRES_ARAUJO_DOS_SANTOS_-_STUDIO_THAMMYRES_MATTOS", "ENDERECO": "RUA_JEQUIRITUBA_1751_PARQUE_AMERICA_SAO_PAULO", "CIDADE": "SAO_PAULO", "LATITUDE": -23.736342, "LONGITUDE": -46.6882594 }, "geometry": { "type": "Point", "coordinates": [ -46.6882594, -23.736342 ] } },
{ "type": "Feature", "properties": { "CNPJ": 57780331000109, "AGENTE": "MARIA_INES_HELFSTEIN", "ACAO": "REALIZAR_SEGUNDA_VISITA", "RAZAO_SOCIAL": "57.780.331_FABIANA_SILVA_DOS_SANTOS_-_AMERICA_DISTRIBUIDORA_DE_BEBIDAS", "ENDERECO": "RUA_JEQUIRITUBA_832_PARQUE_AMERICA_SAO_PAULO", "CIDADE": "SAO_PAULO", "LATITUDE": -23.728792, "LONGITUDE": -46.6892047 }, "geometry": { "type": "Point", "coordinates": [ -46.6892047, -23.728792 ] } },
{ "type": "Feature", "properties": { "CNPJ": 41747886000119, "AGENTE": "MARIA_INES_HELFSTEIN", "ACAO": "REALIZAR_SEGUNDA_VISITA", "RAZAO_SOCIAL": "ANGELO_DE_SOUSA_ALVES_45008948881_-_PLANO_A_BARBEARIA", "ENDERECO": "RUA_JOANA_AVANCINI_PRADO_365_JARDIM_LALLO_SAO_PAULO", "CIDADE": "SAO_PAULO", "LATITUDE": -23.7067048, "LONGITUDE": -46.6873523 }, "geometry": { "type": "Point", "coordinates": [ -46.6873523, -23.7067048 ] } },
{ "type": "Feature", "properties": { "CNPJ": 19666281000144, "AGENTE": "MARIA_INES_HELFSTEIN", "ACAO": "REALIZAR_SEGUNDA_VISITA", "RAZAO_SOCIAL": "19.666.281_FRANCISCO_DAS_CHAGAS_PEREIRA_TEIXEIRA_-_BAR_ACOCHEGO", "ENDERECO": "RUA_JUPI_93_SANTO_AMARO_SAO_PAULO", "CIDADE": "SAO_PAULO", "LATITUDE": -23.6466914, "LONGITUDE": -46.7114279 }, "geometry": { "type": "Point", "coordinates": [ -46.7114279, -23.6466914 ] } },
{ "type": "Feature", "properties": { "CNPJ": 55893959000195, "AGENTE": "MARIA_INES_HELFSTEIN", "ACAO": "REALIZAR_SEGUNDA_VISITA", "RAZAO_SOCIAL": "55.893.959_LIDIA_TERESINHA_ZIMIANO_-_CHURRAS_CO", "ENDERECO": "RUA_LEONARDO_DE_FASSIO_547_JARDIM_SUSANA_SAO_PAULO", "CIDADE": "SAO_PAULO", "LATITUDE": -23.6925205, "LONGITUDE": -46.7088013 }, "geometry": { "type": "Point", "coordinates": [ -46.7088013, -23.6925205 ] } },
{ "type": "Feature", "properties": { "CNPJ": 16903811000132, "AGENTE": "MARIA_INES_HELFSTEIN", "ACAO": "REALIZAR_SEGUNDA_VISITA", "RAZAO_SOCIAL": "PAMELA_G.DEFILLIPO_COMERCIO_PET_-_LILI_FOFURINHA", "ENDERECO": "RUA_LUCIO_PETIT_DA_SILVA_2_JARDIM_GUANHEMBU_SAO_PAULO", "CIDADE": "SAO_PAULO", "LATITUDE": -23.7338681, "LONGITUDE": -46.6841043 }, "geometry": { "type": "Point", "coordinates": [ -46.6841043, -23.7338681 ] } },
{ "type": "Feature", "properties": { "CNPJ": 38106908000157, "AGENTE": "MARIA_INES_HELFSTEIN", "ACAO": "REALIZAR_SEGUNDA_VISITA", "RAZAO_SOCIAL": "JOSENILDA_BISPO_DOS_SANTOS_SILVA_12960125819_-_VIRTUDES_AGUA", "ENDERECO": "RUA_LUCIO_PETIT_DA_SILVA_56_JARDIM_GUAEMBU_SAO_PAULO", "CIDADE": "SAO_PAULO", "LATITUDE": -23.7340507, "LONGITUDE": -46.6841137 }, "geometry": { "type": "Point", "coordinates": [ -46.6841137, -23.7340507 ] } },
{ "type": "Feature", "properties": { "CNPJ": 46532790000157, "AGENTE": "MARIA_INES_HELFSTEIN", "ACAO": "REALIZAR_SEGUNDA_VISITA", "RAZAO_SOCIAL": "S.H.O_SOLUCOES_LTDA_-_S.H.O_SOLUCOES_LTDA", "ENDERECO": "RUA_MARLENE_DIETRICH_46_JARDIM_GUAEMBU_SAO_PAULO", "CIDADE": "SAO_PAULO", "LATITUDE": -23.7244523, "LONGITUDE": -46.6807829 }, "geometry": { "type": "Point", "coordinates": [ -46.6807829, -23.7244523 ] } },
{ "type": "Feature", "properties": { "CNPJ": 44301645000130, "AGENTE": "MARIA_INES_HELFSTEIN", "ACAO": "REALIZAR_SEGUNDA_VISITA", "RAZAO_SOCIAL": "GALM_RESTAURANTE_LTDA_-_SHEIK_ADEGA_E__TABACARIA", "ENDERECO": "RUA_MARTINOPOLIS_44_CIDADE_DUTRA_SAO_PAULO", "CIDADE": "SAO_PAULO", "LATITUDE": -23.7119486, "LONGITUDE": -46.7031477 }, "geometry": { "type": "Point", "coordinates": [ -46.7031477, -23.7119486 ] } },
{ "type": "Feature", "properties": { "CNPJ": 24639543000111, "AGENTE": "MARIA_INES_HELFSTEIN", "ACAO": "REALIZAR_SEGUNDA_VISITA", "RAZAO_SOCIAL": "CRIA_CONFECCOES_LTDA_-_CRIA_CONFECCAO", "ENDERECO": "RUA_OSCAR_NELSON_8_JORDANOPOLIS_SAO_PAULO", "CIDADE": "SAO_PAULO", "LATITUDE": -23.7349089, "LONGITUDE": -46.7002408 }, "geometry": { "type": "Point", "coordinates": [ -46.7002408, -23.7349089 ] } },
{ "type": "Feature", "properties": { "CNPJ": 39669285000193, "AGENTE": "MARIA_INES_HELFSTEIN", "ACAO": "REALIZAR_SEGUNDA_VISITA", "RAZAO_SOCIAL": "RR_MOBILIARIO_LTDA_-_RR_MOBILIARIO", "ENDERECO": "RUA_PROFESSOR_ENEAS_DE_SIQUEIRA_NETO_321_JARDIM_DAS_IMBUIAS_SAO_PAULO", "CIDADE": "SAO_PAULO", "LATITUDE": -23.7283279, "LONGITUDE": -46.7123455 }, "geometry": { "type": "Point", "coordinates": [ -46.7123455, -23.7283279 ] } },
{ "type": "Feature", "properties": { "CNPJ": 13923411000109, "AGENTE": "MARIA_INES_HELFSTEIN", "ACAO": "REALIZAR_SEGUNDA_VISITA", "RAZAO_SOCIAL": "JOELMA_SANTANA_DO_NASCIMENTO_31447889886_-_SANTANA_MODA_UNIVERSITARIA", "ENDERECO": "RUA_PROFESSOR_ENEAS_DE_SIQUEIRA_NETO_495_JARDIM_DAS_IMBUIAS_SAO_PAULO", "CIDADE": "SAO_PAULO", "LATITUDE": -23.7293097, "LONGITUDE": -46.7110235 }, "geometry": { "type": "Point", "coordinates": [ -46.7110235, -23.7293097 ] } },
{ "type": "Feature", "properties": { "CNPJ": 51971551000133, "AGENTE": "MARIA_INES_HELFSTEIN", "ACAO": "REALIZAR_SEGUNDA_VISITA", "RAZAO_SOCIAL": "NOTA_10_CONFECCAO_LTDA_-_A_FABRICA_CRIA", "ENDERECO": "RUA_PROFESSOR_ENEAS_DE_SIQUEIRA_NETO_501_JARDIM_DAS_IMBUIAS_SAO_PAULO", "CIDADE": "SAO_PAULO", "LATITUDE": -23.7294066, "LONGITUDE": -46.7108819 }, "geometry": { "type": "Point", "coordinates": [ -46.7108819, -23.7294066 ] } },
{ "type": "Feature", "properties": { "CNPJ": 31426157000107, "AGENTE": "MARIA_INES_HELFSTEIN", "ACAO": "REALIZAR_SEGUNDA_VISITA", "RAZAO_SOCIAL": "BRL_MARKTING_DIGITAL_LTDA_-_DUSS_DIGITAL", "ENDERECO": "RUA_RAIZ_DE_GUINE_121_PARQUE_DAS_ARVORES_SAO_PAULO", "CIDADE": "SAO_PAULO", "LATITUDE": -23.7316332, "LONGITUDE": -46.6943232 }, "geometry": { "type": "Point", "coordinates": [ -46.6943232, -23.7316332 ] } },
{ "type": "Feature", "properties": { "CNPJ": 26114403000155, "AGENTE": "MARIA_INES_HELFSTEIN", "ACAO": "REALIZAR_SEGUNDA_VISITA", "RAZAO_SOCIAL": "TRANSBROTHERS_TRANSPORTES_E_TURISMO_LTDA_-_BROTHERS_VANS", "ENDERECO": "RUA_RENE_FALCONETTI_36_PARQUE_AMERICA_SAO_PAULO", "CIDADE": "SAO_PAULO", "LATITUDE": -23.7342673, "LONGITUDE": -46.6873113 }, "geometry": { "type": "Point", "coordinates": [ -46.6873113, -23.7342673 ] } },
{ "type": "Feature", "properties": { "CNPJ": 35433885000105, "AGENTE": "MARIA_INES_HELFSTEIN", "ACAO": "REALIZAR_SEGUNDA_VISITA", "RAZAO_SOCIAL": "PIZZARIA_GRANDINI_II_LTDA_-_PIZZARIA_GRANDINI", "ENDERECO": "RUA_RUBEM_SOUTO_DE_ARAUJO_80_JARDIM_PRESIDENTE_SAO_PAULO", "CIDADE": "SAO_PAULO", "LATITUDE": -23.7352965, "LONGITUDE": -46.7020501 }, "geometry": { "type": "Point", "coordinates": [ -46.7020501, -23.7352965 ] } },
{ "type": "Feature", "properties": { "CNPJ": 19584792000117, "AGENTE": "MARIA_INES_HELFSTEIN", "ACAO": "REALIZAR_SEGUNDA_VISITA", "RAZAO_SOCIAL": "19.584.792_ANA_CRISTINA_ALMEIDA_DE_SOUZA_-_ANA_CRISTINA", "ENDERECO": "RUA_VALENTIM_CORDEIRO_60_JARDIM_SAMANBAIA_SAO_PAULO", "CIDADE": "SAO_PAULO", "LATITUDE": -23.7092492, "LONGITUDE": -46.6987928 }, "geometry": { "type": "Point", "coordinates": [ -46.6987928, -23.7092492 ] } },
{ "type": "Feature", "properties": { "CNPJ": 7586691000104, "AGENTE": "MARIA_INES_HELFSTEIN", "ACAO": "REALIZAR_PRIMEIRA_VISITA_POTENCIAL", "RAZAO_SOCIAL": "07.586.691_JOSE_EDIOS_MARTINS", "ENDERECO": "RUA_ICANHEMA_235_CIDADE_DUTRA_SAO_PAULO_BRASIL", "CIDADE": "SAO_PAULO", "LATITUDE": -23.7095468, "LONGITUDE": -46.6982677 }, "geometry": { "type": "Point", "coordinates": [ -46.6982677, -23.7095468 ] } },
{ "type": "Feature", "properties": { "CNPJ": 56322925000103, "AGENTE": "MARIA_INES_HELFSTEIN", "ACAO": "REALIZAR_PRIMEIRA_VISITA_POTENCIAL", "RAZAO_SOCIAL": "56.322.925_PATRICIA_ALVES_LINO", "ENDERECO": "RUA_ALEXANDRE_DUMAS_1376_CHACARA_SANTO_ANTONIO_(ZONA_SUL)_SAO_PAULO_BRASIL", "CIDADE": "SAO_PAULO", "LATITUDE": -23.6319819, "LONGITUDE": -46.7042489 }, "geometry": { "type": "Point", "coordinates": [ -46.7042489, -23.6319819 ] } },
{ "type": "Feature", "properties": { "CNPJ": 53747430000138, "AGENTE": "MARIA_INES_HELFSTEIN", "ACAO": "REALIZAR_PRIMEIRA_VISITA_POTENCIAL", "RAZAO_SOCIAL": "53.747.430_MAYARA_MARIANA_SANTANA_RABELO", "ENDERECO": "RUA_ALEXANDRE_DUMAS_1320_CHACARA_SANTO_ANTONIO_(ZONA_SUL)_SAO_PAULO_BRASIL", "CIDADE": "SAO_PAULO", "LATITUDE": -23.6322666, "LONGITUDE": -46.7037744 }, "geometry": { "type": "Point", "coordinates": [ -46.7037744, -23.6322666 ] } },
{ "type": "Feature", "properties": { "CNPJ": 32029129000119, "AGENTE": "MARIA_INES_HELFSTEIN", "ACAO": "REALIZAR_PRIMEIRA_VISITA_POTENCIAL", "RAZAO_SOCIAL": "32.029.129_THAIS_DE_MARCHI_SANT_ANNA_VIEIRA", "ENDERECO": "RUA_ALEXANDRE_DUMAS_1233A_CHACARA_SANTO_ANTONIO_(ZONA_SUL)_SAO_PAULO_BRASIL", "CIDADE": "SAO_PAULO", "LATITUDE": -23.6328502, "LONGITUDE": -46.7032136 }, "geometry": { "type": "Point", "coordinates": [ -46.7032136, -23.6328502 ] } },
{ "type": "Feature", "properties": { "CNPJ": 52589938000192, "AGENTE": "MARIA_INES_HELFSTEIN", "ACAO": "REALIZAR_PRIMEIRA_VISITA_POTENCIAL", "RAZAO_SOCIAL": "VINICIUS_DE_AMORIM_CALTRAN_LTDA", "ENDERECO": "RUA_SOUSA_NOSCHESE_151_VILA_CRUZEIRO_SAO_PAULO_BRASIL", "CIDADE": "SAO_PAULO", "LATITUDE": -23.6330571, "LONGITUDE": -46.7152888 }, "geometry": { "type": "Point", "coordinates": [ -46.7152888, -23.6330571 ] } },
{ "type": "Feature", "properties": { "CNPJ": 58559968000132, "AGENTE": "MARIA_INES_HELFSTEIN", "ACAO": "REALIZAR_PRIMEIRA_VISITA_POTENCIAL", "RAZAO_SOCIAL": "58.559.968_HUGO_RAVELLE_NASCIMENTO_NUNES", "ENDERECO": "RUA_LUIS_CORREIA_DE_MELO_92_VILA_CRUZEIRO_SAO_PAULO_BRASIL", "CIDADE": "SAO_PAULO", "LATITUDE": -23.6333884, "LONGITUDE": -46.7160411 }, "geometry": { "type": "Point", "coordinates": [ -46.7160411, -23.6333884 ] } },
{ "type": "Feature", "properties": { "CNPJ": 39521938000192, "AGENTE": "MARIA_INES_HELFSTEIN", "ACAO": "REALIZAR_PRIMEIRA_VISITA_POTENCIAL", "RAZAO_SOCIAL": "JOAO_ARTHUR_MORAES_DE_ALMEIDA_LTDA", "ENDERECO": "RUA_LUIS_CORREIA_DE_MELO_92_VILA_CRUZEIRO_SAO_PAULO_BRASIL", "CIDADE": "SAO_PAULO", "LATITUDE": -23.6333884, "LONGITUDE": -46.7160411 }, "geometry": { "type": "Point", "coordinates": [ -46.7160411, -23.6333884 ] } },
{ "type": "Feature", "properties": { "CNPJ": 3475026100014, "AGENTE": "MARIA_INES_HELFSTEIN", "ACAO": "REALIZAR_PRIMEIRA_VISITA_POTENCIAL", "RAZAO_SOCIAL": "ART_BUFFET_DOCES_LTDA", "ENDERECO": "AVENIDA_JOAO_CARLOS_DA_SILVA_BORGES_-_DE_897/898_AO_FIM_1215_VILA_CRUZEIRO_SAO_PAULO_BRASIL", "CIDADE": "SAO_PAULO", "LATITUDE": -23.6345463, "LONGITUDE": -46.7119617 }, "geometry": { "type": "Point", "coordinates": [ -46.7119617, -23.6345463 ] } },
{ "type": "Feature", "properties": { "CNPJ": 5718787700015, "AGENTE": "MARIA_INES_HELFSTEIN", "ACAO": "REALIZAR_PRIMEIRA_VISITA_POTENCIAL", "RAZAO_SOCIAL": "IZADORA_ELOIZE_DE_SOUZA_SANTOS_COMERCIO_LTDA", "ENDERECO": "AVENIDA_PROF_ALCEU_MAYNARD_ARAUJO_153_VILA_CRUZEIRO_SAO_PAULO_BRASIL", "CIDADE": "SAO_PAULO", "LATITUDE": -23.6355813, "LONGITUDE": -46.7114796 }, "geometry": { "type": "Point", "coordinates": [ -46.7114796, -23.6355813 ] } },
{ "type": "Feature", "properties": { "CNPJ": 42164670000193, "AGENTE": "MARIA_INES_HELFSTEIN", "ACAO": "REALIZAR_PRIMEIRA_VISITA_POTENCIAL", "RAZAO_SOCIAL": "HORTIFRUTI_E_RESTAURANTE_EMPORIO_DA_TERRA_LTDA", "ENDERECO": "RUA_ANTONIO_XAVIER_GOUVEIA_133_CHACARA_JAPONESA_SAO_PAULO_BRASIL", "CIDADE": "SAO_PAULO", "LATITUDE": -23.6370302, "LONGITUDE": -46.710158 }, "geometry": { "type": "Point", "coordinates": [ -46.710158, -23.6370302 ] } },
{ "type": "Feature", "properties": { "CNPJ": 43784454000103, "AGENTE": "MARIA_INES_HELFSTEIN", "ACAO": "REALIZAR_PRIMEIRA_VISITA_POTENCIAL", "RAZAO_SOCIAL": "LETICIA_ALVES_SILVEIRA_VIEIRA", "ENDERECO": "RUA_FERREIRA_DO_ALENTEJO_317_JARDIM_CARAVELAS_SAO_PAULO_BRASIL", "CIDADE": "SAO_PAULO", "LATITUDE": -23.6385969, "LONGITUDE": -46.7148904 }, "geometry": { "type": "Point", "coordinates": [ -46.7148904, -23.6385969 ] } },
{ "type": "Feature", "properties": { "CNPJ": 36811977000136, "AGENTE": "MARIA_INES_HELFSTEIN", "ACAO": "REALIZAR_PRIMEIRA_VISITA_POTENCIAL", "RAZAO_SOCIAL": "JOSE_JONATHAS_DE_OLIVEIRA_NETO_LTDA", "ENDERECO": "RUA_MANUEL_PEREIRA_GUIMARAES_312_GRANJA_JULIETA_SAO_PAULO_BRASIL", "CIDADE": "SAO_PAULO", "LATITUDE": -23.6416758, "LONGITUDE": -46.7035996 }, "geometry": { "type": "Point", "coordinates": [ -46.7035996, -23.6416758 ] } },
{ "type": "Feature", "properties": { "CNPJ": 54507896000129, "AGENTE": "MARIA_INES_HELFSTEIN", "ACAO": "REALIZAR_PRIMEIRA_VISITA_POTENCIAL", "RAZAO_SOCIAL": "KWESTSP_SOLUCOES_EM_AMBIENTES_LTDA", "ENDERECO": "RUA_ANHEMBI_170_JARDIM_CARAVELAS_SAO_PAULO_BRASIL", "CIDADE": "SAO_PAULO", "LATITUDE": -23.6433726, "LONGITUDE": -46.7156952 }, "geometry": { "type": "Point", "coordinates": [ -46.7156952, -23.6433726 ] } },
{ "type": "Feature", "properties": { "CNPJ": 24300820000167, "AGENTE": "MARIA_INES_HELFSTEIN", "ACAO": "REALIZAR_PRIMEIRA_VISITA_POTENCIAL", "RAZAO_SOCIAL": "FERNANDO_DE_CARVALHO_BORGES", "ENDERECO": "RUA_ALBINO_BOLDASSO_GABRIL_67_VILA_CRUZEIRO_SAO_PAULO_BRASIL", "CIDADE": "SAO_PAULO", "LATITUDE": -23.643803, "LONGITUDE": -46.7123686 }, "geometry": { "type": "Point", "coordinates": [ -46.7123686, -23.643803 ] } },
{ "type": "Feature", "properties": { "CNPJ": 4956963000017, "AGENTE": "MARIA_INES_HELFSTEIN", "ACAO": "REALIZAR_PRIMEIRA_VISITA_POTENCIAL", "RAZAO_SOCIAL": "EIGO_HENRIQUE_TAVARES", "ENDERECO": "RUA_JOAQUIM_DOS_REIS_100_VILA_CRUZEIRO_SAO_PAULO_BRASIL", "CIDADE": "TAPIRAI", "LATITUDE": -23.6442647, "LONGITUDE": -46.7140193 }, "geometry": { "type": "Point", "coordinates": [ -46.7140193, -23.6442647 ] } },
{ "type": "Feature", "properties": { "CNPJ": 22837476000114, "AGENTE": "MARIA_INES_HELFSTEIN", "ACAO": "REALIZAR_PRIMEIRA_VISITA_POTENCIAL", "RAZAO_SOCIAL": "22.837.476_DEBORA_DE_SANTANA_MORAIS", "ENDERECO": "RUA_DOUTOR_FRITZ_MARTIN_90_VILA_CRUZEIRO_SAO_PAULO_BRASIL", "CIDADE": "SAO_PAULO", "LATITUDE": -23.6442954, "LONGITUDE": -46.714892 }, "geometry": { "type": "Point", "coordinates": [ -46.714892, -23.6442954 ] } },
{ "type": "Feature", "properties": { "CNPJ": 49835187000132, "AGENTE": "MARIA_INES_HELFSTEIN", "ACAO": "REALIZAR_PRIMEIRA_VISITA_POTENCIAL", "RAZAO_SOCIAL": "CGR_SERVICOS_LTDA", "ENDERECO": "AVENIDA_JOAO_DIAS_1916_SANTO_AMARO_SAO_PAULO_BRASIL", "CIDADE": "SAO_PAULO", "LATITUDE": -23.6445915, "LONGITUDE": -46.718684 }, "geometry": { "type": "Point", "coordinates": [ -46.718684, -23.6445915 ] } },
{ "type": "Feature", "properties": { "CNPJ": 33006888000129, "AGENTE": "MARIA_INES_HELFSTEIN", "ACAO": "REALIZAR_PRIMEIRA_VISITA_POTENCIAL", "RAZAO_SOCIAL": "LOTEPLAN_INCORPORACAO_CONSTRUCAO_E_ADMINISTRACAO_DE_BENS_LTDA", "ENDERECO": "AVENIDA_JOAO_CARLOS_DA_SILVA_BORGES_111_VILA_CRUZEIRO_SAO_PAULO_BRASIL", "CIDADE": "SAO_PAULO", "LATITUDE": -23.6445936, "LONGITUDE": -46.7118015 }, "geometry": { "type": "Point", "coordinates": [ -46.7118015, -23.6445936 ] } },
{ "type": "Feature", "properties": { "CNPJ": 226456860001, "AGENTE": "MARIA_INES_HELFSTEIN", "ACAO": "REALIZAR_PRIMEIRA_VISITA_POTENCIAL", "RAZAO_SOCIAL": "CGG_DESENHOS_TECNICOS_LTDA", "ENDERECO": "RUA_MAJOR_TARQUINIO_LEITE_PEREIRA_55_JARDIM_INTERNACIONAL_SAO_PAULO_BRASIL", "CIDADE": "SAO_PAULO", "LATITUDE": -23.6454231, "LONGITUDE": -46.7193864 }, "geometry": { "type": "Point", "coordinates": [ -46.7193864, -23.6454231 ] } },
{ "type": "Feature", "properties": { "CNPJ": 19311558000116, "AGENTE": "MARIA_INES_HELFSTEIN", "ACAO": "REALIZAR_PRIMEIRA_VISITA_POTENCIAL", "RAZAO_SOCIAL": "LUIZ_ANTONIO_FRANCISCO_DO_ROSARIO", "ENDERECO": "RUA_JOSE_GUILGER_SOBRINHO_86_SANTO_AMARO_SAO_PAULO_BRASIL", "CIDADE": "SAO_PAULO", "LATITUDE": -23.6456607, "LONGITUDE": -46.7182236 }, "geometry": { "type": "Point", "coordinates": [ -46.7182236, -23.6456607 ] } },
{ "type": "Feature", "properties": { "CNPJ": 55669080000164, "AGENTE": "MARIA_INES_HELFSTEIN", "ACAO": "REALIZAR_PRIMEIRA_VISITA_POTENCIAL", "RAZAO_SOCIAL": "55.669.080_ROBERTO_BENASSI_JUNIOR", "ENDERECO": "RUA_DOUTOR_JOSE_DE_SA_96_SANTO_AMARO_SAO_PAULO_BRASIL", "CIDADE": "SAO_PAULO", "LATITUDE": -23.6457287, "LONGITUDE": -46.7191421 }, "geometry": { "type": "Point", "coordinates": [ -46.7191421, -23.6457287 ] } },
{ "type": "Feature", "properties": { "CNPJ": 4199938500012, "AGENTE": "MARIA_INES_HELFSTEIN", "ACAO": "REALIZAR_PRIMEIRA_VISITA_POTENCIAL", "RAZAO_SOCIAL": "LUCILA_SILVA_ALVIM_FISIOTERAPIA", "ENDERECO": "RUA_DR_ANTONIO_BENTO_560_SANTO_AMARO_SAO_PAULO_BRASIL", "CIDADE": "SAO_PAULO", "LATITUDE": -23.6460366, "LONGITUDE": -46.7024548 }, "geometry": { "type": "Point", "coordinates": [ -46.7024548, -23.6460366 ] } },
{ "type": "Feature", "properties": { "CNPJ": 57338605000104, "AGENTE": "MARIA_INES_HELFSTEIN", "ACAO": "REALIZAR_PRIMEIRA_VISITA_POTENCIAL", "RAZAO_SOCIAL": "VERBO_DISTRIBUIDOR_DE_PRODUTOS_DE_LIMPEZA_LTDA", "ENDERECO": "AVENIDA_JOAO_DIAS_465_SANTO_AMARO_SAO_PAULO_BRASIL", "CIDADE": "SAO_PAULO", "LATITUDE": -23.6460928, "LONGITUDE": -46.7049039 }, "geometry": { "type": "Point", "coordinates": [ -46.7049039, -23.6460928 ] } },
{ "type": "Feature", "properties": { "CNPJ": 32617455000147, "AGENTE": "MARIA_INES_HELFSTEIN", "ACAO": "REALIZAR_PRIMEIRA_VISITA_POTENCIAL", "RAZAO_SOCIAL": "ALMANAQUE_COMUNICACAO_E_PRODUCOES_CINEMATOGRAFICAS_LTDA.", "ENDERECO": "RUA_DOUTOR_ANTONIO_BENTO_504_SANTO_AMARO_SAO_PAULO_BRASIL", "CIDADE": "SAO_PAULO", "LATITUDE": -23.6461335, "LONGITUDE": -46.7025459 }, "geometry": { "type": "Point", "coordinates": [ -46.7025459, -23.6461335 ] } },
{ "type": "Feature", "properties": { "CNPJ": 14927678000129, "AGENTE": "MARIA_INES_HELFSTEIN", "ACAO": "REALIZAR_PRIMEIRA_VISITA_POTENCIAL", "RAZAO_SOCIAL": "PATAS_E_BIGODES_PET_SHOP_LTDA", "ENDERECO": "RUA_DARWIN_561_JARDIM_SANTO_AMARO_SAO_PAULO_BRASIL", "CIDADE": "SAO_PAULO", "LATITUDE": -23.6463386, "LONGITUDE": -46.7045157 }, "geometry": { "type": "Point", "coordinates": [ -46.7045157, -23.6463386 ] } },
{ "type": "Feature", "properties": { "CNPJ": 25540635000102, "AGENTE": "MARIA_INES_HELFSTEIN", "ACAO": "REALIZAR_PRIMEIRA_VISITA_POTENCIAL", "RAZAO_SOCIAL": "GILBERTO_MAGNO", "ENDERECO": "RUA_ALFREDO_ANDRE_44_SANTO_AMARO_SAO_PAULO_BRASIL", "CIDADE": "SAO_PAULO", "LATITUDE": -23.6464916, "LONGITUDE": -46.7092239 }, "geometry": { "type": "Point", "coordinates": [ -46.7092239, -23.6464916 ] } },
{ "type": "Feature", "properties": { "CNPJ": 43402646000108, "AGENTE": "MARIA_INES_HELFSTEIN", "ACAO": "REALIZAR_PRIMEIRA_VISITA_POTENCIAL", "RAZAO_SOCIAL": "SERGIO_DOS_SANTOS_FERREIRA", "ENDERECO": "RUA_TERTULIANO_BRANCO_DE_MIRANDA_220_SANTO_AMARO_SAO_PAULO_BRASIL", "CIDADE": "SAO_PAULO", "LATITUDE": -23.6467352, "LONGITUDE": -46.7195314 }, "geometry": { "type": "Point", "coordinates": [ -46.7195314, -23.6467352 ] } },
{ "type": "Feature", "properties": { "CNPJ": 52481187000196, "AGENTE": "MARIA_INES_HELFSTEIN", "ACAO": "REALIZAR_PRIMEIRA_VISITA_POTENCIAL", "RAZAO_SOCIAL": "ANTONIO_GUSTAVO_ELIAS_AGAPPITO", "ENDERECO": "PRACA_DOUTOR_FRANCISCO_FERREIRA_LOPES_759_SANTO_AMARO_SAO_PAULO_BRASIL", "CIDADE": "SAO_PAULO", "LATITUDE": -23.6470407, "LONGITUDE": -46.7086271 }, "geometry": { "type": "Point", "coordinates": [ -46.7086271, -23.6470407 ] } },
{ "type": "Feature", "properties": { "CNPJ": 5626619700016, "AGENTE": "MARIA_INES_HELFSTEIN", "ACAO": "REALIZAR_PRIMEIRA_VISITA_POTENCIAL", "RAZAO_SOCIAL": "56.266.197_ROMARIO_SOUZA_SILVA", "ENDERECO": "RUA_TENENTE-CORONEL_CARLOS_DA_SILVA_ARAUJO_361_SANTO_AMARO_SAO_PAULO_BRASIL", "CIDADE": "SAO_PAULO", "LATITUDE": -23.6474146, "LONGITUDE": -46.7085896 }, "geometry": { "type": "Point", "coordinates": [ -46.7085896, -23.6474146 ] } },
{ "type": "Feature", "properties": { "CNPJ": 13534079000182, "AGENTE": "MARIA_INES_HELFSTEIN", "ACAO": "REALIZAR_PRIMEIRA_VISITA_POTENCIAL", "RAZAO_SOCIAL": "BOLOS_VANESSA_LTDA", "ENDERECO": "RUA_VIGARIO_TAQUES_BITENCOURT_273_SANTO_AMARO_SAO_PAULO_BRASIL", "CIDADE": "SAO_PAULO", "LATITUDE": -23.6475231, "LONGITUDE": -46.7144687 }, "geometry": { "type": "Point", "coordinates": [ -46.7144687, -23.6475231 ] } },
{ "type": "Feature", "properties": { "CNPJ": 40846431000198, "AGENTE": "MARIA_INES_HELFSTEIN", "ACAO": "REALIZAR_PRIMEIRA_VISITA_POTENCIAL", "RAZAO_SOCIAL": "GRUPO_GC3_COMERCIO_E_SERVICO_LTDA", "ENDERECO": "RUA_PROF_RENATO_BRAGA_70_SANTO_AMARO_SAO_PAULO_BRASIL", "CIDADE": "SAO_PAULO", "LATITUDE": -23.6477667, "LONGITUDE": -46.7154037 }, "geometry": { "type": "Point", "coordinates": [ -46.7154037, -23.6477667 ] } },
{ "type": "Feature", "properties": { "CNPJ": 527685810001, "AGENTE": "MARIA_INES_HELFSTEIN", "ACAO": "REALIZAR_PRIMEIRA_VISITA_POTENCIAL", "RAZAO_SOCIAL": "MARCELA_KARINA_DIAS_IBRAHIM", "ENDERECO": "RUA_BARAO_DO_RIO_BRANCO_792_BAIXADA_AVAI_BRASIL", "CIDADE": "AVAI", "LATITUDE": -23.6479894, "LONGITUDE": -46.7100487 }, "geometry": { "type": "Point", "coordinates": [ -46.7100487, -23.6479894 ] } },
{ "type": "Feature", "properties": { "CNPJ": 483287450001, "AGENTE": "MARIA_INES_HELFSTEIN", "ACAO": "REALIZAR_PRIMEIRA_VISITA_POTENCIAL", "RAZAO_SOCIAL": "ARIEL_DEL_TEDESCO_HOVING_MARIA", "ENDERECO": "RUA_ADA_NEGRI_510_SANTO_AMARO_SAO_PAULO_BRASIL", "CIDADE": "SAO_PAULO", "LATITUDE": -23.6483821, "LONGITUDE": -46.7144855 }, "geometry": { "type": "Point", "coordinates": [ -46.7144855, -23.6483821 ] } },
{ "type": "Feature", "properties": { "CNPJ": 1476361200014, "AGENTE": "MARIA_INES_HELFSTEIN", "ACAO": "REALIZAR_PRIMEIRA_VISITA_POTENCIAL", "RAZAO_SOCIAL": "D_M_PEREIRA_BAPTISTA_ZANINI", "ENDERECO": "RUA_APOLONIO_DE_TIANA_501_JARDIM_DUPRAT_SAO_PAULO_BRASIL", "CIDADE": "SAO_PAULO", "LATITUDE": -23.6484695, "LONGITUDE": -46.7090086 }, "geometry": { "type": "Point", "coordinates": [ -46.7090086, -23.6484695 ] } },
{ "type": "Feature", "properties": { "CNPJ": 5307798500011, "AGENTE": "MARIA_INES_HELFSTEIN", "ACAO": "REALIZAR_PRIMEIRA_VISITA_POTENCIAL", "RAZAO_SOCIAL": "53.077.985_MARIA_ROSIMERE_DA_SILVA_SANTANA", "ENDERECO": "RUA_FRANCISCO_ARVANI_243_SANTO_AMARO_SAO_PAULO_BRASIL", "CIDADE": "SAO_PAULO", "LATITUDE": -23.6493193, "LONGITUDE": -46.7140564 }, "geometry": { "type": "Point", "coordinates": [ -46.7140564, -23.6493193 ] } },
{ "type": "Feature", "properties": { "CNPJ": 7749270000149, "AGENTE": "MARIA_INES_HELFSTEIN", "ACAO": "REALIZAR_PRIMEIRA_VISITA_POTENCIAL", "RAZAO_SOCIAL": "SAI_-_ENTREGAS_EXPRESSAS_LTDA", "ENDERECO": "RUA_ADA_NEGRI_42_SANTO_AMARO_SAO_PAULO_BRASIL", "CIDADE": "SAO_PAULO", "LATITUDE": -23.6495385, "LONGITUDE": -46.7095685 }, "geometry": { "type": "Point", "coordinates": [ -46.7095685, -23.6495385 ] } },
{ "type": "Feature", "properties": { "CNPJ": 44980177000177, "AGENTE": "MARIA_INES_HELFSTEIN", "ACAO": "REALIZAR_PRIMEIRA_VISITA_POTENCIAL", "RAZAO_SOCIAL": "NMC_PERFUMES_E_COSMETICOS_LTDA", "ENDERECO": "AVENIDA_ADOLFO_PINHEIRO_384_SANTO_AMARO_SAO_PAULO_BRASIL", "CIDADE": "SAO_PAULO", "LATITUDE": -23.6496148, "LONGITUDE": -46.703411 }, "geometry": { "type": "Point", "coordinates": [ -46.703411, -23.6496148 ] } },
{ "type": "Feature", "properties": { "CNPJ": 3257139300018, "AGENTE": "MARIA_INES_HELFSTEIN", "ACAO": "REALIZAR_PRIMEIRA_VISITA_POTENCIAL", "RAZAO_SOCIAL": "ANA_PAULA_SANTOS_FALZONI_33575132852", "ENDERECO": "AVENIDA_CARLOS_KLEIN_180_SOCORRO_SAO_PAULO_BRASIL", "CIDADE": "SAO_PAULO", "LATITUDE": -23.6683997, "LONGITUDE": -46.7116787 }, "geometry": { "type": "Point", "coordinates": [ -46.7116787, -23.6683997 ] } },
{ "type": "Feature", "properties": { "CNPJ": 31867281000108, "AGENTE": "MARIA_INES_HELFSTEIN", "ACAO": "REALIZAR_PRIMEIRA_VISITA_POTENCIAL", "RAZAO_SOCIAL": "SILVANA_DE_SOUZA_GODOI_18472317803", "ENDERECO": "RUA_MOACIR_PADILHA_16_JURUBATUBA_SAO_PAULO_BRASIL", "CIDADE": "SAO_PAULO", "LATITUDE": -23.6689738, "LONGITUDE": -46.7037586 }, "geometry": { "type": "Point", "coordinates": [ -46.7037586, -23.6689738 ] } },
{ "type": "Feature", "properties": { "CNPJ": 39431740000118, "AGENTE": "MARIA_INES_HELFSTEIN", "ACAO": "REALIZAR_PRIMEIRA_VISITA_POTENCIAL", "RAZAO_SOCIAL": "PIERO_TEIXEIRA_PIERETTO", "ENDERECO": "RUA_AMARO_LUZ_192_SOCORRO_SAO_PAULO_BRASIL", "CIDADE": "ITU", "LATITUDE": -23.6693842, "LONGITUDE": -46.7128765 }, "geometry": { "type": "Point", "coordinates": [ -46.7128765, -23.6693842 ] } },
{ "type": "Feature", "properties": { "CNPJ": 26287880001, "AGENTE": "MARIA_INES_HELFSTEIN", "ACAO": "REALIZAR_PRIMEIRA_VISITA_POTENCIAL", "RAZAO_SOCIAL": "ALPHABYTE_INFORMATICA_LTDA", "ENDERECO": "RUA_FRANCISCO_VELOSO_DA_SILVA_38_SOCORRO_SAO_PAULO_BRASIL", "CIDADE": "SAO_PAULO", "LATITUDE": -23.6698391, "LONGITUDE": -46.7200436 }, "geometry": { "type": "Point", "coordinates": [ -46.7200436, -23.6698391 ] } },
{ "type": "Feature", "properties": { "CNPJ": 5687756800014, "AGENTE": "MARIA_INES_HELFSTEIN", "ACAO": "REALIZAR_PRIMEIRA_VISITA_POTENCIAL", "RAZAO_SOCIAL": "R_MACEDO_LTDA", "ENDERECO": "RUA_FRANCISCO_MENDES_367_SOCORRO_SAO_PAULO_BRASIL", "CIDADE": "SAO_PAULO", "LATITUDE": -23.6703543, "LONGITUDE": -46.7094206 }, "geometry": { "type": "Point", "coordinates": [ -46.7094206, -23.6703543 ] } },
{ "type": "Feature", "properties": { "CNPJ": 55914595000182, "AGENTE": "MARIA_INES_HELFSTEIN", "ACAO": "REALIZAR_PRIMEIRA_VISITA_POTENCIAL", "RAZAO_SOCIAL": "SJE_ENGENHARIA_E_ADMINISTRACAO_LTDA", "ENDERECO": "RUA_AIMORES_80_SOCORRO_SAO_PAULO_BRASIL", "CIDADE": "SAO_PAULO", "LATITUDE": -23.6708748, "LONGITUDE": -46.717757 }, "geometry": { "type": "Point", "coordinates": [ -46.717757, -23.6708748 ] } },
{ "type": "Feature", "properties": { "CNPJ": 22465266000142, "AGENTE": "MARIA_INES_HELFSTEIN", "ACAO": "REALIZAR_PRIMEIRA_VISITA_POTENCIAL", "RAZAO_SOCIAL": "22.465.266_PRISCILA_RAMALHO_ALVES_YAMAMOTO", "ENDERECO": "RUA_TAPUIAS_120_SOCORRO_SAO_PAULO_BRASIL", "CIDADE": "SAO_PAULO", "LATITUDE": -23.6710607, "LONGITUDE": -46.716822 }, "geometry": { "type": "Point", "coordinates": [ -46.716822, -23.6710607 ] } },
{ "type": "Feature", "properties": { "CNPJ": 21074474000158, "AGENTE": "MARIA_INES_HELFSTEIN", "ACAO": "REALIZAR_PRIMEIRA_VISITA_POTENCIAL", "RAZAO_SOCIAL": "SOLUTRATER_PECAS_E_SERVICOS_LTDA", "ENDERECO": "RUA_DOS_INOCENTES_562_SOCORRO_SAO_PAULO_BRASIL", "CIDADE": "SAO_PAULO", "LATITUDE": -23.6735667, "LONGITUDE": -46.7104833 }, "geometry": { "type": "Point", "coordinates": [ -46.7104833, -23.6735667 ] } },
{ "type": "Feature", "properties": { "CNPJ": 29053516000186, "AGENTE": "MARIA_INES_HELFSTEIN", "ACAO": "REALIZAR_PRIMEIRA_VISITA_POTENCIAL", "RAZAO_SOCIAL": "29.053.516_LUIZ_CARLOS_JOSE_RODRIGUES_FILHO", "ENDERECO": "RUA_DOUTOR_MAURO_PAES_DE_ALMEIDA_591_SOCORRO_SAO_PAULO_BRASIL", "CIDADE": "SAO_PAULO", "LATITUDE": -23.6744499, "LONGITUDE": -46.7138581 }, "geometry": { "type": "Point", "coordinates": [ -46.7138581, -23.6744499 ] } },
{ "type": "Feature", "properties": { "CNPJ": 50965914000165, "AGENTE": "MARIA_INES_HELFSTEIN", "ACAO": "REALIZAR_PRIMEIRA_VISITA_POTENCIAL", "RAZAO_SOCIAL": "50.965.914_BEATRIZ_DA_CONCEICAO_LEME", "ENDERECO": "RUA_DOUTOR_EURIPEDES_MILANO_139_JARDIM_GUARAPIRANGA_SAO_PAULO_BRASIL", "CIDADE": "SAO_PAULO", "LATITUDE": -23.6790423, "LONGITUDE": -46.7166376 }, "geometry": { "type": "Point", "coordinates": [ -46.7166376, -23.6790423 ] } },
{ "type": "Feature", "properties": { "CNPJ": 51358336000161, "AGENTE": "MARIA_INES_HELFSTEIN", "ACAO": "REALIZAR_PRIMEIRA_VISITA_POTENCIAL", "RAZAO_SOCIAL": "ALINE_PATRICIA_DA_SILVA", "ENDERECO": "RUA_DAS_PAINEIRAS_53_JARDIM_DOS_LAGOS_SAO_PAULO_BRASIL", "CIDADE": "SAO_PAULO", "LATITUDE": -23.6794284, "LONGITUDE": -46.712318 }, "geometry": { "type": "Point", "coordinates": [ -46.712318, -23.6794284 ] } },
{ "type": "Feature", "properties": { "CNPJ": 58848848000155, "AGENTE": "MARIA_INES_HELFSTEIN", "ACAO": "REALIZAR_PRIMEIRA_VISITA_POTENCIAL", "RAZAO_SOCIAL": "58.848.848_THIAGO_OLIVEIRA_DA_COSTA", "ENDERECO": "AVENIDA_LEBLON_106_JARDIM_DOS_LAGOS_SAO_PAULO_BRASIL", "CIDADE": "SAO_PAULO", "LATITUDE": -23.679577, "LONGITUDE": -46.710655 }, "geometry": { "type": "Point", "coordinates": [ -46.710655, -23.679577 ] } },
{ "type": "Feature", "properties": { "CNPJ": 41092090000175, "AGENTE": "MARIA_INES_HELFSTEIN", "ACAO": "REALIZAR_PRIMEIRA_VISITA_POTENCIAL", "RAZAO_SOCIAL": "CL_CUSTOMIZACAO_E_ASSISTENCIA_TECNICA_LTDA", "ENDERECO": "RUA_DAS_PAINEIRAS_115_JARDIM_DOS_LAGOS_SAO_PAULO_BRASIL", "CIDADE": "SAO_PAULO", "LATITUDE": -23.6800062, "LONGITUDE": -46.7121654 }, "geometry": { "type": "Point", "coordinates": [ -46.7121654, -23.6800062 ] } },
{ "type": "Feature", "properties": { "CNPJ": 10203319000178, "AGENTE": "MARIA_INES_HELFSTEIN", "ACAO": "REALIZAR_PRIMEIRA_VISITA_POTENCIAL", "RAZAO_SOCIAL": "TIPO_COMERCIO_DE_FAIXAS_E_BANNERS_LTDA", "ENDERECO": "RUA_EDSON_REGIS_90_JARDIM_GUARAPIRANGA_SAO_PAULO_BRASIL", "CIDADE": "SAO_PAULO", "LATITUDE": -23.6800721, "LONGITUDE": -46.7140545 }, "geometry": { "type": "Point", "coordinates": [ -46.7140545, -23.6800721 ] } },
{ "type": "Feature", "properties": { "CNPJ": 31256277000103, "AGENTE": "MARIA_INES_HELFSTEIN", "ACAO": "REALIZAR_PRIMEIRA_VISITA_POTENCIAL", "RAZAO_SOCIAL": "RAFAEL_WATANABE_31889318833", "ENDERECO": "RUA_GABRIEL_DA_FONSECA_183_VELEIROS_SAO_PAULO_BRASIL", "CIDADE": "SAO_PAULO", "LATITUDE": -23.6802752, "LONGITUDE": -46.7098208 }, "geometry": { "type": "Point", "coordinates": [ -46.7098208, -23.6802752 ] } },
{ "type": "Feature", "properties": { "CNPJ": 28079285000117, "AGENTE": "MARIA_INES_HELFSTEIN", "ACAO": "REALIZAR_PRIMEIRA_VISITA_POTENCIAL", "RAZAO_SOCIAL": "JOANA_DE_FATIMA_VIEIRA_RIBEIRO_DO_VALLE", "ENDERECO": "RUA_CANES_99_VELEIROS_SAO_PAULO_BRASIL", "CIDADE": "SAO_PAULO", "LATITUDE": -23.6807842, "LONGITUDE": -46.7065428 }, "geometry": { "type": "Point", "coordinates": [ -46.7065428, -23.6807842 ] } },
{ "type": "Feature", "properties": { "CNPJ": 48943337000169, "AGENTE": "MARIA_INES_HELFSTEIN", "ACAO": "REALIZAR_PRIMEIRA_VISITA_POTENCIAL", "RAZAO_SOCIAL": "PIZZARIA_LEVITTA_COMERCIAL_LTDA", "ENDERECO": "AVENIDA_IPANEMA_179_VELEIROS_SAO_PAULO_BRASIL", "CIDADE": "SAO_PAULO", "LATITUDE": -23.6813535, "LONGITUDE": -46.7073208 }, "geometry": { "type": "Point", "coordinates": [ -46.7073208, -23.6813535 ] } },
{ "type": "Feature", "properties": { "CNPJ": 38710811000159, "AGENTE": "MARIA_INES_HELFSTEIN", "ACAO": "REALIZAR_PRIMEIRA_VISITA_POTENCIAL", "RAZAO_SOCIAL": "38.710.811_FERNANDO_GONCALVES_DA_COSTA", "ENDERECO": "RUA_ADAO_ROCUMBACK_50A_VELEIROS_SAO_PAULO_BRASIL", "CIDADE": "SAO_PAULO", "LATITUDE": -23.6815063, "LONGITUDE": -46.7084397 }, "geometry": { "type": "Point", "coordinates": [ -46.7084397, -23.6815063 ] } },
{ "type": "Feature", "properties": { "CNPJ": 24722703000191, "AGENTE": "MARIA_INES_HELFSTEIN", "ACAO": "REALIZAR_PRIMEIRA_VISITA_POTENCIAL", "RAZAO_SOCIAL": "24.722.703_RENATA_MARIA_BERGO", "ENDERECO": "RUA_DAS_PAINEIRAS_303_JARDIM_DOS_LAGOS_SAO_PAULO_BRASIL", "CIDADE": "SAO_PAULO", "LATITUDE": -23.6817823, "LONGITUDE": -46.7119515 }, "geometry": { "type": "Point", "coordinates": [ -46.7119515, -23.6817823 ] } },
{ "type": "Feature", "properties": { "CNPJ": 57365778000111, "AGENTE": "MARIA_INES_HELFSTEIN", "ACAO": "REALIZAR_PRIMEIRA_VISITA_POTENCIAL", "RAZAO_SOCIAL": "57.365.778_BRUNO_RODRIGUES_DA_SILVA", "ENDERECO": "RUA_PROFESSOR_OSWALDO_QUIRINO_SIMOES_307_VILA_CALIFORNIA(ZONA_SUL)_SAO_PAULO_BRASIL", "CIDADE": "SAO_PAULO", "LATITUDE": -23.6819438, "LONGITUDE": -46.7023913 }, "geometry": { "type": "Point", "coordinates": [ -46.7023913, -23.6819438 ] } },
{ "type": "Feature", "properties": { "CNPJ": 49149897000109, "AGENTE": "MARIA_INES_HELFSTEIN", "ACAO": "REALIZAR_PRIMEIRA_VISITA_POTENCIAL", "RAZAO_SOCIAL": "49.149.897_DAVID_FERRAZ_SILVA", "ENDERECO": "RUA_ARNOLDO_FELMANAS_72_VELEIROS_SAO_PAULO_BRASIL", "CIDADE": "SAO_PAULO", "LATITUDE": -23.6827443, "LONGITUDE": -46.7048684 }, "geometry": { "type": "Point", "coordinates": [ -46.7048684, -23.6827443 ] } },
{ "type": "Feature", "properties": { "CNPJ": 4515702700012, "AGENTE": "MARIA_INES_HELFSTEIN", "ACAO": "REALIZAR_PRIMEIRA_VISITA_POTENCIAL", "RAZAO_SOCIAL": "PATRIOT_FACILITIES_SOLUCOES_INTEGRADAS_LTDA", "ENDERECO": "RUA_ARNOLDO_FELMANAS_72_VELEIROS_SAO_PAULO_BRASIL", "CIDADE": "SAO_PAULO", "LATITUDE": -23.6827443, "LONGITUDE": -46.7048684 }, "geometry": { "type": "Point", "coordinates": [ -46.7048684, -23.6827443 ] } },
{ "type": "Feature", "properties": { "CNPJ": 4273699200016, "AGENTE": "MARIA_INES_HELFSTEIN", "ACAO": "REALIZAR_PRIMEIRA_VISITA_POTENCIAL", "RAZAO_SOCIAL": "CLINICA_ODONTOLOGICA_CALIFORNIA_LTDA", "ENDERECO": "RUA_JOAO_DE_PAULA_FRANCO_965_JARDIM_MARABA(ZONA_SUL)_SAO_PAULO_BRASIL", "CIDADE": "SAO_PAULO", "LATITUDE": -23.6836154, "LONGITUDE": -46.7030482 }, "geometry": { "type": "Point", "coordinates": [ -46.7030482, -23.6836154 ] } },
{ "type": "Feature", "properties": { "CNPJ": 18523841000149, "AGENTE": "MARIA_INES_HELFSTEIN", "ACAO": "REALIZAR_PRIMEIRA_VISITA_POTENCIAL", "RAZAO_SOCIAL": "EGIDIO_DE_OLIVEIRA_LEITE", "ENDERECO": "RUA_TASMANIA_92_JARDIM_TRES_MARIAS_SAO_PAULO_BRASIL", "CIDADE": "SAO_PAULO", "LATITUDE": -23.684006, "LONGITUDE": -46.715232 }, "geometry": { "type": "Point", "coordinates": [ -46.715232, -23.684006 ] } },
{ "type": "Feature", "properties": { "CNPJ": 596949400013, "AGENTE": "MARIA_INES_HELFSTEIN", "ACAO": "REALIZAR_PRIMEIRA_VISITA_POTENCIAL", "RAZAO_SOCIAL": "CERAPURA_INDUSTRIA_E_COMERCIO_LTDA", "ENDERECO": "AVENIDA_LEBLON_695_JARDIM_DOS_LAGOS_SAO_PAULO_BRASIL", "CIDADE": "SAO_PAULO", "LATITUDE": -23.6841634, "LONGITUDE": -46.7093153 }, "geometry": { "type": "Point", "coordinates": [ -46.7093153, -23.6841634 ] } },
{ "type": "Feature", "properties": { "CNPJ": 28020415000146, "AGENTE": "MARIA_INES_HELFSTEIN", "ACAO": "REALIZAR_PRIMEIRA_VISITA_POTENCIAL", "RAZAO_SOCIAL": "MARIANA_VALMINITROIS", "ENDERECO": "AVENIDA_DOS_LAGOS_592_VELEIROS_SAO_PAULO_BRASIL", "CIDADE": "SAO_PAULO", "LATITUDE": -23.6849704, "LONGITUDE": -46.70996 }, "geometry": { "type": "Point", "coordinates": [ -46.70996, -23.6849704 ] } },
{ "type": "Feature", "properties": { "CNPJ": 28708612000152, "AGENTE": "MARIA_INES_HELFSTEIN", "ACAO": "REALIZAR_PRIMEIRA_VISITA_POTENCIAL", "RAZAO_SOCIAL": "28.708.612_ALLAN_PAPAROTTI", "ENDERECO": "RUA_GUAIRAPE_148_JARDIM_SANTOS_DUMONT_SAO_PAULO_BRASIL", "CIDADE": "SAO_PAULO", "LATITUDE": -23.6854504, "LONGITUDE": -46.7145702 }, "geometry": { "type": "Point", "coordinates": [ -46.7145702, -23.6854504 ] } },
{ "type": "Feature", "properties": { "CNPJ": 32208915000183, "AGENTE": "MARIA_INES_HELFSTEIN", "ACAO": "REALIZAR_PRIMEIRA_VISITA_POTENCIAL", "RAZAO_SOCIAL": "VACERLAN_ALVES_DE_ARAUJO", "ENDERECO": "AVENIDA_IPANEMA_843_VELEIROS_SAO_PAULO_BRASIL", "CIDADE": "SAO_PAULO", "LATITUDE": -23.6856878, "LONGITUDE": -46.7119043 }, "geometry": { "type": "Point", "coordinates": [ -46.7119043, -23.6856878 ] } },
{ "type": "Feature", "properties": { "CNPJ": 59239575000104, "AGENTE": "MARIA_INES_HELFSTEIN", "ACAO": "REALIZAR_PRIMEIRA_VISITA_POTENCIAL", "RAZAO_SOCIAL": "59.239.575_VIVIANE_DOS_SANTOS_OLIVEIRA_PIMENTEL", "ENDERECO": "AVENIDA_DOUTOR_LUIS_ARROBAS_MARTINS_667_CAPELA_DO_SOCORRO_SAO_PAULO_BRASIL", "CIDADE": "SAO_PAULO", "LATITUDE": -23.6859736, "LONGITUDE": -46.7082324 }, "geometry": { "type": "Point", "coordinates": [ -46.7082324, -23.6859736 ] } },
{ "type": "Feature", "properties": { "CNPJ": 13407525000198, "AGENTE": "MARIA_INES_HELFSTEIN", "ACAO": "REALIZAR_PRIMEIRA_VISITA_POTENCIAL", "RAZAO_SOCIAL": "SNET_SISTEMAS_E_SOLUCOES_EM_TI_LTDA", "ENDERECO": "RUA_ANTONIO_MARIANO_50_JARDIM_IPANEMA_(ZONA_SUL)_SAO_PAULO_BRASIL", "CIDADE": "SAO_PAULO", "LATITUDE": -23.6874664, "LONGITUDE": -46.7067418 }, "geometry": { "type": "Point", "coordinates": [ -46.7067418, -23.6874664 ] } },
{ "type": "Feature", "properties": { "CNPJ": 56285508000138, "AGENTE": "MARIA_INES_HELFSTEIN", "ACAO": "REALIZAR_PRIMEIRA_VISITA_POTENCIAL", "RAZAO_SOCIAL": "ALEGABISMOR_CONSULTORIA_E_ASSESSORIA_LTDA", "ENDERECO": "RUA_ANTONIO_MARIANO_368_JARDIM_IPANEMA_(ZONA_SUL)_SAO_PAULO_BRASIL", "CIDADE": "SAO_PAULO", "LATITUDE": -23.6894922, "LONGITUDE": -46.7089313 }, "geometry": { "type": "Point", "coordinates": [ -46.7089313, -23.6894922 ] } },
{ "type": "Feature", "properties": { "CNPJ": 830738800018, "AGENTE": "MARIA_INES_HELFSTEIN", "ACAO": "REALIZAR_PRIMEIRA_VISITA_POTENCIAL", "RAZAO_SOCIAL": "J.A._LOPES_-_LANCHONETE", "ENDERECO": "RUA_MICHEL_JULIEN_60_JARDIM_PAQUETA_(ZONA_SUL)_SAO_PAULO_BRASIL", "CIDADE": "SAO_PAULO", "LATITUDE": -23.6899169, "LONGITUDE": -46.706477 }, "geometry": { "type": "Point", "coordinates": [ -46.706477, -23.6899169 ] } },
{ "type": "Feature", "properties": { "CNPJ": 6974838000162, "AGENTE": "MARIA_INES_HELFSTEIN", "ACAO": "REALIZAR_PRIMEIRA_VISITA_POTENCIAL", "RAZAO_SOCIAL": "MARIAH_RITA_ESTETICA_E_BELEZA_LTDA", "ENDERECO": "AVENIDA_INACIO_CUNHA_LEME_37_JARDIM_IPANEMA_(ZONA_SUL)_SAO_PAULO_BRASIL", "CIDADE": "SAO_PAULO", "LATITUDE": -23.6900521, "LONGITUDE": -46.7134087 }, "geometry": { "type": "Point", "coordinates": [ -46.7134087, -23.6900521 ] } },
{ "type": "Feature", "properties": { "CNPJ": 17797877000158, "AGENTE": "MARIA_INES_HELFSTEIN", "ACAO": "REALIZAR_PRIMEIRA_VISITA_POTENCIAL", "RAZAO_SOCIAL": "MARINA_EGAWA", "ENDERECO": "AVENIDA_DANTON_JOBIM_-_DE_679/680_AO_FIM_1033_CAPELA_DO_SOCORRO_SAO_PAULO_BRASIL", "CIDADE": "SAO_PAULO", "LATITUDE": -23.6902856, "LONGITUDE": -46.7028632 }, "geometry": { "type": "Point", "coordinates": [ -46.7028632, -23.6902856 ] } },
{ "type": "Feature", "properties": { "CNPJ": 44316796000161, "AGENTE": "MARIA_INES_HELFSTEIN", "ACAO": "REALIZAR_PRIMEIRA_VISITA_POTENCIAL", "RAZAO_SOCIAL": "44.316.796_FABIO_LIMA_DE_SIQUEIRA", "ENDERECO": "RUA_BENTO_RODRIGUES_BASTOS_210_CAPELA_DO_SOCORRO_SAO_PAULO_BRASIL", "CIDADE": "SAO_PAULO", "LATITUDE": -23.6909941, "LONGITUDE": -46.7035501 }, "geometry": { "type": "Point", "coordinates": [ -46.7035501, -23.6909941 ] } },
{ "type": "Feature", "properties": { "CNPJ": 69250520000159, "AGENTE": "MARIA_INES_HELFSTEIN", "ACAO": "REALIZAR_PRIMEIRA_VISITA_POTENCIAL", "RAZAO_SOCIAL": "MERCADO_MARUMBI_LTDA", "ENDERECO": "RUA_BENTO_RODRIGUES_BASTOS_280_CAPELA_DO_SOCORRO_SAO_PAULO_BRASIL", "CIDADE": "SAO_PAULO", "LATITUDE": -23.691085, "LONGITUDE": -46.7041749 }, "geometry": { "type": "Point", "coordinates": [ -46.7041749, -23.691085 ] } },
{ "type": "Feature", "properties": { "CNPJ": 54543310000181, "AGENTE": "MARIA_INES_HELFSTEIN", "ACAO": "REALIZAR_PRIMEIRA_VISITA_POTENCIAL", "RAZAO_SOCIAL": "BELUGA_PIZZA_&_CHOPE_ARTESANAL", "ENDERECO": "RUA_ERMELINDA_MELETTI_TELDESCHI_13_JARDIM_GUARAPIRANGA_SAO_PAULO_BRASIL", "CIDADE": "SAO_PAULO", "LATITUDE": -23.6910918, "LONGITUDE": -46.7083955 }, "geometry": { "type": "Point", "coordinates": [ -46.7083955, -23.6910918 ] } },
{ "type": "Feature", "properties": { "CNPJ": 44221842000149, "AGENTE": "MARIA_INES_HELFSTEIN", "ACAO": "REALIZAR_PRIMEIRA_VISITA_POTENCIAL", "RAZAO_SOCIAL": "EDITORA_DOIS_VERSOS_LTDA", "ENDERECO": "RUA_PEDRO_FRAZAO_DE_BRITO_133_JARDIM_IPANEMA_(ZONA_SUL)_SAO_PAULO_BRASIL", "CIDADE": "SAO_PAULO", "LATITUDE": -23.6915704, "LONGITUDE": -46.7119772 }, "geometry": { "type": "Point", "coordinates": [ -46.7119772, -23.6915704 ] } },
{ "type": "Feature", "properties": { "CNPJ": 45517222000114, "AGENTE": "MARIA_INES_HELFSTEIN", "ACAO": "REALIZAR_PRIMEIRA_VISITA_POTENCIAL", "RAZAO_SOCIAL": "GILBERTO_CORREIA_DE_ARAUJO", "ENDERECO": "AVENIDA_PASCOAL_DA_ROCHA_FALCAO_652_JARDIM_SANTA_HELENA_SAO_PAULO_BRASIL", "CIDADE": "SAO_PAULO", "LATITUDE": -23.6923615, "LONGITUDE": -46.713877 }, "geometry": { "type": "Point", "coordinates": [ -46.713877, -23.6923615 ] } },
{ "type": "Feature", "properties": { "CNPJ": 57474088000109, "AGENTE": "MARIA_INES_HELFSTEIN", "ACAO": "REALIZAR_PRIMEIRA_VISITA_POTENCIAL", "RAZAO_SOCIAL": "DARI_LANCHES_LTDA", "ENDERECO": "RUA_JOAQUIM_TELES_DE_MATTOS_S/N_JARDIM_SANTA_HELENA_SAO_PAULO_BRASIL", "CIDADE": "SAO_PAULO", "LATITUDE": -23.698006, "LONGITUDE": -46.7134274 }, "geometry": { "type": "Point", "coordinates": [ -46.7134274, -23.698006 ] } },
{ "type": "Feature", "properties": { "CNPJ": 28403658000163, "AGENTE": "MARIA_INES_HELFSTEIN", "ACAO": "REALIZAR_PRIMEIRA_VISITA_POTENCIAL", "RAZAO_SOCIAL": "LOES_SAUDE_E_BELEZA_LTDA", "ENDERECO": "RUA_ASTOLFO_VIEIRA_DE_REZENDE_47_INTERLAGOS_SAO_PAULO_BRASIL", "CIDADE": "SAO_PAULO", "LATITUDE": -23.7046686, "LONGITUDE": -46.6866252 }, "geometry": { "type": "Point", "coordinates": [ -46.6866252, -23.7046686 ] } },
{ "type": "Feature", "properties": { "CNPJ": 54180781000172, "AGENTE": "MARIA_INES_HELFSTEIN", "ACAO": "REALIZAR_PRIMEIRA_VISITA_POTENCIAL", "RAZAO_SOCIAL": "BAR_E_LANCHES_STOC-CAR_LTDA", "ENDERECO": "AVENIDA_SEN_TEOTONIO_VILELA_300_CAPELA_DO_SOCORRO_SAO_PAULO_BRASIL", "CIDADE": "SAO_PAULO", "LATITUDE": -23.7047258, "LONGITUDE": -46.7009098 }, "geometry": { "type": "Point", "coordinates": [ -46.7009098, -23.7047258 ] } },
{ "type": "Feature", "properties": { "CNPJ": 44697161000151, "AGENTE": "MARIA_INES_HELFSTEIN", "ACAO": "REALIZAR_PRIMEIRA_VISITA_POTENCIAL", "RAZAO_SOCIAL": "ISAIAS_ARAUJO_DE_SOUZA", "ENDERECO": "RUA_RICARDO_MORETTI_92_INTERLAGOS_SAO_PAULO_BRASIL", "CIDADE": "SAO_PAULO", "LATITUDE": -23.70501, "LONGITUDE": -46.6906012 }, "geometry": { "type": "Point", "coordinates": [ -46.6906012, -23.70501 ] } },
{ "type": "Feature", "properties": { "CNPJ": 20298151000185, "AGENTE": "MARIA_INES_HELFSTEIN", "ACAO": "REALIZAR_PRIMEIRA_VISITA_POTENCIAL", "RAZAO_SOCIAL": "JN_MINIMERCADO_LTDA", "ENDERECO": "RUA_ARMANDO_VIEIRA_474_JARDIM_QUARTO_CENTENARIO_SAO_PAULO_BRASIL", "CIDADE": "SAO_PAULO", "LATITUDE": -23.7056537, "LONGITUDE": -46.686163 }, "geometry": { "type": "Point", "coordinates": [ -46.686163, -23.7056537 ] } },
{ "type": "Feature", "properties": { "CNPJ": 23012854000193, "AGENTE": "MARIA_INES_HELFSTEIN", "ACAO": "REALIZAR_PRIMEIRA_VISITA_POTENCIAL", "RAZAO_SOCIAL": "EDNO_GALDINO_DA_SILVA", "ENDERECO": "RUA_FRANCISCO_CREDENTINO_204_JARDIM_SATELITE_SAO_PAULO_BRASIL", "CIDADE": "SAO_PAULO", "LATITUDE": -23.7056599, "LONGITUDE": -46.6931933 }, "geometry": { "type": "Point", "coordinates": [ -46.6931933, -23.7056599 ] } },
{ "type": "Feature", "properties": { "CNPJ": 507504920001, "AGENTE": "MARIA_INES_HELFSTEIN", "ACAO": "REALIZAR_PRIMEIRA_VISITA_POTENCIAL", "RAZAO_SOCIAL": "50.750.492_MARIO_AUGUSTO_GUSMAO_MACEDO", "ENDERECO": "RUA_ARMANDO_VIEIRA_272_JARDIM_QUARTO_CENTENARIO_SAO_PAULO_BRASIL", "CIDADE": "SAO_PAULO", "LATITUDE": -23.7059424, "LONGITUDE": -46.6867398 }, "geometry": { "type": "Point", "coordinates": [ -46.6867398, -23.7059424 ] } },
{ "type": "Feature", "properties": { "CNPJ": 34789892000173, "AGENTE": "MARIA_INES_HELFSTEIN", "ACAO": "REALIZAR_PRIMEIRA_VISITA_POTENCIAL", "RAZAO_SOCIAL": "RUBIA_PIPOLINI_SANTOS", "ENDERECO": "RUA_DURVAL_DE_MORAIS_199_INTERLAGOS_SAO_PAULO_BRASIL", "CIDADE": "SAO_PAULO", "LATITUDE": -23.7071575, "LONGITUDE": -46.6844331 }, "geometry": { "type": "Point", "coordinates": [ -46.6844331, -23.7071575 ] } },
{ "type": "Feature", "properties": { "CNPJ": 30314717000179, "AGENTE": "MARIA_INES_HELFSTEIN", "ACAO": "REALIZAR_PRIMEIRA_VISITA_POTENCIAL", "RAZAO_SOCIAL": "RONALDO_ANDRADE_DA_SILVA", "ENDERECO": "RUA_JOANA_AVANCINI_PRADO_262_JARDIM_LALLO_SAO_PAULO_BRASIL", "CIDADE": "SAO_PAULO", "LATITUDE": -23.7074188, "LONGITUDE": -46.687331 }, "geometry": { "type": "Point", "coordinates": [ -46.687331, -23.7074188 ] } },
{ "type": "Feature", "properties": { "CNPJ": 14547422000196, "AGENTE": "MARIA_INES_HELFSTEIN", "ACAO": "REALIZAR_PRIMEIRA_VISITA_POTENCIAL", "RAZAO_SOCIAL": "MARIA_DAS_DORES_GOMES_DA_SILVA", "ENDERECO": "RUA_MINISTRO_JUNQUEIRA_AYRES_296_INTERLAGOS_SAO_PAULO_BRASIL", "CIDADE": "SAO_PAULO", "LATITUDE": -23.7075482, "LONGITUDE": -46.6859207 }, "geometry": { "type": "Point", "coordinates": [ -46.6859207, -23.7075482 ] } },
{ "type": "Feature", "properties": { "CNPJ": 97521038000141, "AGENTE": "MARIA_INES_HELFSTEIN", "ACAO": "REALIZAR_PRIMEIRA_VISITA_POTENCIAL", "RAZAO_SOCIAL": "ORION_NETWORKING_COMERCIO_E_SERVICOS_LTDA", "ENDERECO": "RUA_JOAO_CARIANI_18_JARDIM_REGIS_SAO_PAULO_BRASIL", "CIDADE": "SAO_PAULO", "LATITUDE": -23.7077336, "LONGITUDE": -46.6934179 }, "geometry": { "type": "Point", "coordinates": [ -46.6934179, -23.7077336 ] } },
{ "type": "Feature", "properties": { "CNPJ": 21437891000118, "AGENTE": "MARIA_INES_HELFSTEIN", "ACAO": "REALIZAR_PRIMEIRA_VISITA_POTENCIAL", "RAZAO_SOCIAL": "FABIO_ANTONIO_DE_LIMA", "ENDERECO": "RUA_MAXIMILIANO_MARTINEZ_114_JARDIM_LALLO_SAO_PAULO_BRASIL", "CIDADE": "PRAIA_GRANDE", "LATITUDE": -23.7085424, "LONGITUDE": -46.68488 }, "geometry": { "type": "Point", "coordinates": [ -46.68488, -23.7085424 ] } },
{ "type": "Feature", "properties": { "CNPJ": 42742861000195, "AGENTE": "MARIA_INES_HELFSTEIN", "ACAO": "REALIZAR_PRIMEIRA_VISITA_POTENCIAL", "RAZAO_SOCIAL": "LUCIA_DE_KATIA_PAZ_DOS_SANTOS", "ENDERECO": "RUA_MAXIMILIANO_MARTINEZ_81_JARDIM_LALLO_SAO_PAULO_BRASIL", "CIDADE": "SAO_PAULO", "LATITUDE": -23.7088956, "LONGITUDE": -46.6850399 }, "geometry": { "type": "Point", "coordinates": [ -46.6850399, -23.7088956 ] } },
{ "type": "Feature", "properties": { "CNPJ": 21606759000192, "AGENTE": "MARIA_INES_HELFSTEIN", "ACAO": "REALIZAR_PRIMEIRA_VISITA_POTENCIAL", "RAZAO_SOCIAL": "DANIELA_DE_OLIVEIRA_ASSUNCAO", "ENDERECO": "RUA_DIOGO_DE_OLIVEIRA_NEVES_85_JARDIM_NIZIA_SAO_PAULO_BRASIL", "CIDADE": "SAO_PAULO", "LATITUDE": -23.7089538, "LONGITUDE": -46.6988208 }, "geometry": { "type": "Point", "coordinates": [ -46.6988208, -23.7089538 ] } },
{ "type": "Feature", "properties": { "CNPJ": 48461185000168, "AGENTE": "MARIA_INES_HELFSTEIN", "ACAO": "REALIZAR_PRIMEIRA_VISITA_POTENCIAL", "RAZAO_SOCIAL": "CLEBER_LOPES_DOS_SANTOS", "ENDERECO": "RUA_JOSE_ABEL_GALVAO_130_JARDIM_REGIS_SAO_PAULO_BRASIL", "CIDADE": "SAO_PAULO", "LATITUDE": -23.7093251, "LONGITUDE": -46.6910283 }, "geometry": { "type": "Point", "coordinates": [ -46.6910283, -23.7093251 ] } },
{ "type": "Feature", "properties": { "CNPJ": 17200579000139, "AGENTE": "MARIA_INES_HELFSTEIN", "ACAO": "REALIZAR_PRIMEIRA_VISITA_POTENCIAL", "RAZAO_SOCIAL": "THAIS_DIAS_MARTINS", "ENDERECO": "RUA_SETTIMO_GIANNINI_181_JARDIM_LALLO_SAO_PAULO_BRASIL", "CIDADE": "RIBEIRAO_PRETO", "LATITUDE": -23.7099723, "LONGITUDE": -46.6860215 }, "geometry": { "type": "Point", "coordinates": [ -46.6860215, -23.7099723 ] } },
{ "type": "Feature", "properties": { "CNPJ": 43771692000184, "AGENTE": "MARIA_INES_HELFSTEIN", "ACAO": "REALIZAR_PRIMEIRA_VISITA_POTENCIAL", "RAZAO_SOCIAL": "SUELEN_PUCINELLI_SILVEIRA_DE_MORAIS", "ENDERECO": "RUA_ICANHEMA_321_CIDADE_DUTRA_SAO_PAULO_BRASIL", "CIDADE": "SAO_PAULO", "LATITUDE": -23.7101532, "LONGITUDE": -46.6987083 }, "geometry": { "type": "Point", "coordinates": [ -46.6987083, -23.7101532 ] } },
{ "type": "Feature", "properties": { "CNPJ": 30612099000143, "AGENTE": "MARIA_INES_HELFSTEIN", "ACAO": "REALIZAR_PRIMEIRA_VISITA_POTENCIAL", "RAZAO_SOCIAL": "JANINE_DE_SOUZA_SILVA", "ENDERECO": "RUA_GREGORIO_BEZERRA_299_JARDIM_PRIMAVERA_(ZONA_SUL)_SAO_PAULO_BRASIL", "CIDADE": "SAO_PAULO", "LATITUDE": -23.7101778, "LONGITUDE": -46.6879776 }, "geometry": { "type": "Point", "coordinates": [ -46.6879776, -23.7101778 ] } },
{ "type": "Feature", "properties": { "CNPJ": 5704986300017, "AGENTE": "MARIA_INES_HELFSTEIN", "ACAO": "REALIZAR_PRIMEIRA_VISITA_POTENCIAL", "RAZAO_SOCIAL": "HOMEFIX_COMERCIO_DE_MATERIAIS_PARA_CONSTRUCAO_E_UTILIDADES_LTDA", "ENDERECO": "RUA_PDE_JOSE_GARZOTTI_280_CIDADE_DUTRA_SAO_PAULO_BRASIL", "CIDADE": "SAO_PAULO", "LATITUDE": -23.7105507, "LONGITUDE": -46.7008738 }, "geometry": { "type": "Point", "coordinates": [ -46.7008738, -23.7105507 ] } },
{ "type": "Feature", "properties": { "CNPJ": 4633906000102, "AGENTE": "MARIA_INES_HELFSTEIN", "ACAO": "REALIZAR_PRIMEIRA_VISITA_POTENCIAL", "RAZAO_SOCIAL": "LG_DUTRA_COMERCIO_DE_MATERIAIS_DE_CONSTRUCAO_LTDA", "ENDERECO": "RUA_PDE_JOSE_GARZOTTI_280_CIDADE_DUTRA_SAO_PAULO_BRASIL", "CIDADE": "SAO_PAULO", "LATITUDE": -23.7105507, "LONGITUDE": -46.7008738 }, "geometry": { "type": "Point", "coordinates": [ -46.7008738, -23.7105507 ] } },
{ "type": "Feature", "properties": { "CNPJ": 61607099000189, "AGENTE": "MARIA_INES_HELFSTEIN", "ACAO": "REALIZAR_PRIMEIRA_VISITA_POTENCIAL", "RAZAO_SOCIAL": "ASISTEC_FITNESS_COMERCIO_E_SERVICOS_LTDA", "ENDERECO": "RUA_CRISTOVAO_COLOMBO_GONCALVES_151_VILA_SANTO_ANTONIO_SAO_PAULO_BRASIL", "CIDADE": "SAO_PAULO", "LATITUDE": -23.7109488, "LONGITUDE": -46.6954619 }, "geometry": { "type": "Point", "coordinates": [ -46.6954619, -23.7109488 ] } },
{ "type": "Feature", "properties": { "CNPJ": 44672621000197, "AGENTE": "MARIA_INES_HELFSTEIN", "ACAO": "REALIZAR_PRIMEIRA_VISITA_POTENCIAL", "RAZAO_SOCIAL": "R._S._SANTANA_LTDA", "ENDERECO": "RUA_JOSE_ABEL_GALVAO_349_JARDIM_REGIS_SAO_PAULO_BRASIL", "CIDADE": "SAO_PAULO", "LATITUDE": -23.7111701, "LONGITUDE": -46.6912602 }, "geometry": { "type": "Point", "coordinates": [ -46.6912602, -23.7111701 ] } },
{ "type": "Feature", "properties": { "CNPJ": 26236762000185, "AGENTE": "MARIA_INES_HELFSTEIN", "ACAO": "REALIZAR_PRIMEIRA_VISITA_POTENCIAL", "RAZAO_SOCIAL": "ANA_PAULA_MONTEIRO_BARROS", "ENDERECO": "RUA_UBATA_22_CIDADE_DUTRA_SAO_PAULO_BRASIL", "CIDADE": "SAO_PAULO", "LATITUDE": -23.7122918, "LONGITUDE": -46.7019052 }, "geometry": { "type": "Point", "coordinates": [ -46.7019052, -23.7122918 ] } },
{ "type": "Feature", "properties": { "CNPJ": 25477098000101, "AGENTE": "MARIA_INES_HELFSTEIN", "ACAO": "REALIZAR_PRIMEIRA_VISITA_POTENCIAL", "RAZAO_SOCIAL": "GO_-_TECH_EQUIPAMENTOS_LTDA", "ENDERECO": "AVENIDA_PROF_PAPINI_367_CIDADE_DUTRA_SAO_PAULO_BRASIL", "CIDADE": "SAO_PAULO", "LATITUDE": -23.7124134, "LONGITUDE": -46.7048546 }, "geometry": { "type": "Point", "coordinates": [ -46.7048546, -23.7124134 ] } },
{ "type": "Feature", "properties": { "CNPJ": 40158652000173, "AGENTE": "MARIA_INES_HELFSTEIN", "ACAO": "REALIZAR_PRIMEIRA_VISITA_POTENCIAL", "RAZAO_SOCIAL": "SMA_TECNOLOGIA_DA_INFORMACAO_LTDA", "ENDERECO": "RUA_NSRA_DO_OUTEIRO_480_CIDADE_DUTRA_SAO_PAULO_BRASIL", "CIDADE": "SAO_PAULO", "LATITUDE": -23.7133212, "LONGITUDE": -46.700287 }, "geometry": { "type": "Point", "coordinates": [ -46.700287, -23.7133212 ] } },
{ "type": "Feature", "properties": { "CNPJ": 43782672000109, "AGENTE": "MARIA_INES_HELFSTEIN", "ACAO": "REALIZAR_PRIMEIRA_VISITA_POTENCIAL", "RAZAO_SOCIAL": "E._MACIEL_TECH_SOLUCOES_EM_TECNOLOGIA_LTDA.", "ENDERECO": "RUA_ARIABU_552_CIDADE_DUTRA_SAO_PAULO_BRASIL", "CIDADE": "SAO_PAULO", "LATITUDE": -23.7133489, "LONGITUDE": -46.7023873 }, "geometry": { "type": "Point", "coordinates": [ -46.7023873, -23.7133489 ] } },
{ "type": "Feature", "properties": { "CNPJ": 10697999000123, "AGENTE": "MARIA_INES_HELFSTEIN", "ACAO": "REALIZAR_PRIMEIRA_VISITA_POTENCIAL", "RAZAO_SOCIAL": "ALACRUZ_TRANSPORTES_LTDA", "ENDERECO": "RUA_EURICO_GASPAR_DUTRA_68_JARDIM_ALVORADA_LUIZ_ANTONIO_BRASIL", "CIDADE": "LUIS_ANTONIO", "LATITUDE": -23.71361, "LONGITUDE": -46.69504 }, "geometry": { "type": "Point", "coordinates": [ -46.69504, -23.71361 ] } },
{ "type": "Feature", "properties": { "CNPJ": 2463972000016, "AGENTE": "MARIA_INES_HELFSTEIN", "ACAO": "REALIZAR_PRIMEIRA_VISITA_POTENCIAL", "RAZAO_SOCIAL": "TOA_RAMA_INDUSTRIA_COMERCIO_E_SERVICOS_LTDA", "ENDERECO": "RUA_BALTAZAR_SOARES_139_CIDADE_DUTRA_SAO_PAULO_BRASIL", "CIDADE": "SAO_PAULO", "LATITUDE": -23.71361, "LONGITUDE": -46.7067041 }, "geometry": { "type": "Point", "coordinates": [ -46.7067041, -23.71361 ] } },
{ "type": "Feature", "properties": { "CNPJ": 28170727000136, "AGENTE": "MARIA_INES_HELFSTEIN", "ACAO": "REALIZAR_PRIMEIRA_VISITA_POTENCIAL", "RAZAO_SOCIAL": "RENAN_TAKAL_SILVA_38943081847", "ENDERECO": "AVENIDA_LOURENCO_CABREIRA_931_JARDIM_ANA_LUCIA_SAO_PAULO_BRASIL", "CIDADE": "SAO_PAULO", "LATITUDE": -23.713681, "LONGITUDE": -46.6899202 }, "geometry": { "type": "Point", "coordinates": [ -46.6899202, -23.713681 ] } },
{ "type": "Feature", "properties": { "CNPJ": 28956388000118, "AGENTE": "MARIA_INES_HELFSTEIN", "ACAO": "REALIZAR_PRIMEIRA_VISITA_POTENCIAL", "RAZAO_SOCIAL": "GILBERTO_DA_SILVA_LIMA_26866829810", "ENDERECO": "AVENIDA_PROFESSOR_PAPINI_134_CIDADE_DUTRA_SAO_PAULO_BRASIL", "CIDADE": "SAO_PAULO", "LATITUDE": -23.7143577, "LONGITUDE": -46.7059124 }, "geometry": { "type": "Point", "coordinates": [ -46.7059124, -23.7143577 ] } },
{ "type": "Feature", "properties": { "CNPJ": 42795279000197, "AGENTE": "MARIA_INES_HELFSTEIN", "ACAO": "REALIZAR_PRIMEIRA_VISITA_POTENCIAL", "RAZAO_SOCIAL": "42.795.279_ALEX_CORREA_LIMA", "ENDERECO": "RUA_CAMBUCI_DO_VALE_231_CIDADE_DUTRA_SAO_PAULO_BRASIL", "CIDADE": "SAO_PAULO", "LATITUDE": -23.714389, "LONGITUDE": -46.7009657 }, "geometry": { "type": "Point", "coordinates": [ -46.7009657, -23.714389 ] } },
{ "type": "Feature", "properties": { "CNPJ": 48138559000109, "AGENTE": "MARIA_INES_HELFSTEIN", "ACAO": "REALIZAR_PRIMEIRA_VISITA_POTENCIAL", "RAZAO_SOCIAL": "PRIVACY_COMERCIO_DE_PELICULAS_E_SERVICOS_IMPORTACAO_E_EXPORTACAO_LTDA", "ENDERECO": "AVENIDA_LOURENCO_CABREIRA_836_JARDIM_ANA_LUCIA_SAO_PAULO_BRASIL", "CIDADE": "SAO_PAULO", "LATITUDE": -23.7145718, "LONGITUDE": -46.6897349 }, "geometry": { "type": "Point", "coordinates": [ -46.6897349, -23.7145718 ] } },
{ "type": "Feature", "properties": { "CNPJ": 40504754000101, "AGENTE": "MARIA_INES_HELFSTEIN", "ACAO": "REALIZAR_PRIMEIRA_VISITA_POTENCIAL", "RAZAO_SOCIAL": "DSS_COMERCIO_E_SERVICO_LTDA", "ENDERECO": "AVENIDA_LOURENCO_CABREIRA_836_JARDIM_ANA_LUCIA_SAO_PAULO_BRASIL", "CIDADE": "SAO_PAULO", "LATITUDE": -23.7145718, "LONGITUDE": -46.6897349 }, "geometry": { "type": "Point", "coordinates": [ -46.6897349, -23.7145718 ] } },
{ "type": "Feature", "properties": { "CNPJ": 39716004000106, "AGENTE": "MARIA_INES_HELFSTEIN", "ACAO": "REALIZAR_PRIMEIRA_VISITA_POTENCIAL", "RAZAO_SOCIAL": "CLINICA_IMA_-_PROJETO_SAUDE_-_LTDA", "ENDERECO": "AVENIDA_ATLANTICA_5441_PARQUE_ATLANTICO_SAO_PAULO_BRASIL", "CIDADE": "SAO_PAULO", "LATITUDE": -23.7146173, "LONGITUDE": -46.707304 }, "geometry": { "type": "Point", "coordinates": [ -46.707304, -23.7146173 ] } },
{ "type": "Feature", "properties": { "CNPJ": 52962355000165, "AGENTE": "MARIA_INES_HELFSTEIN", "ACAO": "REALIZAR_PRIMEIRA_VISITA_POTENCIAL", "RAZAO_SOCIAL": "52.962.355_LUIZ_FERNANDO_DA_SILVA_SANTOS", "ENDERECO": "RUA_ELOI_EPPINGER_314_TERCEIRA_DIVISAO_DE_INTERLAGOS_SAO_PAULO_BRASIL", "CIDADE": "SAO_PAULO", "LATITUDE": -23.7159894, "LONGITUDE": -46.6946633 }, "geometry": { "type": "Point", "coordinates": [ -46.6946633, -23.7159894 ] } },
{ "type": "Feature", "properties": { "CNPJ": 57556740000126, "AGENTE": "MARIA_INES_HELFSTEIN", "ACAO": "REALIZAR_PRIMEIRA_VISITA_POTENCIAL", "RAZAO_SOCIAL": "BARBEARIA_DE_MELLO_E_COSMETICOS_LTDA", "ENDERECO": "AVENIDA_AURELIA_LOPES_TAKANO_600_JARDIM_SATELITE_SAO_PAULO_BRASIL", "CIDADE": "SAO_PAULO", "LATITUDE": -23.7179916, "LONGITUDE": -46.6928563 }, "geometry": { "type": "Point", "coordinates": [ -46.6928563, -23.7179916 ] } },
{ "type": "Feature", "properties": { "CNPJ": 36895941000188, "AGENTE": "MARIA_INES_HELFSTEIN", "ACAO": "REALIZAR_PRIMEIRA_VISITA_POTENCIAL", "RAZAO_SOCIAL": "LAYSE_AUGUSTA_ARRUDA_CRUZ_CORREA", "ENDERECO": "RUA_JOSE_BONIFACIO_FILHO_113_JARDIM_SAO_BENEDITO_SAO_PAULO_BRASIL", "CIDADE": "SAO_PAULO", "LATITUDE": -23.7183225, "LONGITUDE": -46.6890242 }, "geometry": { "type": "Point", "coordinates": [ -46.6890242, -23.7183225 ] } },
{ "type": "Feature", "properties": { "CNPJ": 3150493300014, "AGENTE": "MARIA_INES_HELFSTEIN", "ACAO": "REALIZAR_PRIMEIRA_VISITA_POTENCIAL", "RAZAO_SOCIAL": "RAFAEL_PINHEIRO_DE_SIQUEIRA", "ENDERECO": "RUA_ALVARO_VIANA_71_JARDIM_SAO_JUDAS_TADEU_SAO_PAULO_BRASIL", "CIDADE": "SAO_PAULO", "LATITUDE": -23.7189434, "LONGITUDE": -46.6844012 }, "geometry": { "type": "Point", "coordinates": [ -46.6844012, -23.7189434 ] } },
{ "type": "Feature", "properties": { "CNPJ": 55434126000166, "AGENTE": "MARIA_INES_HELFSTEIN", "ACAO": "REALIZAR_PRIMEIRA_VISITA_POTENCIAL", "RAZAO_SOCIAL": "55.434.126_RUAN_WILLY_DO_MONTE_BARRA", "ENDERECO": "RUA_ALVARO_VIANA_65_JARDIM_SAO_JUDAS_TADEU_SAO_PAULO_BRASIL", "CIDADE": "SAO_PAULO", "LATITUDE": -23.7189708, "LONGITUDE": -46.6842485 }, "geometry": { "type": "Point", "coordinates": [ -46.6842485, -23.7189708 ] } },
{ "type": "Feature", "properties": { "CNPJ": 54847643000102, "AGENTE": "MARIA_INES_HELFSTEIN", "ACAO": "REALIZAR_PRIMEIRA_VISITA_POTENCIAL", "RAZAO_SOCIAL": "EDUARDO_RODRIGUES_LEITE", "ENDERECO": "RUA_JOAQUIM_GALDINO_0_JARDIM_CLIPER_SAO_PAULO_BRASIL", "CIDADE": "SAO_PAULO", "LATITUDE": -23.7195418, "LONGITUDE": -46.7028021 }, "geometry": { "type": "Point", "coordinates": [ -46.7028021, -23.7195418 ] } },
{ "type": "Feature", "properties": { "CNPJ": 56747152000107, "AGENTE": "MARIA_INES_HELFSTEIN", "ACAO": "REALIZAR_PRIMEIRA_VISITA_POTENCIAL", "RAZAO_SOCIAL": "RMX_CONSULTORIA_E_ASSESSORIA_LTDA", "ENDERECO": "RUA_AFONSO_DUARTE_1008_RIO_BONITO_SAO_PAULO_BRASIL", "CIDADE": "SAO_PAULO", "LATITUDE": -23.7196826, "LONGITUDE": -46.7063778 }, "geometry": { "type": "Point", "coordinates": [ -46.7063778, -23.7196826 ] } },
{ "type": "Feature", "properties": { "CNPJ": 37173042000134, "AGENTE": "MARIA_INES_HELFSTEIN", "ACAO": "REALIZAR_PRIMEIRA_VISITA_POTENCIAL", "RAZAO_SOCIAL": "37.173.042_WESLEY_LIMA_DA_SILVA", "ENDERECO": "RUA_HENRIQUETA_SALVADORE_GIACOMETTI_368_TERCEIRA_DIVISAO_DE_INTERLAGOS_SAO_PAULO_BRASIL", "CIDADE": "SAO_PAULO", "LATITUDE": -23.7199372, "LONGITUDE": -46.6935967 }, "geometry": { "type": "Point", "coordinates": [ -46.6935967, -23.7199372 ] } },
{ "type": "Feature", "properties": { "CNPJ": 25166594000136, "AGENTE": "MARIA_INES_HELFSTEIN", "ACAO": "REALIZAR_PRIMEIRA_VISITA_POTENCIAL", "RAZAO_SOCIAL": "TRANSTOM_TURISMO_LTDA", "ENDERECO": "RUA_JULIO_GALDINO_03_JARDIM_CLIPER_SAO_PAULO_BRASIL", "CIDADE": "SAO_PAULO", "LATITUDE": -23.7205974, "LONGITUDE": -46.702815 }, "geometry": { "type": "Point", "coordinates": [ -46.702815, -23.7205974 ] } },
{ "type": "Feature", "properties": { "CNPJ": 36345367000194, "AGENTE": "MARIA_INES_HELFSTEIN", "ACAO": "REALIZAR_PRIMEIRA_VISITA_POTENCIAL", "RAZAO_SOCIAL": "LEONARDO_MONTEIRO_DOS_SANTOS_44240612802", "ENDERECO": "RUA_NOVA_DELHI_199_JARDIM_EDITH_SAO_PAULO_BRASIL", "CIDADE": "SAO_PAULO", "LATITUDE": -23.720669, "LONGITUDE": -46.6867264 }, "geometry": { "type": "Point", "coordinates": [ -46.6867264, -23.720669 ] } },
{ "type": "Feature", "properties": { "CNPJ": 14727122000199, "AGENTE": "MARIA_INES_HELFSTEIN", "ACAO": "REALIZAR_PRIMEIRA_VISITA_POTENCIAL", "RAZAO_SOCIAL": "RAYSOL_LOCADORA_DE_VEICULOS_E_CONTRUCOES_EIRELI", "ENDERECO": "AVENIDA_PRESIDENTE_JOAO_GOULART_86_JARDIM_MALIA_I_SAO_PAULO_BRASIL", "CIDADE": "SAO_PAULO", "LATITUDE": -23.7207986, "LONGITUDE": -46.6973859 }, "geometry": { "type": "Point", "coordinates": [ -46.6973859, -23.7207986 ] } },
{ "type": "Feature", "properties": { "CNPJ": 33655354000123, "AGENTE": "MARIA_INES_HELFSTEIN", "ACAO": "REALIZAR_PRIMEIRA_VISITA_POTENCIAL", "RAZAO_SOCIAL": "RODRIGO_DE_OLIVEIRA", "ENDERECO": "RUA_NOVA_DELHI_200_JARDIM_EDITH_SAO_PAULO_BRASIL", "CIDADE": "SAO_PAULO", "LATITUDE": -23.7208091, "LONGITUDE": -46.6867294 }, "geometry": { "type": "Point", "coordinates": [ -46.6867294, -23.7208091 ] } },
{ "type": "Feature", "properties": { "CNPJ": 58527393000176, "AGENTE": "MARIA_INES_HELFSTEIN", "ACAO": "REALIZAR_PRIMEIRA_VISITA_POTENCIAL", "RAZAO_SOCIAL": "58.527.393_HAROLDO_DA_SILVA_FERREIRA", "ENDERECO": "RUA_NOVA_DELHI_270_JARDIM_EDITH_SAO_PAULO_BRASIL", "CIDADE": "SAO_PAULO", "LATITUDE": -23.7211477, "LONGITUDE": -46.6861553 }, "geometry": { "type": "Point", "coordinates": [ -46.6861553, -23.7211477 ] } },
{ "type": "Feature", "properties": { "CNPJ": 56031526000193, "AGENTE": "MARIA_INES_HELFSTEIN", "ACAO": "REALIZAR_PRIMEIRA_VISITA_POTENCIAL", "RAZAO_SOCIAL": "56.031.526_FABIANA_APARECIDA_JULIANO", "ENDERECO": "AVENIDA_DOUTOR_SEBASTIAO_MEDEIROS_553_TERCEIRA_DIVISAO_DE_INTERLAGOS_SAO_PAULO_BRASIL", "CIDADE": "SAO_PAULO", "LATITUDE": -23.7216162, "LONGITUDE": -46.6933553 }, "geometry": { "type": "Point", "coordinates": [ -46.6933553, -23.7216162 ] } },
{ "type": "Feature", "properties": { "CNPJ": 59072062000151, "AGENTE": "MARIA_INES_HELFSTEIN", "ACAO": "REALIZAR_PRIMEIRA_VISITA_POTENCIAL", "RAZAO_SOCIAL": "59.072.062_ANDRE_MORENO", "ENDERECO": "TRAVESSA_VICENTE_DE_PAULA_PIRES_56_JARDIM_NIZIA_SAO_PAULO_BRASIL", "CIDADE": "SAO_PAULO", "LATITUDE": -23.7216534, "LONGITUDE": -46.693144 }, "geometry": { "type": "Point", "coordinates": [ -46.693144, -23.7216534 ] } },
{ "type": "Feature", "properties": { "CNPJ": 24999935000191, "AGENTE": "MARIA_INES_HELFSTEIN", "ACAO": "REALIZAR_PRIMEIRA_VISITA_POTENCIAL", "RAZAO_SOCIAL": "VANDILZA_MARIA_ALVES_DE_ANDRADE", "ENDERECO": "RUA_JOSE_FRANCISCO_DE_FREITAS_281_JARDIM_MARIA_RITA_SAO_PAULO_BRASIL", "CIDADE": "SAO_PAULO", "LATITUDE": -23.7234895, "LONGITUDE": -46.6784513 }, "geometry": { "type": "Point", "coordinates": [ -46.6784513, -23.7234895 ] } },
{ "type": "Feature", "properties": { "CNPJ": 31560750000141, "AGENTE": "MARIA_INES_HELFSTEIN", "ACAO": "REALIZAR_PRIMEIRA_VISITA_POTENCIAL", "RAZAO_SOCIAL": "IC_CLINIC_LTDA", "ENDERECO": "RUA_JOAQUIM_ANTONIO_MENDES_274_JARDIM_DOS_BICHINHOS_SAO_PAULO_BRASIL", "CIDADE": "SAO_PAULO", "LATITUDE": -23.7237671, "LONGITUDE": -46.6839367 }, "geometry": { "type": "Point", "coordinates": [ -46.6839367, -23.7237671 ] } },
{ "type": "Feature", "properties": { "CNPJ": 40428725000108, "AGENTE": "MARIA_INES_HELFSTEIN", "ACAO": "REALIZAR_PRIMEIRA_VISITA_POTENCIAL", "RAZAO_SOCIAL": "MARCELO_DO_ESPIRITO_SANTO_31884998844", "ENDERECO": "RUA_ANTONIO_ALFREDO_CAMPOS_106_JARDIM_GUANHEMBU_SAO_PAULO_BRASIL", "CIDADE": "SAO_PAULO", "LATITUDE": -23.7238398, "LONGITUDE": -46.6797486 }, "geometry": { "type": "Point", "coordinates": [ -46.6797486, -23.7238398 ] } },
{ "type": "Feature", "properties": { "CNPJ": 51089679000178, "AGENTE": "MARIA_INES_HELFSTEIN", "ACAO": "REALIZAR_PRIMEIRA_VISITA_POTENCIAL", "RAZAO_SOCIAL": "ANDRESSA_DOS_SANTOS", "ENDERECO": "RUA_ANDRE_GRABOIS_96_JARDIM_GUANHEMBU_SAO_PAULO_BRASIL", "CIDADE": "SAO_PAULO", "LATITUDE": -23.7247197, "LONGITUDE": -46.679004 }, "geometry": { "type": "Point", "coordinates": [ -46.679004, -23.7247197 ] } },
{ "type": "Feature", "properties": { "CNPJ": 57160120000173, "AGENTE": "MARIA_INES_HELFSTEIN", "ACAO": "REALIZAR_PRIMEIRA_VISITA_POTENCIAL", "RAZAO_SOCIAL": "57.160.120_LUCIVANIA_AURORA_DAVID", "ENDERECO": "RUA_AUREA_ELIZA_PEREIRA_VALADAO_24_JARDIM_GUANHEMBU_SAO_PAULO_BRASIL", "CIDADE": "SAO_PAULO", "LATITUDE": -23.7294548, "LONGITUDE": -46.6820095 }, "geometry": { "type": "Point", "coordinates": [ -46.6820095, -23.7294548 ] } },
{ "type": "Feature", "properties": { "CNPJ": 49376962000139, "AGENTE": "MARIA_INES_HELFSTEIN", "ACAO": "REALIZAR_PRIMEIRA_VISITA_POTENCIAL", "RAZAO_SOCIAL": "49.376.962_EDCARLOS_SILVA_DOS_SANTOS", "ENDERECO": "RUA_CAIUBY_ALVES_CASTRO_135_JARDIM_GUANHEMBU_SAO_PAULO_BRASIL", "CIDADE": "SAO_PAULO", "LATITUDE": -23.7303731, "LONGITUDE": -46.6813063 }, "geometry": { "type": "Point", "coordinates": [ -46.6813063, -23.7303731 ] } },
{ "type": "Feature", "properties": { "CNPJ": 53262686000155, "AGENTE": "MARIA_INES_HELFSTEIN", "ACAO": "REALIZAR_PRIMEIRA_VISITA_POTENCIAL", "RAZAO_SOCIAL": "53.262.686_JOAO_PEDRO_BERNARDO_CORDEIRO", "ENDERECO": "RUA_DANIEL_RIBEIRO_CALADO_190_JARDIM_GUANHEMBU_SAO_PAULO_BRASIL", "CIDADE": "SAO_PAULO", "LATITUDE": -23.7306692, "LONGITUDE": -46.682787 }, "geometry": { "type": "Point", "coordinates": [ -46.682787, -23.7306692 ] } },
{ "type": "Feature", "properties": { "CNPJ": 4342629400012, "AGENTE": "MARIA_INES_HELFSTEIN", "ACAO": "REALIZAR_PRIMEIRA_VISITA_POTENCIAL", "RAZAO_SOCIAL": "SILVIA_PATRICIA_TRINDADE_TEIXEIRA", "ENDERECO": "RUA_DANIEL_JOSE_DE_CARVALHO_59_JARDIM_GUANHEMBU_SAO_PAULO_BRASIL", "CIDADE": "SAO_PAULO", "LATITUDE": -23.731171, "LONGITUDE": -46.6814009 }, "geometry": { "type": "Point", "coordinates": [ -46.6814009, -23.731171 ] } },
{ "type": "Feature", "properties": { "CNPJ": 4067483900012, "AGENTE": "MARIA_INES_HELFSTEIN", "ACAO": "REALIZAR_PRIMEIRA_VISITA_POTENCIAL", "RAZAO_SOCIAL": "ALESSANDRO_CELIO_DE_ASSIS", "ENDERECO": "RUA_ELSON_COSTA_92_JARDIM_TOCA_SAO_PAULO_BRASIL", "CIDADE": "SAO_PAULO", "LATITUDE": -23.7312747, "LONGITUDE": -46.676564 }, "geometry": { "type": "Point", "coordinates": [ -46.676564, -23.7312747 ] } },
{ "type": "Feature", "properties": { "CNPJ": 1266189000121, "AGENTE": "MARIA_INES_HELFSTEIN", "ACAO": "REALIZAR_PRIMEIRA_VISITA_POTENCIAL", "RAZAO_SOCIAL": "GENERALY_COMPANY_ACO_INOXIDAVEL_LTDA", "ENDERECO": "AVENIDA_JOAQUIM_NAPOLEAO_MACHADO_1407_JARDIM_SANTA_BARBARA_SAO_PAULO_BRASIL", "CIDADE": "SAO_PAULO", "LATITUDE": -23.7317521, "LONGITUDE": -46.6756045 }, "geometry": { "type": "Point", "coordinates": [ -46.6756045, -23.7317521 ] } },
{ "type": "Feature", "properties": { "CNPJ": 40970258000135, "AGENTE": "MARIA_INES_HELFSTEIN", "ACAO": "REALIZAR_PRIMEIRA_VISITA_POTENCIAL", "RAZAO_SOCIAL": "JOSE_ALDO_VICENTE_MACEDO", "ENDERECO": "RUA_DANIEL_RIBEIRO_CALADO_371_JARDIM_GUANHEMBU_SAO_PAULO_BRASIL", "CIDADE": "SAO_PAULO", "LATITUDE": -23.7318959, "LONGITUDE": -46.6826371 }, "geometry": { "type": "Point", "coordinates": [ -46.6826371, -23.7318959 ] } },
{ "type": "Feature", "properties": { "CNPJ": 24369420000108, "AGENTE": "MARIA_INES_HELFSTEIN", "ACAO": "REALIZAR_PRIMEIRA_VISITA_POTENCIAL", "RAZAO_SOCIAL": "JEAN_CARLOS_BARRETO_DE_ANDRADE", "ENDERECO": "RUA_IPE_3_CHACARA_DAS_CORUJAS_SAO_PAULO_BRASIL", "CIDADE": "SAO_PAULO", "LATITUDE": -23.7324577, "LONGITUDE": -46.6794656 }, "geometry": { "type": "Point", "coordinates": [ -46.6794656, -23.7324577 ] } },
{ "type": "Feature", "properties": { "CNPJ": 39863038000123, "AGENTE": "MARIA_INES_HELFSTEIN", "ACAO": "REALIZAR_PRIMEIRA_VISITA_POTENCIAL", "RAZAO_SOCIAL": "LEONARDO_DA_SILVA_VALINS_47057656807", "ENDERECO": "RUA_HIRAN_DE_LIMA_PEREIRA_42_JARDIM_TOCA_SAO_PAULO_BRASIL", "CIDADE": "SAO_PAULO", "LATITUDE": -23.7324896, "LONGITUDE": -46.678105 }, "geometry": { "type": "Point", "coordinates": [ -46.678105, -23.7324896 ] } },
{ "type": "Feature", "properties": { "CNPJ": 51473989000191, "AGENTE": "MARIA_INES_HELFSTEIN", "ACAO": "REALIZAR_PRIMEIRA_VISITA_POTENCIAL", "RAZAO_SOCIAL": "51.473.989_FERNANDO_PEREIRA_BENTO", "ENDERECO": "AVENIDA_JOAQUIM_NAPOLEAO_MACHADO_1123_JARDIM_SANTA_BARBARA_SAO_PAULO_BRASIL", "CIDADE": "SAO_PAULO", "LATITUDE": -23.734227, "LONGITUDE": -46.6786995 }, "geometry": { "type": "Point", "coordinates": [ -46.6786995, -23.734227 ] } },
{ "type": "Feature", "properties": { "CNPJ": 5551299900014, "AGENTE": "MARIA_INES_HELFSTEIN", "ACAO": "REALIZAR_PRIMEIRA_VISITA_POTENCIAL", "RAZAO_SOCIAL": "ALEXANDRE_FREDERICO_MACIEL_INFORMATICA_LTDA", "ENDERECO": "AVENIDA_JOAQUIM_NAPOLEAO_MACHADO_914_JARDIM_SANTA_BARBARA_SAO_PAULO_BRASIL", "CIDADE": "SAO_PAULO", "LATITUDE": -23.7348114, "LONGITUDE": -46.6792878 }, "geometry": { "type": "Point", "coordinates": [ -46.6792878, -23.7348114 ] } },
{ "type": "Feature", "properties": { "CNPJ": 3579090800012, "AGENTE": "MARIA_INES_HELFSTEIN", "ACAO": "REALIZAR_PRIMEIRA_VISITA_POTENCIAL", "RAZAO_SOCIAL": "ALINE_MARA_CARDOSO_DE_SOUZA", "ENDERECO": "RUA_ASCANIO_MEO_54_JARDIM_PROGRESSO_SAO_PAULO_BRASIL", "CIDADE": "PRESIDENTE_BERNARDES", "LATITUDE": -23.735301, "LONGITUDE": -46.6764183 }, "geometry": { "type": "Point", "coordinates": [ -46.6764183, -23.735301 ] } },
{ "type": "Feature", "properties": { "CNPJ": 4025130500019, "AGENTE": "MARIA_INES_HELFSTEIN", "ACAO": "REALIZAR_PRIMEIRA_VISITA_POTENCIAL", "RAZAO_SOCIAL": "40.251.305_RAFAELA_SIQUEIRA_GOMES", "ENDERECO": "RUA_BALDASSARE_FERRI_70_JARDIM_PROGRESSO_SAO_PAULO_BRASIL", "CIDADE": "SAO_PAULO", "LATITUDE": -23.7357431, "LONGITUDE": -46.67944689 }, "geometry": { "type": "Point", "coordinates": [ -46.67944689, -23.7357431 ] } },
{ "type": "Feature", "properties": { "CNPJ": 33695011000192, "AGENTE": "MARIA_INES_HELFSTEIN", "ACAO": "REALIZAR_PRIMEIRA_VISITA_POTENCIAL", "RAZAO_SOCIAL": "ANA_PAULA_VIEIRA_NOVAES_SILVA", "ENDERECO": "RUA_RUBENS_DE_OLIVEIRA_875_PARQUE_RESIDENCIAL_COCAIA_SAO_PAULO_BRASIL", "CIDADE": "SAO_PAULO", "LATITUDE": -23.735977, "LONGITUDE": -46.6681679 }, "geometry": { "type": "Point", "coordinates": [ -46.6681679, -23.735977 ] } },
{ "type": "Feature", "properties": { "CNPJ": 14129251000185, "AGENTE": "MARIA_INES_HELFSTEIN", "ACAO": "REALIZAR_PRIMEIRA_VISITA_POTENCIAL", "RAZAO_SOCIAL": "JACKSON_PRATES_DE_OLIVEIRA", "ENDERECO": "RUA_MIRAFLORES_465_JARDIM_CASTRO_ALVES_SAO_PAULO_BRASIL", "CIDADE": "SAO_PAULO", "LATITUDE": -23.7390993, "LONGITUDE": -46.6767115 }, "geometry": { "type": "Point", "coordinates": [ -46.6767115, -23.7390993 ] } }
]
}
