{
"type": "FeatureCollection",
"name": "MICHELLE_CAROLINE_BETONI",
"crs": { "type": "name", "properties": { "name": "urn:ogc:def:crs:OGC:1.3:CRS84" } },
"xy_coordinate_resolution": 1e-15,
"features": [
{ "type": "Feature", "properties": { "CNPJ": 52911951000116, "AGENTE": "MICHELLE_CAROLINE_BETONI", "ACAO": "REALIZAR_SEGUNDA_VISITA", "RAZAO_SOCIAL": "52.911.951_ANA_PAULA_APARECIDA_DE_SOUZA_-_PAPOULA_JOIAS_E_BIJOUTERIAS", "ENDERECO": "RUADOUTORDIBGEBARA_211_JARDIMIRACEMA_SAOPAULO", "CIDADE": "SAO_PAULO", "LATITUDE": -23.5447271, "LONGITUDE": -46.6389572, "BASE": "ATENDIDOS" }, "geometry": { "type": "Point", "coordinates": [ -46.6389572, -23.5447271 ] } },
{ "type": "Feature", "properties": { "CNPJ": 43067313000170, "AGENTE": "MICHELLE_CAROLINE_BETONI", "ACAO": "REALIZAR_SEGUNDA_VISITA", "RAZAO_SOCIAL": "LANCHONETE_JANINE_LTDA_-_JANINE_RESTAURANTE", "ENDERECO": "RUAMARTIMFRANCISCO_232_VILABUARQUE_SAOPAULO", "CIDADE": "SAO_PAULO", "LATITUDE": -23.5391549, "LONGITUDE": -46.6524359, "BASE": "ATENDIDOS" }, "geometry": { "type": "Point", "coordinates": [ -46.6524359, -23.5391549 ] } },
{ "type": "Feature", "properties": { "CNPJ": 20959676000114, "AGENTE": "MICHELLE_CAROLINE_BETONI", "ACAO": "REALIZAR_SEGUNDA_VISITA", "RAZAO_SOCIAL": "B_E_M_MARTINS_COMERCIO_DE_LIVROS_-_LIVRARIA_PONTA_DE_LANCA", "ENDERECO": "RUAAURELIANOCOUTINHO_26_CONSOLACAO_SAOPAULO", "CIDADE": "SAO_PAULO", "LATITUDE": -23.5402363, "LONGITUDE": -46.652769, "BASE": "ATENDIDOS" }, "geometry": { "type": "Point", "coordinates": [ -46.652769, -23.5402363 ] } },
{ "type": "Feature", "properties": { "CNPJ": 51983589000126, "AGENTE": "MICHELLE_CAROLINE_BETONI", "ACAO": "REALIZAR_SEGUNDA_VISITA", "RAZAO_SOCIAL": "51.983.589_CAROLINE_RAMOS_SOARES_SILVA_-_RAMOS_DO_CACAU", "ENDERECO": "RUAARICANGA_1256_JARDIMSILVATELES_SAOPAULO", "CIDADE": "SAO_PAULO", "LATITUDE": -23.5447014, "LONGITUDE": -46.6389381, "BASE": "ATENDIDOS" }, "geometry": { "type": "Point", "coordinates": [ -46.6389381, -23.5447014 ] } },
{ "type": "Feature", "properties": { "CNPJ": 37340212000128, "AGENTE": "MICHELLE_CAROLINE_BETONI", "ACAO": "REALIZAR_SEGUNDA_VISITA", "RAZAO_SOCIAL": "RONALDO_DIAS_DE_OLIVEIRA_35895240810_-_RONALDO_DIAS", "ENDERECO": "AVENIDASAOJOAO_657_REPUBLICA_SAOPAULO", "CIDADE": "SAO_PAULO", "LATITUDE": -23.5447471, "LONGITUDE": -46.6389619, "BASE": "ATENDIDOS" }, "geometry": { "type": "Point", "coordinates": [ -46.6389619, -23.5447471 ] } },
{ "type": "Feature", "properties": { "CNPJ": 48193332000166, "AGENTE": "MICHELLE_CAROLINE_BETONI", "ACAO": "REALIZAR_SEGUNDA_VISITA", "RAZAO_SOCIAL": "48.193.332_REGINALDO_OLIVEIRA_SANTOS_-_COGULI", "ENDERECO": "RUAPEIXESDEPRATA_66_JARDIMRECANTODOSOL_SAOPAULO", "CIDADE": "SAO_PAULO", "LATITUDE": -23.515505, "LONGITUDE": -46.636189, "BASE": "ATENDIDOS" }, "geometry": { "type": "Point", "coordinates": [ -46.636189, -23.515505 ] } },
{ "type": "Feature", "properties": { "CNPJ": 61233237000107, "AGENTE": "MICHELLE_CAROLINE_BETONI", "ACAO": "REALIZAR_SEGUNDA_VISITA", "RAZAO_SOCIAL": "61.233.237_LUIZA_HADDAD_MOREIRA_LIMA_-_SOLO_FERTIL", "ENDERECO": "RUACORONELFERREIRALEAL_271_VILAGOMES_SAOPAULO", "CIDADE": "SAO_PAULO", "LATITUDE": -23.5157941, "LONGITUDE": -46.6368266, "BASE": "ATENDIDOS" }, "geometry": { "type": "Point", "coordinates": [ -46.6368266, -23.5157941 ] } },
{ "type": "Feature", "properties": { "CNPJ": 48279922000106, "AGENTE": "MICHELLE_CAROLINE_BETONI", "ACAO": "REALIZAR_SEGUNDA_VISITA", "RAZAO_SOCIAL": "HUMA_COSMETICA_LTDA_-_HUMA_COSMETICA", "ENDERECO": "RUAOLAVOFREIRE_1209_SANTANA_SAOPAULO", "CIDADE": "SAO_PAULO", "LATITUDE": -23.5158374, "LONGITUDE": -46.636818, "BASE": "ATENDIDOS" }, "geometry": { "type": "Point", "coordinates": [ -46.636818, -23.5158374 ] } },
{ "type": "Feature", "properties": { "CNPJ": 50075877000110, "AGENTE": "MICHELLE_CAROLINE_BETONI", "ACAO": "REALIZAR_SEGUNDA_VISITA", "RAZAO_SOCIAL": "LABFLORA_SAUDE_COMPLEMENTAR_LTDA_-_LABFLORA", "ENDERECO": "AVENIDAJOAOFIRMINO_1275_ASSUNCAO_SAOBERNARDODOCAMPO", "CIDADE": "SAO_BERNARDO_DO_CAMPO", "LATITUDE": -23.5158451, "LONGITUDE": -46.6367953, "BASE": "ATENDIDOS" }, "geometry": { "type": "Point", "coordinates": [ -46.6367953, -23.5158451 ] } },
{ "type": "Feature", "properties": { "CNPJ": 47995560000197, "AGENTE": "MICHELLE_CAROLINE_BETONI", "ACAO": "REALIZAR_SEGUNDA_VISITA", "RAZAO_SOCIAL": "IA_CAFE_INDUSTRIA_E_COMERCIO_LTDA_-_IA_CAFE", "ENDERECO": "AVENIDAPAULOVI_936_RESIDENCIALPARAISO_FRANCA", "CIDADE": "FRANCA", "LATITUDE": -23.5159946, "LONGITUDE": -46.6368289, "BASE": "ATENDIDOS" }, "geometry": { "type": "Point", "coordinates": [ -46.6368289, -23.5159946 ] } },
{ "type": "Feature", "properties": { "CNPJ": 27855627000180, "AGENTE": "MICHELLE_CAROLINE_BETONI", "ACAO": "REALIZAR_SEGUNDA_VISITA", "RAZAO_SOCIAL": "DANIELLA_CORREA_ANTUNES_36869156859_-_QUITUTERIA_ARTESANAL", "ENDERECO": "RUAMAGINFARINASLOPEZ_141_MACEDO_GUARULHOS", "CIDADE": "GUARULHOS", "LATITUDE": -23.5160365, "LONGITUDE": -46.6362553, "BASE": "ATENDIDOS" }, "geometry": { "type": "Point", "coordinates": [ -46.6362553, -23.5160365 ] } },
{ "type": "Feature", "properties": { "CNPJ": 44441424000167, "AGENTE": "MICHELLE_CAROLINE_BETONI", "ACAO": "REALIZAR_SEGUNDA_VISITA", "RAZAO_SOCIAL": "DAFRANI_LTDA_-_FRAVITA", "ENDERECO": "RUAMARILIA_336_MARAMBAIA_VINHEDO", "CIDADE": "VINHEDO", "LATITUDE": -23.5161682, "LONGITUDE": -46.637315, "BASE": "ATENDIDOS" }, "geometry": { "type": "Point", "coordinates": [ -46.637315, -23.5161682 ] } },
{ "type": "Feature", "properties": { "CNPJ": 5459000188, "AGENTE": "MICHELLE_CAROLINE_BETONI", "ACAO": "REALIZAR_SEGUNDA_VISITA", "RAZAO_SOCIAL": "ARTE_DOS_AROMAS_INDUSTRIA_E_COMERCIO_LTDA_-_ARTE_DOS_AROMA", "ENDERECO": "RUASERGIOLUIS_160_SERRARIA_DIADEMA", "CIDADE": "DIADEMA", "LATITUDE": -23.5161708, "LONGITUDE": -46.6357996, "BASE": "ATENDIDOS" }, "geometry": { "type": "Point", "coordinates": [ -46.6357996, -23.5161708 ] } },
{ "type": "Feature", "properties": { "CNPJ": 23954567000100, "AGENTE": "MICHELLE_CAROLINE_BETONI", "ACAO": "REALIZAR_SEGUNDA_VISITA", "RAZAO_SOCIAL": "MANJUBA_INDUSTRIA_E_COMERCIO_DE_ALIMENTOS_E_SOLUCOES_EMPRESARIAIS_LTDA_-_A_SEMENTERIA", "ENDERECO": "RUASANTACATARINA_621_PARQUESAOJORGE_SAOPAULO", "CIDADE": "SAO_PAULO", "LATITUDE": -23.5161966, "LONGITUDE": -46.636559, "BASE": "ATENDIDOS" }, "geometry": { "type": "Point", "coordinates": [ -46.636559, -23.5161966 ] } },
{ "type": "Feature", "properties": { "CNPJ": 33455979000141, "AGENTE": "MICHELLE_CAROLINE_BETONI", "ACAO": "REALIZAR_SEGUNDA_VISITA", "RAZAO_SOCIAL": "MENU_COM_SAUDE_ALIMENTOS_LTDA._-_MENU_COM_SAUDE", "ENDERECO": "RUASIBALDOLINS_951_JARDIMCINCODEJULHO_SAOPAULO", "CIDADE": "SAO_PAULO", "LATITUDE": -23.5162222, "LONGITUDE": -46.6364184, "BASE": "ATENDIDOS" }, "geometry": { "type": "Point", "coordinates": [ -46.6364184, -23.5162222 ] } },
{ "type": "Feature", "properties": { "CNPJ": 36420971000138, "AGENTE": "MICHELLE_CAROLINE_BETONI", "ACAO": "REALIZAR_SEGUNDA_VISITA", "RAZAO_SOCIAL": "NOVVO_BEM_ESTAR_COMERCIO_DE_PRODUTOS_NATURAIS_LTDA_-_NOVVO_BEM_ESTAR", "ENDERECO": "ESTRADATENENTEMARQUES_1980_CHACARASSANTACRUZ_SANTANADEPARNAIBA", "CIDADE": "SANTANA_DE_PARNAIBA", "LATITUDE": -23.5162435, "LONGITUDE": -46.6364995, "BASE": "ATENDIDOS" }, "geometry": { "type": "Point", "coordinates": [ -46.6364995, -23.5162435 ] } },
{ "type": "Feature", "properties": { "CNPJ": 52762644000110, "AGENTE": "MICHELLE_CAROLINE_BETONI", "ACAO": "REALIZAR_SEGUNDA_VISITA", "RAZAO_SOCIAL": "52.762.644_LARS_EIRIK_FRANTZEN_-_PLANTARA_VEG", "ENDERECO": "RUAAGISSE_42_VILAMADALENA_SAOPAULO", "CIDADE": "SAO_PAULO", "LATITUDE": -23.516257, "LONGITUDE": -46.6363968, "BASE": "ATENDIDOS" }, "geometry": { "type": "Point", "coordinates": [ -46.6363968, -23.516257 ] } },
{ "type": "Feature", "properties": { "CNPJ": 44220326000108, "AGENTE": "MICHELLE_CAROLINE_BETONI", "ACAO": "REALIZAR_SEGUNDA_VISITA", "RAZAO_SOCIAL": "D-LIFES_COMERCIO_DE_BEBIDAS_LTDA_-_LIFE_STRONG", "ENDERECO": "RUAFERRUCIOBERTAGLIA_100_JARDIMHELENA_AMERICANA", "CIDADE": "AMERICANA", "LATITUDE": -23.5162763, "LONGITUDE": -46.6368335, "BASE": "ATENDIDOS" }, "geometry": { "type": "Point", "coordinates": [ -46.6368335, -23.5162763 ] } },
{ "type": "Feature", "properties": { "CNPJ": 53042417000183, "AGENTE": "MICHELLE_CAROLINE_BETONI", "ACAO": "REALIZAR_SEGUNDA_VISITA", "RAZAO_SOCIAL": "ZOE_WELLNESS_COMERCIO_DE_PRODUTOS_SAUDAVEIS_LTDA_-_ZOE_WELLNESS", "ENDERECO": "RUADOSPINHEIROS_801_PINHEIROS_SAOPAULO", "CIDADE": "SAO_PAULO", "LATITUDE": -23.5162775, "LONGITUDE": -46.6368544, "BASE": "ATENDIDOS" }, "geometry": { "type": "Point", "coordinates": [ -46.6368544, -23.5162775 ] } },
{ "type": "Feature", "properties": { "CNPJ": 72950801000129, "AGENTE": "MICHELLE_CAROLINE_BETONI", "ACAO": "REALIZAR_SEGUNDA_VISITA", "RAZAO_SOCIAL": "MAYARA_PIZZAS_E_LANCHONETE_LTDA_-_PRA_LEVAR_FOODIS", "ENDERECO": "ESTRADAPREFEITOBENTOROTGERDOMINGUES_109_MOMBACA_ITAPECERICADASERRA", "CIDADE": "ITAPECERICA_DA_SERRA", "LATITUDE": -23.5163034, "LONGITUDE": -46.6364848, "BASE": "ATENDIDOS" }, "geometry": { "type": "Point", "coordinates": [ -46.6364848, -23.5163034 ] } },
{ "type": "Feature", "properties": { "CNPJ": 49300527000120, "AGENTE": "MICHELLE_CAROLINE_BETONI", "ACAO": "REALIZAR_SEGUNDA_VISITA", "RAZAO_SOCIAL": "49.300.527_RITA_DE_CASSIA_GRIGOLON_COMAR_-_BONITA_COSMESTICOS_DO_BEM", "ENDERECO": "RUAADVOGADOLUIZGAMA_870_BONFIM_CAMPINAS", "CIDADE": "CAMPINAS", "LATITUDE": -23.516313, "LONGITUDE": -46.6362664, "BASE": "ATENDIDOS" }, "geometry": { "type": "Point", "coordinates": [ -46.6362664, -23.516313 ] } },
{ "type": "Feature", "properties": { "CNPJ": 45895155000171, "AGENTE": "MICHELLE_CAROLINE_BETONI", "ACAO": "REALIZAR_SEGUNDA_VISITA", "RAZAO_SOCIAL": "JULIANA_THERESA_SARTO_SHOYAMA_27342086878_-_THE_KHORA", "ENDERECO": "RUACESARVALLEJO_170_REALPARQUE_SAOPAULO", "CIDADE": "SAO_PAULO", "LATITUDE": -23.5163652, "LONGITUDE": -46.6359182, "BASE": "ATENDIDOS" }, "geometry": { "type": "Point", "coordinates": [ -46.6359182, -23.5163652 ] } },
{ "type": "Feature", "properties": { "CNPJ": 16499460000146, "AGENTE": "MICHELLE_CAROLINE_BETONI", "ACAO": "REALIZAR_SEGUNDA_VISITA", "RAZAO_SOCIAL": "CHEF_DI_SERIO_GASTRONOMIA_E_EVENTOS_LTDA_-_CHEF_DI_SERIO", "ENDERECO": "AVENIDANOVEDEJULHO_37_CENTRO_RIBEIRAOPRETO", "CIDADE": "RIBEIRAO_PRETO", "LATITUDE": -23.5163727, "LONGITUDE": -46.6373017, "BASE": "ATENDIDOS" }, "geometry": { "type": "Point", "coordinates": [ -46.6373017, -23.5163727 ] } },
{ "type": "Feature", "properties": { "CNPJ": 45859101000150, "AGENTE": "MICHELLE_CAROLINE_BETONI", "ACAO": "REALIZAR_SEGUNDA_VISITA", "RAZAO_SOCIAL": "ROCHA_&_ROCHA_GUAREI_LTDA_-_NINHO_VERDE", "ENDERECO": "AREAAREARURAL_0_AREARURALDEGUAREI_GUAREI", "CIDADE": "GUAREI", "LATITUDE": -23.5163927, "LONGITUDE": -46.6373193, "BASE": "ATENDIDOS" }, "geometry": { "type": "Point", "coordinates": [ -46.6373193, -23.5163927 ] } },
{ "type": "Feature", "properties": { "CNPJ": 36640965000196, "AGENTE": "MICHELLE_CAROLINE_BETONI", "ACAO": "REALIZAR_SEGUNDA_VISITA", "RAZAO_SOCIAL": "THAIS_ALVARENGA_24976311821_-_NANANANANA", "ENDERECO": "AREAAREARURAL_2342_AREARURALDESAOFRANCISCOXAVIER_SAOJOSEDOSCAMPOS", "CIDADE": "SAO_JOSE_DOS_CAMPOS", "LATITUDE": -23.5164025, "LONGITUDE": -46.6365307, "BASE": "ATENDIDOS" }, "geometry": { "type": "Point", "coordinates": [ -46.6365307, -23.5164025 ] } },
{ "type": "Feature", "properties": { "CNPJ": 32751662000190, "AGENTE": "MICHELLE_CAROLINE_BETONI", "ACAO": "REALIZAR_SEGUNDA_VISITA", "RAZAO_SOCIAL": "ESA_-_ESCOLA_DE_SABERES_ANCESTRAIS_LTDA_-_AROGYA", "ENDERECO": "RUADUARTEDECARVALHO_131_TATUAPE_SAOPAULO", "CIDADE": "SAO_PAULO", "LATITUDE": -23.5164113, "LONGITUDE": -46.6362571, "BASE": "ATENDIDOS" }, "geometry": { "type": "Point", "coordinates": [ -46.6362571, -23.5164113 ] } },
{ "type": "Feature", "properties": { "CNPJ": 55334567000196, "AGENTE": "MICHELLE_CAROLINE_BETONI", "ACAO": "REALIZAR_SEGUNDA_VISITA", "RAZAO_SOCIAL": "TEKA_CORDEIRO_COMERCIO_E_INDUSTRIA_LTDA_-_HOT_TERAPIC_INOVACAO_E_SAUDE", "ENDERECO": "RUACHABERA_129_VILAFORMOSA_SAOPAULO", "CIDADE": "SAO_PAULO", "LATITUDE": -23.5164427, "LONGITUDE": -46.6374213, "BASE": "ATENDIDOS" }, "geometry": { "type": "Point", "coordinates": [ -46.6374213, -23.5164427 ] } },
{ "type": "Feature", "properties": { "CNPJ": 25114386000193, "AGENTE": "MICHELLE_CAROLINE_BETONI", "ACAO": "REALIZAR_SEGUNDA_VISITA", "RAZAO_SOCIAL": "25.114.386_ANA_ZILDA_RODRIGUES_COUTINHO_-_FLORADAS_DA_SERRA", "ENDERECO": "RUADEJACEGUAVA_513_LAGOAGRANDE_EMBU-GUACU", "CIDADE": "EMBU-GUACU", "LATITUDE": -23.5164577, "LONGITUDE": -46.6365948, "BASE": "ATENDIDOS" }, "geometry": { "type": "Point", "coordinates": [ -46.6365948, -23.5164577 ] } },
{ "type": "Feature", "properties": { "CNPJ": 13462110000117, "AGENTE": "MICHELLE_CAROLINE_BETONI", "ACAO": "REALIZAR_SEGUNDA_VISITA", "RAZAO_SOCIAL": "GO_GREEN_DISTRIBUIDORA_DE_HORTIFRUTI_LTDA_-_GO_GREEN", "ENDERECO": "RUAHASSIBMOFARREJ_1101_VILALEOPOLDINA_SAOPAULO", "CIDADE": "SAO_PAULO", "LATITUDE": -23.516545, "LONGITUDE": -46.6372992, "BASE": "ATENDIDOS" }, "geometry": { "type": "Point", "coordinates": [ -46.6372992, -23.516545 ] } },
{ "type": "Feature", "properties": { "CNPJ": 50831453000138, "AGENTE": "MICHELLE_CAROLINE_BETONI", "ACAO": "REALIZAR_SEGUNDA_VISITA", "RAZAO_SOCIAL": "50.831.453_LOURDES_APARECIDA_PAULA_-_ECO_ORTA", "ENDERECO": "RUACALIXTOBARBIERI_136_I.A.P.I._OSASCO", "CIDADE": "OSASCO", "LATITUDE": -23.5165912, "LONGITUDE": -46.6362326, "BASE": "ATENDIDOS" }, "geometry": { "type": "Point", "coordinates": [ -46.6362326, -23.5165912 ] } },
{ "type": "Feature", "properties": { "CNPJ": 44536112000137, "AGENTE": "MICHELLE_CAROLINE_BETONI", "ACAO": "REALIZAR_SEGUNDA_VISITA", "RAZAO_SOCIAL": "ISN_COMERCIO_DE_SUPLEMENTOS_LTDA_-_ISN_NUTRITION", "ENDERECO": "RUATEODORODEBEAUREPAIRE_320_VILADOMPEDROI_SAOPAULO", "CIDADE": "SAO_PAULO", "LATITUDE": -23.5166246, "LONGITUDE": -46.6368045, "BASE": "ATENDIDOS" }, "geometry": { "type": "Point", "coordinates": [ -46.6368045, -23.5166246 ] } },
{ "type": "Feature", "properties": { "CNPJ": 48712883000199, "AGENTE": "MICHELLE_CAROLINE_BETONI", "ACAO": "REALIZAR_SEGUNDA_VISITA", "RAZAO_SOCIAL": "BOTICA_DA_OCA_SAUDE_VETERINARIA_LTDA_-_BOTICA_NATURAL", "ENDERECO": "AVENIDAPAULISTA_1636_BELAVISTA_SAOPAULO", "CIDADE": "SAO_PAULO", "LATITUDE": -23.5166702, "LONGITUDE": -46.6365866, "BASE": "ATENDIDOS" }, "geometry": { "type": "Point", "coordinates": [ -46.6365866, -23.5166702 ] } },
{ "type": "Feature", "properties": { "CNPJ": 32997113000108, "AGENTE": "MICHELLE_CAROLINE_BETONI", "ACAO": "REALIZAR_SEGUNDA_VISITA", "RAZAO_SOCIAL": "GRAJABEER_PUB_BAR_LTDA_-_GRAJABEER_PUB_BAR", "ENDERECO": "RUAJOSEBONIFACIOFILHO_49_JARDIMSAOBENEDITO_SAOPAULO", "CIDADE": "SAO_PAULO", "LATITUDE": -23.5166737, "LONGITUDE": -46.6362038, "BASE": "ATENDIDOS" }, "geometry": { "type": "Point", "coordinates": [ -46.6362038, -23.5166737 ] } },
{ "type": "Feature", "properties": { "CNPJ": 25961328000103, "AGENTE": "MICHELLE_CAROLINE_BETONI", "ACAO": "REALIZAR_SEGUNDA_VISITA", "RAZAO_SOCIAL": "ALBENIA_SILVA_DE_PAIVA_03330776447_-_TUPIOCAS__TAPIOCARIA_GOURMET", "ENDERECO": "AVENIDADUQUEDECAXIAS_925_CAMPOSELISEOS_SAOPAULO", "CIDADE": "SAO_PAULO", "LATITUDE": -23.5166752, "LONGITUDE": -46.6362293, "BASE": "ATENDIDOS" }, "geometry": { "type": "Point", "coordinates": [ -46.6362293, -23.5166752 ] } },
{ "type": "Feature", "properties": { "CNPJ": 32514957000142, "AGENTE": "MICHELLE_CAROLINE_BETONI", "ACAO": "REALIZAR_SEGUNDA_VISITA", "RAZAO_SOCIAL": "IAMANI_COMERCIO_DE_PRODUTOS_NATURAIS_LTDA_-_IAMANI", "ENDERECO": "RUAFERREIRADEARAUJO_1029_PINHEIROS_SAOPAULO", "CIDADE": "SAO_PAULO", "LATITUDE": -23.5167004, "LONGITUDE": -46.6363125, "BASE": "ATENDIDOS" }, "geometry": { "type": "Point", "coordinates": [ -46.6363125, -23.5167004 ] } },
{ "type": "Feature", "properties": { "CNPJ": 48645807000108, "AGENTE": "MICHELLE_CAROLINE_BETONI", "ACAO": "REALIZAR_SEGUNDA_VISITA", "RAZAO_SOCIAL": "BRUNA_MARQUES_CARDOSO_ALVES_PEREIRA_42223727816_-_BRUNA_MARQUES", "ENDERECO": "RUADENDEZEIRO_58_JARDIMMATARAZZO_SAOPAULO", "CIDADE": "SAO_PAULO", "LATITUDE": -23.5167562, "LONGITUDE": -46.6362917, "BASE": "ATENDIDOS" }, "geometry": { "type": "Point", "coordinates": [ -46.6362917, -23.5167562 ] } },
{ "type": "Feature", "properties": { "CNPJ": 42859345000145, "AGENTE": "MICHELLE_CAROLINE_BETONI", "ACAO": "REALIZAR_SEGUNDA_VISITA", "RAZAO_SOCIAL": "OPEN_DRINK_INDUSTRIA_DE_ALIMENTOS_E_BEBIDAS_LTDA_-_OPEN_DRINKS", "ENDERECO": "AVENIDAOLAVOFONTOURA_1209_PARQUEANHEMBI_SAOPAULO", "CIDADE": "SAO_PAULO", "LATITUDE": -23.5167988, "LONGITUDE": -46.6374898, "BASE": "ATENDIDOS" }, "geometry": { "type": "Point", "coordinates": [ -46.6374898, -23.5167988 ] } },
{ "type": "Feature", "properties": { "CNPJ": 51538351000191, "AGENTE": "MICHELLE_CAROLINE_BETONI", "ACAO": "REALIZAR_SEGUNDA_VISITA", "RAZAO_SOCIAL": "TIS_MARKETING_E_PROPAGANDA_LTDA_-_ACQUA.TIS", "ENDERECO": "RUAFRANCISCOTRAMONTANO_101_REALPARK_SAOPAULO", "CIDADE": "SAO_PAULO", "LATITUDE": -23.5168424, "LONGITUDE": -46.6365646, "BASE": "ATENDIDOS" }, "geometry": { "type": "Point", "coordinates": [ -46.6365646, -23.5168424 ] } },
{ "type": "Feature", "properties": { "CNPJ": 46127476000199, "AGENTE": "MICHELLE_CAROLINE_BETONI", "ACAO": "REALIZAR_SEGUNDA_VISITA", "RAZAO_SOCIAL": "BE_MULTI_SUPLEMENTOS_LTDA_-_BE._MULTTI", "ENDERECO": "RUACREUSAFERREIRALIMADESOUZAARAUJO_69_POLVILHO_CAJAMAR", "CIDADE": "CAJAMAR", "LATITUDE": -23.5168508, "LONGITUDE": -46.6360145, "BASE": "ATENDIDOS" }, "geometry": { "type": "Point", "coordinates": [ -46.6360145, -23.5168508 ] } },
{ "type": "Feature", "properties": { "CNPJ": 15400406000139, "AGENTE": "MICHELLE_CAROLINE_BETONI", "ACAO": "REALIZAR_SEGUNDA_VISITA", "RAZAO_SOCIAL": "15.400.406_PAULA_SOLER_GUIMARAES_-_KIPPYS_NATURAL", "ENDERECO": "AVENIDAVIRGILIOSOEIRA_1770_JAMILCURY_RIBEIRAOPRETO", "CIDADE": "RIBEIRAO_PRETO", "LATITUDE": -23.5168786, "LONGITUDE": -46.6366079, "BASE": "ATENDIDOS" }, "geometry": { "type": "Point", "coordinates": [ -46.6366079, -23.5168786 ] } },
{ "type": "Feature", "properties": { "CNPJ": 4917755000106, "AGENTE": "MICHELLE_CAROLINE_BETONI", "ACAO": "REALIZAR_SEGUNDA_VISITA", "RAZAO_SOCIAL": "ESSENCIA_DO_VALE_ALIMENTOS_LTDA_-_ESSENCIA_DO_VALE", "ENDERECO": "RODOVIADOUTORAVELINOJUNIOR_901_ENTRERIOS_CRUZEIRO", "CIDADE": "CRUZEIRO", "LATITUDE": -23.5168986, "LONGITUDE": -46.6369164, "BASE": "ATENDIDOS" }, "geometry": { "type": "Point", "coordinates": [ -46.6369164, -23.5168986 ] } },
{ "type": "Feature", "properties": { "CNPJ": 48392615000137, "AGENTE": "MICHELLE_CAROLINE_BETONI", "ACAO": "REALIZAR_SEGUNDA_VISITA", "RAZAO_SOCIAL": "DOLCE_PETS_COMERCIO_DE_ARTIGOS_E_ACESSORIOS_LTDA_-_DOLCE_PETS", "ENDERECO": "ALAMEDABARAODELIMEIRA_1269_CAMPOSELISEOS_SAOPAULO", "CIDADE": "SAO_PAULO", "LATITUDE": -23.5309251, "LONGITUDE": -46.6502717, "BASE": "ATENDIDOS" }, "geometry": { "type": "Point", "coordinates": [ -46.6502717, -23.5309251 ] } },
{ "type": "Feature", "properties": { "CNPJ": 19842630000212, "AGENTE": "MICHELLE_CAROLINE_BETONI", "ACAO": "REALIZAR_SEGUNDA_VISITA", "RAZAO_SOCIAL": "I_LOVE_ME_SERVICOS_DE_BELEZA_LTDA_-_I_LOVE_ME_SERVICOS_DE_BELEZA", "ENDERECO": "ALAMEDABARAODELIMEIRA_1253_CAMPOSELISEOS_SAOPAULO", "CIDADE": "SAO_PAULO", "LATITUDE": -23.5312393, "LONGITUDE": -46.6503141, "BASE": "ATENDIDOS" }, "geometry": { "type": "Point", "coordinates": [ -46.6503141, -23.5312393 ] } },
{ "type": "Feature", "properties": { "CNPJ": 60427875000104, "AGENTE": "MICHELLE_CAROLINE_BETONI", "ACAO": "REALIZAR_SEGUNDA_VISITA", "RAZAO_SOCIAL": "60.427.875_JOSELIA_RODRIGUES_SILVA_FREITAS_-_PAO_DE_LO", "ENDERECO": "ALAMEDARIBEIRODASILVA_594_CAMPOSELISEOS_SAOPAULO", "CIDADE": "SAO_PAULO", "LATITUDE": -23.5321079, "LONGITUDE": -46.6488924, "BASE": "ATENDIDOS" }, "geometry": { "type": "Point", "coordinates": [ -46.6488924, -23.5321079 ] } },
{ "type": "Feature", "properties": { "CNPJ": 31597368000102, "AGENTE": "MICHELLE_CAROLINE_BETONI", "ACAO": "REALIZAR_SEGUNDA_VISITA", "RAZAO_SOCIAL": "RESTAURANTE_E_PIZZARIA_REI_DA_BARAO_LTDA_-_RESTAURANTE_E_PIZZARIA_REGO_DA_BARAO", "ENDERECO": "ALAMEDABARAODELIMEIRA_1090_CAMPOSELISEOS_SAOPAULO", "CIDADE": "SAO_PAULO", "LATITUDE": -23.5322611, "LONGITUDE": -46.6490563, "BASE": "ATENDIDOS" }, "geometry": { "type": "Point", "coordinates": [ -46.6490563, -23.5322611 ] } },
{ "type": "Feature", "properties": { "CNPJ": 35516134000144, "AGENTE": "MICHELLE_CAROLINE_BETONI", "ACAO": "REALIZAR_SEGUNDA_VISITA", "RAZAO_SOCIAL": "35.516.134_JOERLAN_VIEIRA_DOS_SANTOS_-_MARRE_BOM_CONFEITARIA", "ENDERECO": "ALAMEDARIBEIRODASILVA_611_CAMPOSELISEOS_SAOPAULO", "CIDADE": "SAO_PAULO", "LATITUDE": -23.5323113, "LONGITUDE": -46.6490099, "BASE": "ATENDIDOS" }, "geometry": { "type": "Point", "coordinates": [ -46.6490099, -23.5323113 ] } },
{ "type": "Feature", "properties": { "CNPJ": 48522294000148, "AGENTE": "MICHELLE_CAROLINE_BETONI", "ACAO": "REALIZAR_SEGUNDA_VISITA", "RAZAO_SOCIAL": "MARCELIO_BONFIM_MARTINS_89224337520_-_BAR_E_LANCHONETE_BATE_PAPO", "ENDERECO": "RUACOMANDANTETAYLOR_139_IPIRANGA_SAOPAULO", "CIDADE": "SAO_PAULO", "LATITUDE": -23.5323567, "LONGITUDE": -46.5785217, "BASE": "ATENDIDOS" }, "geometry": { "type": "Point", "coordinates": [ -46.5785217, -23.5323567 ] } },
{ "type": "Feature", "properties": { "CNPJ": 24808352000136, "AGENTE": "MICHELLE_CAROLINE_BETONI", "ACAO": "REALIZAR_SEGUNDA_VISITA", "RAZAO_SOCIAL": "24.808.352_MARCOS_ROGERIO_FABIO_-_BARBAROS_BARBEARIA", "ENDERECO": "ALAMEDARIBEIRODASILVA_619_CAMPOSELISEOS_SAOPAULO", "CIDADE": "SAO_PAULO", "LATITUDE": -23.5323631, "LONGITUDE": -46.649064, "BASE": "ATENDIDOS" }, "geometry": { "type": "Point", "coordinates": [ -46.649064, -23.5323631 ] } },
{ "type": "Feature", "properties": { "CNPJ": 17986867000160, "AGENTE": "MICHELLE_CAROLINE_BETONI", "ACAO": "REALIZAR_SEGUNDA_VISITA", "RAZAO_SOCIAL": "LANCHONETE_PRINCESA_DA_BARAO_LTDA_-_LANCHONETE_JABUTI", "ENDERECO": "ALAMEDABARAODELIMEIRA_1069_CAMPOSELISEOS_SAOPAULO", "CIDADE": "SAO_PAULO", "LATITUDE": -23.5326161, "LONGITUDE": -46.6494964, "BASE": "ATENDIDOS" }, "geometry": { "type": "Point", "coordinates": [ -46.6494964, -23.5326161 ] } },
{ "type": "Feature", "properties": { "CNPJ": 8578349000117, "AGENTE": "MICHELLE_CAROLINE_BETONI", "ACAO": "REALIZAR_SEGUNDA_VISITA", "RAZAO_SOCIAL": "GSM_GLOBAL_TELECOM_LTDA_-_GSM_GLOBAL", "ENDERECO": "ALAMEDABARAODELIMEIRA_1051_CAMPOSELISEOS_SAOPAULO", "CIDADE": "SAO_PAULO", "LATITUDE": -23.5326363, "LONGITUDE": -46.6492153, "BASE": "ATENDIDOS" }, "geometry": { "type": "Point", "coordinates": [ -46.6492153, -23.5326363 ] } },
{ "type": "Feature", "properties": { "CNPJ": 5909741000103, "AGENTE": "MICHELLE_CAROLINE_BETONI", "ACAO": "REALIZAR_SEGUNDA_VISITA", "RAZAO_SOCIAL": "ALBERTO_DINIZ_OLIVEIRA_-_BETO_DINIZ_CABELO_E_ESTETICA", "ENDERECO": "ALAMEDARIBEIRODASILVA_687_CAMPOSELISEOS_SAOPAULO", "CIDADE": "SAO_PAULO", "LATITUDE": -23.5327011, "LONGITUDE": -46.6496337, "BASE": "ATENDIDOS" }, "geometry": { "type": "Point", "coordinates": [ -46.6496337, -23.5327011 ] } },
{ "type": "Feature", "properties": { "CNPJ": 46416707000184, "AGENTE": "MICHELLE_CAROLINE_BETONI", "ACAO": "REALIZAR_SEGUNDA_VISITA", "RAZAO_SOCIAL": "FOTO_HIGASHI_&_ARAI_LTDA_-_ASAOTICA", "ENDERECO": "ALAMEDABARAODELIMEIRA_1045_CAMPOSELISEOS_SAOPAULO", "CIDADE": "SAO_PAULO", "LATITUDE": -23.5327481, "LONGITUDE": -46.6491029, "BASE": "ATENDIDOS" }, "geometry": { "type": "Point", "coordinates": [ -46.6491029, -23.5327481 ] } },
{ "type": "Feature", "properties": { "CNPJ": 32866604000101, "AGENTE": "MICHELLE_CAROLINE_BETONI", "ACAO": "REALIZAR_SEGUNDA_VISITA", "RAZAO_SOCIAL": "PAOLA_GISELLA_MARTINANGELO_FERREIRA_04940039870_-_MARTINANGELO_RESTAURANTE", "ENDERECO": "ALAMEDARIBEIRODASILVA_707_CAMPOSELISEOS_SAOPAULO", "CIDADE": "SAO_PAULO", "LATITUDE": -23.532806, "LONGITUDE": -46.6496963, "BASE": "ATENDIDOS" }, "geometry": { "type": "Point", "coordinates": [ -46.6496963, -23.532806 ] } },
{ "type": "Feature", "properties": { "CNPJ": 55224968000193, "AGENTE": "MICHELLE_CAROLINE_BETONI", "ACAO": "REALIZAR_SEGUNDA_VISITA", "RAZAO_SOCIAL": "SALAO_DE_BELEZA_SILVIO_LTDA_-_SILVIO_CABELEIREIROS", "ENDERECO": "ALAMEDABARAODELIMEIRA_1026_CAMPOSELISEOS_SAOPAULO", "CIDADE": "SAO_PAULO", "LATITUDE": -23.5328339, "LONGITUDE": -46.648989, "BASE": "ATENDIDOS" }, "geometry": { "type": "Point", "coordinates": [ -46.648989, -23.5328339 ] } },
{ "type": "Feature", "properties": { "CNPJ": 61133757000148, "AGENTE": "MICHELLE_CAROLINE_BETONI", "ACAO": "REALIZAR_SEGUNDA_VISITA", "RAZAO_SOCIAL": "VILA_MINEIRA_BAR_E_DRINKS_LTDA_-_VILA_MINEIRA_RESTAURANTE", "ENDERECO": "ALAMEDABARAODELIMEIRA_987_CAMPOSELISEOS_SAOPAULO", "CIDADE": "SAO_PAULO", "LATITUDE": -23.5332499, "LONGITUDE": -46.6489351, "BASE": "ATENDIDOS" }, "geometry": { "type": "Point", "coordinates": [ -46.6489351, -23.5332499 ] } },
{ "type": "Feature", "properties": { "CNPJ": 24230378000140, "AGENTE": "MICHELLE_CAROLINE_BETONI", "ACAO": "REALIZAR_SEGUNDA_VISITA", "RAZAO_SOCIAL": "BARAO_PERICIAS_E_VISTORIAS_AUTOMOTIVAS_LTDA._-_VISTORIA._COM.BR", "ENDERECO": "ALAMEDABARAODELIMEIRA_923_CAMPOSELISEOS_SAOPAULO", "CIDADE": "SAO_PAULO", "LATITUDE": -23.5336727, "LONGITUDE": -46.6485178, "BASE": "ATENDIDOS" }, "geometry": { "type": "Point", "coordinates": [ -46.6485178, -23.5336727 ] } },
{ "type": "Feature", "properties": { "CNPJ": 37455388000125, "AGENTE": "MICHELLE_CAROLINE_BETONI", "ACAO": "REALIZAR_SEGUNDA_VISITA", "RAZAO_SOCIAL": "CAMPOS_ELISEOS_EMPLACAR'S_SERVICOS_DE_EMPLACAMENTO_LTDA_-_EMPLACARS", "ENDERECO": "ALAMEDABARAODELIMEIRA_903_CAMPOSELISEOS_SAOPAULO", "CIDADE": "SAO_PAULO", "LATITUDE": -23.5338474, "LONGITUDE": -46.6483412, "BASE": "ATENDIDOS" }, "geometry": { "type": "Point", "coordinates": [ -46.6483412, -23.5338474 ] } },
{ "type": "Feature", "properties": { "CNPJ": 45218717000142, "AGENTE": "MICHELLE_CAROLINE_BETONI", "ACAO": "REALIZAR_SEGUNDA_VISITA", "RAZAO_SOCIAL": "M.M_COMERCIO_DE_VEICULOS_E_SERVICOS_AUTOMOTIVOS_LTDA_-_MM_COMERCIO_DE_VEICULOS_E_SERVICOS", "ENDERECO": "ALAMEDABARAODELIMEIRA_812_CAMPOSELISEOS_SAOPAULO", "CIDADE": "SAO_PAULO", "LATITUDE": -23.534128, "LONGITUDE": -46.6473749, "BASE": "ATENDIDOS" }, "geometry": { "type": "Point", "coordinates": [ -46.6473749, -23.534128 ] } },
{ "type": "Feature", "properties": { "CNPJ": 19435483000185, "AGENTE": "MICHELLE_CAROLINE_BETONI", "ACAO": "REALIZAR_SEGUNDA_VISITA", "RAZAO_SOCIAL": "LTM_&_ARAUJO_SERVICOS_LTDA_-_EVOLUTTION_VISTORIA", "ENDERECO": "ALAMEDABARAODELIMEIRA_753_CAMPOSELISEOS_SAOPAULO", "CIDADE": "SAO_PAULO", "LATITUDE": -23.5349314, "LONGITUDE": -46.6477003, "BASE": "ATENDIDOS" }, "geometry": { "type": "Point", "coordinates": [ -46.6477003, -23.5349314 ] } },
{ "type": "Feature", "properties": { "CNPJ": 42620705000151, "AGENTE": "MICHELLE_CAROLINE_BETONI", "ACAO": "REALIZAR_SEGUNDA_VISITA", "RAZAO_SOCIAL": "42.620.705_STEFANE_MARIA_RODRIGUES_DA_SILVA_-_ALEMAO_E_CIA_AGUAS", "ENDERECO": "ALAMEDANOTHMANN_989_CAMPOSELISEOS_SAOPAULO", "CIDADE": "SAO_PAULO", "LATITUDE": -23.5350353, "LONGITUDE": -46.6500227, "BASE": "ATENDIDOS" }, "geometry": { "type": "Point", "coordinates": [ -46.6500227, -23.5350353 ] } },
{ "type": "Feature", "properties": { "CNPJ": 38169909000140, "AGENTE": "MICHELLE_CAROLINE_BETONI", "ACAO": "REALIZAR_SEGUNDA_VISITA", "RAZAO_SOCIAL": "JOSE_ERINALDO_CONCEICAO_GUIMARAES_-_BAR_E_RESTAURANTE_DO_NALDO", "ENDERECO": "ALAMEDABARAODELIMEIRA_729_CAMPOSELISEOS_SAOPAULO", "CIDADE": "SAO_PAULO", "LATITUDE": -23.5350743, "LONGITUDE": -46.6472342, "BASE": "ATENDIDOS" }, "geometry": { "type": "Point", "coordinates": [ -46.6472342, -23.5350743 ] } },
{ "type": "Feature", "properties": { "CNPJ": 46695646000131, "AGENTE": "MICHELLE_CAROLINE_BETONI", "ACAO": "REALIZAR_SEGUNDA_VISITA", "RAZAO_SOCIAL": "DR_COMERCIO_DE_PECAS_E_ACESSORIOS_PARA_REFRIGERACAO_LTDA_-_DR_REFRIGERACAO", "ENDERECO": "ALAMEDAGLETE_670_CAMPOSELISEOS_SAOPAULO", "CIDADE": "SAO_PAULO", "LATITUDE": -23.5354363, "LONGITUDE": -46.6473469, "BASE": "ATENDIDOS" }, "geometry": { "type": "Point", "coordinates": [ -46.6473469, -23.5354363 ] } },
{ "type": "Feature", "properties": { "CNPJ": 42629918000225, "AGENTE": "MICHELLE_CAROLINE_BETONI", "ACAO": "REALIZAR_SEGUNDA_VISITA", "RAZAO_SOCIAL": "BRAD_PET_BOUTIQUE_E_ESTETICA_ANIMAL_LTDA_-_BRAD_PET_SHOP", "ENDERECO": "ALAMEDANOTHMANN_1029_CAMPOSELISEOS_SAOPAULO", "CIDADE": "SAO_PAULO", "LATITUDE": -23.5354446, "LONGITUDE": -46.6502377, "BASE": "ATENDIDOS" }, "geometry": { "type": "Point", "coordinates": [ -46.6502377, -23.5354446 ] } },
{ "type": "Feature", "properties": { "CNPJ": 49159195000106, "AGENTE": "MICHELLE_CAROLINE_BETONI", "ACAO": "REALIZAR_SEGUNDA_VISITA", "RAZAO_SOCIAL": "49.159.195_JUCIANE_SALES_PEREIRA_-_JU_TE_VESTE", "ENDERECO": "ALAMEDABARAODELIMEIRA_620_CAMPOSELISEOS_SAOPAULO", "CIDADE": "SAO_PAULO", "LATITUDE": -23.5357821, "LONGITUDE": -46.6465075, "BASE": "ATENDIDOS" }, "geometry": { "type": "Point", "coordinates": [ -46.6465075, -23.5357821 ] } },
{ "type": "Feature", "properties": { "CNPJ": 23966079000105, "AGENTE": "MICHELLE_CAROLINE_BETONI", "ACAO": "REALIZAR_SEGUNDA_VISITA", "RAZAO_SOCIAL": "LANCHONETE_CAFE_NO_PONTO_LTDA_-_LANCHONETE_CAFE_NO_PONTO", "ENDERECO": "AVENIDASAOJOAO_1997_VILABUARQUE_SAOPAULO", "CIDADE": "SAO_PAULO", "LATITUDE": -23.5361259, "LONGITUDE": -46.6515809, "BASE": "ATENDIDOS" }, "geometry": { "type": "Point", "coordinates": [ -46.6515809, -23.5361259 ] } },
{ "type": "Feature", "properties": { "CNPJ": 60559820000140, "AGENTE": "MICHELLE_CAROLINE_BETONI", "ACAO": "REALIZAR_SEGUNDA_VISITA", "RAZAO_SOCIAL": "CAFE_E_LANCHES_SAO_JOSE_LTDA_-_ALDINOS_RESTAURANTE", "ENDERECO": "ALAMEDABARAODELIMEIRA_548_CAMPOSELISEOS_SAOPAULO", "CIDADE": "SAO_PAULO", "LATITUDE": -23.5362217, "LONGITUDE": -46.6461162, "BASE": "ATENDIDOS" }, "geometry": { "type": "Point", "coordinates": [ -46.6461162, -23.5362217 ] } },
{ "type": "Feature", "properties": { "CNPJ": 45217524000177, "AGENTE": "MICHELLE_CAROLINE_BETONI", "ACAO": "REALIZAR_SEGUNDA_VISITA", "RAZAO_SOCIAL": "ZOOM_OFFICE_MOVEIS_LTDA_-_ZOOM_OFFICE_MOVEIS", "ENDERECO": "AVENIDASAOJOAO_1959_VILABUARQUE_SAOPAULO", "CIDADE": "SAO_PAULO", "LATITUDE": -23.5362673, "LONGITUDE": -46.651152, "BASE": "ATENDIDOS" }, "geometry": { "type": "Point", "coordinates": [ -46.651152, -23.5362673 ] } },
{ "type": "Feature", "properties": { "CNPJ": 37484109000151, "AGENTE": "MICHELLE_CAROLINE_BETONI", "ACAO": "REALIZAR_SEGUNDA_VISITA", "RAZAO_SOCIAL": "VANDA_LUCIA_DOS_SANTOS_PINHEIRO_29199948320_-_MV_CABELEIREIROS", "ENDERECO": "ALAMEDANOTHMANN_1243_CAMPOSELISEOS_SAOPAULO", "CIDADE": "SAO_PAULO", "LATITUDE": -23.5363415, "LONGITUDE": -46.6520332, "BASE": "ATENDIDOS" }, "geometry": { "type": "Point", "coordinates": [ -46.6520332, -23.5363415 ] } },
{ "type": "Feature", "properties": { "CNPJ": 6219762000160, "AGENTE": "MICHELLE_CAROLINE_BETONI", "ACAO": "REALIZAR_SEGUNDA_VISITA", "RAZAO_SOCIAL": "OTANIEL_CARDOSO_DA_SILVA_MECANICA_-_RETANCAR", "ENDERECO": "RUAHELVETIA_656_CAMPOSELISEOS_SAOPAULO", "CIDADE": "SAO_PAULO", "LATITUDE": -23.5363601, "LONGITUDE": -46.6465018, "BASE": "ATENDIDOS" }, "geometry": { "type": "Point", "coordinates": [ -46.6465018, -23.5363601 ] } },
{ "type": "Feature", "properties": { "CNPJ": 5529633000105, "AGENTE": "MICHELLE_CAROLINE_BETONI", "ACAO": "REALIZAR_SEGUNDA_VISITA", "RAZAO_SOCIAL": "PET_SHOP-SANTOS_COMERCIO_DE_RACOES_PARA_CAES_E_GATOS_LTDA_-_PET_SHOP_SANTOS", "ENDERECO": "RUABARAODETATUI_64_SANTACECILIA_SAOPAULO", "CIDADE": "SAO_PAULO", "LATITUDE": -23.5365729, "LONGITUDE": -46.6532237, "BASE": "ATENDIDOS" }, "geometry": { "type": "Point", "coordinates": [ -46.6532237, -23.5365729 ] } },
{ "type": "Feature", "properties": { "CNPJ": 55066352000131, "AGENTE": "MICHELLE_CAROLINE_BETONI", "ACAO": "REALIZAR_SEGUNDA_VISITA", "RAZAO_SOCIAL": "COMERCIO_DE_MATERIAL_DE_CONSTRUCAO_IDEAL_LTDA_-_IDEAL_MATERIAIS_DE_CONSTRUCAO", "ENDERECO": "RUABARAODETATUI_55_SANTACECILIA_SAOPAULO", "CIDADE": "SAO_PAULO", "LATITUDE": -23.5365862, "LONGITUDE": -46.6530229, "BASE": "ATENDIDOS" }, "geometry": { "type": "Point", "coordinates": [ -46.6530229, -23.5365862 ] } },
{ "type": "Feature", "properties": { "CNPJ": 45985513000137, "AGENTE": "MICHELLE_CAROLINE_BETONI", "ACAO": "REALIZAR_SEGUNDA_VISITA", "RAZAO_SOCIAL": "PPLI_ESTETICA_E_BELEZA_LTDA_-_BEAUTY_B_BELEZA_E_ESTETICA", "ENDERECO": "RUABARAODETATUI_75_VILABUARQUE_SAOPAULO", "CIDADE": "SAO_PAULO", "LATITUDE": -23.5367773, "LONGITUDE": -46.6531585, "BASE": "ATENDIDOS" }, "geometry": { "type": "Point", "coordinates": [ -46.6531585, -23.5367773 ] } },
{ "type": "Feature", "properties": { "CNPJ": 31547393000181, "AGENTE": "MICHELLE_CAROLINE_BETONI", "ACAO": "REALIZAR_SEGUNDA_VISITA", "RAZAO_SOCIAL": "BARBEARIA_VEGAS_LTDA_-_BARBEARIA_VEGAS", "ENDERECO": "ALAMEDABARROS_268_SANTACECILIA_SAOPAULO", "CIDADE": "SAO_PAULO", "LATITUDE": -23.5370498, "LONGITUDE": -46.6537682, "BASE": "ATENDIDOS" }, "geometry": { "type": "Point", "coordinates": [ -46.6537682, -23.5370498 ] } },
{ "type": "Feature", "properties": { "CNPJ": 26841816000131, "AGENTE": "MICHELLE_CAROLINE_BETONI", "ACAO": "REALIZAR_SEGUNDA_VISITA", "RAZAO_SOCIAL": "RAFAEL_FERNANDO_DOS_SANTOS_GUIMARAES_40991152832_-_RAFA_REPARACOES_DE_CELULARES", "ENDERECO": "ALAMEDABARROS_270_SANTACECILIA_SAOPAULO", "CIDADE": "SAO_PAULO", "LATITUDE": -23.5370821, "LONGITUDE": -46.653799, "BASE": "ATENDIDOS" }, "geometry": { "type": "Point", "coordinates": [ -46.653799, -23.5370821 ] } },
{ "type": "Feature", "properties": { "CNPJ": 61078051000120, "AGENTE": "MICHELLE_CAROLINE_BETONI", "ACAO": "REALIZAR_SEGUNDA_VISITA", "RAZAO_SOCIAL": "BAR_E_LANCHES_JOIA_DO_MONDEGO_LTDA_-_MONDEGO_BAR", "ENDERECO": "RUABARAODETATUI_128_VILABUARQUE_SAOPAULO", "CIDADE": "SAO_PAULO", "LATITUDE": -23.5370944, "LONGITUDE": -46.6535631, "BASE": "ATENDIDOS" }, "geometry": { "type": "Point", "coordinates": [ -46.6535631, -23.5370944 ] } },
{ "type": "Feature", "properties": { "CNPJ": 863855000146, "AGENTE": "MICHELLE_CAROLINE_BETONI", "ACAO": "REALIZAR_SEGUNDA_VISITA", "RAZAO_SOCIAL": "CIGRECAR_ACESSORIOS_E_PECAS_P_AUTOS_LTDA_-_LIDER_101", "ENDERECO": "ALAMEDABARAODELIMEIRA_436_CAMPOSELISEOS_SAOPAULO", "CIDADE": "SAO_PAULO", "LATITUDE": -23.5371108, "LONGITUDE": -46.6454291, "BASE": "ATENDIDOS" }, "geometry": { "type": "Point", "coordinates": [ -46.6454291, -23.5371108 ] } },
{ "type": "Feature", "properties": { "CNPJ": 61538476000175, "AGENTE": "MICHELLE_CAROLINE_BETONI", "ACAO": "REALIZAR_SEGUNDA_VISITA", "RAZAO_SOCIAL": "BAR_E_LANCHES_CABRAL_LTDA_-_LANCHONETE_E_RESTAURANTE_CABRAL", "ENDERECO": "RUABARAODETATUI_154_VILABUARQUE_SAOPAULO", "CIDADE": "SAO_PAULO", "LATITUDE": -23.5372573, "LONGITUDE": -46.6535644, "BASE": "ATENDIDOS" }, "geometry": { "type": "Point", "coordinates": [ -46.6535644, -23.5372573 ] } },
{ "type": "Feature", "properties": { "CNPJ": 31334580000187, "AGENTE": "MICHELLE_CAROLINE_BETONI", "ACAO": "REALIZAR_SEGUNDA_VISITA", "RAZAO_SOCIAL": "JOAO_JORGE_MARTINS_FREITAS_05612509871_-_JJC_ATELIER", "ENDERECO": "RUADASPALMEIRAS_257_VILABUARQUE_SAOPAULO", "CIDADE": "SAO_PAULO", "LATITUDE": -23.5373378, "LONGITUDE": -46.6515997, "BASE": "ATENDIDOS" }, "geometry": { "type": "Point", "coordinates": [ -46.6515997, -23.5373378 ] } },
{ "type": "Feature", "properties": { "CNPJ": 20666537000100, "AGENTE": "MICHELLE_CAROLINE_BETONI", "ACAO": "REALIZAR_SEGUNDA_VISITA", "RAZAO_SOCIAL": "FABIANA_DE_MONTES_NOVAES_33437243861_-_MUNDO_DE_MAGIA", "ENDERECO": "ALAMEDAGLETE_1067_CAMPOSELISEOS_SAOPAULO", "CIDADE": "SAO_PAULO", "LATITUDE": -23.537362, "LONGITUDE": -46.650704, "BASE": "ATENDIDOS" }, "geometry": { "type": "Point", "coordinates": [ -46.650704, -23.537362 ] } },
{ "type": "Feature", "properties": { "CNPJ": 50224771000130, "AGENTE": "MICHELLE_CAROLINE_BETONI", "ACAO": "REALIZAR_SEGUNDA_VISITA", "RAZAO_SOCIAL": "MAGNIFICO_CARNES_LTDA_-_MAGNIFICO_BOUTIQUE_DE_CARNES", "ENDERECO": "RUADASPALMEIRAS_200_VILABUARQUE_SAOPAULO", "CIDADE": "SAO_PAULO", "LATITUDE": -23.5374626, "LONGITUDE": -46.6510342, "BASE": "ATENDIDOS" }, "geometry": { "type": "Point", "coordinates": [ -46.6510342, -23.5374626 ] } },
{ "type": "Feature", "properties": { "CNPJ": 62363270000114, "AGENTE": "MICHELLE_CAROLINE_BETONI", "ACAO": "REALIZAR_SEGUNDA_VISITA", "RAZAO_SOCIAL": "PANIFICADORA_E_DOCES_CAXIAS_LTDA_-_PADARIA_CAXIAS", "ENDERECO": "ALAMEDABARAODELIMEIRA_360_CAMPOSELISEOS_SAOPAULO", "CIDADE": "SAO_PAULO", "LATITUDE": -23.5377052, "LONGITUDE": -46.6449389, "BASE": "ATENDIDOS" }, "geometry": { "type": "Point", "coordinates": [ -46.6449389, -23.5377052 ] } },
{ "type": "Feature", "properties": { "CNPJ": 45848900000121, "AGENTE": "MICHELLE_CAROLINE_BETONI", "ACAO": "REALIZAR_SEGUNDA_VISITA", "RAZAO_SOCIAL": "OTICA_DAMFER_LTDA_-_OTICA_DANFER", "ENDERECO": "RUAMARTIMFRANCISCO_15_VILABUARQUE_SAOPAULO", "CIDADE": "SAO_PAULO", "LATITUDE": -23.537744, "LONGITUDE": -46.6508826, "BASE": "ATENDIDOS" }, "geometry": { "type": "Point", "coordinates": [ -46.6508826, -23.537744 ] } },
{ "type": "Feature", "properties": { "CNPJ": 61062908000114, "AGENTE": "MICHELLE_CAROLINE_BETONI", "ACAO": "REALIZAR_SEGUNDA_VISITA", "RAZAO_SOCIAL": "CONSERTAE_LTDA_-_CONSERTAE", "ENDERECO": "RUAMARTIMFRANCISCO_25_SANTACECILIA_SAOPAULO", "CIDADE": "SAO_PAULO", "LATITUDE": -23.5378227, "LONGITUDE": -46.650956, "BASE": "ATENDIDOS" }, "geometry": { "type": "Point", "coordinates": [ -46.650956, -23.5378227 ] } },
{ "type": "Feature", "properties": { "CNPJ": 5594449000149, "AGENTE": "MICHELLE_CAROLINE_BETONI", "ACAO": "REALIZAR_SEGUNDA_VISITA", "RAZAO_SOCIAL": "ARTE_&_DESIGN_COMERCIO_DE_MOLDURAS_LTDA_-_ARTE_&_DESIGN", "ENDERECO": "RUABARAODETATUI_219_VILABUARQUE_SAOPAULO", "CIDADE": "SAO_PAULO", "LATITUDE": -23.537863, "LONGITUDE": -46.6535424, "BASE": "ATENDIDOS" }, "geometry": { "type": "Point", "coordinates": [ -46.6535424, -23.537863 ] } },
{ "type": "Feature", "properties": { "CNPJ": 28464794000163, "AGENTE": "MICHELLE_CAROLINE_BETONI", "ACAO": "REALIZAR_SEGUNDA_VISITA", "RAZAO_SOCIAL": "28.464.794_SILVANA_MARIA_BEZERRA_SILVA_-_SILVANA_BEZERRA_STUDIO", "ENDERECO": "RUAMARTIMFRANCISCO_45_VILABUARQUE_SAOPAULO", "CIDADE": "SAO_PAULO", "LATITUDE": -23.5379711, "LONGITUDE": -46.6510641, "BASE": "ATENDIDOS" }, "geometry": { "type": "Point", "coordinates": [ -46.6510641, -23.5379711 ] } },
{ "type": "Feature", "properties": { "CNPJ": 41907592000107, "AGENTE": "MICHELLE_CAROLINE_BETONI", "ACAO": "REALIZAR_SEGUNDA_VISITA", "RAZAO_SOCIAL": "BAR_E_LANCHONETE_IMPERIO_DA_SAO_JOAO_LTDA_-_LANCHONETE_IMPERIO_DA_SAO_JOAO", "ENDERECO": "AVENIDASAOJOAO_1587_CAMPOSELISEOS_SAOPAULO", "CIDADE": "SAO_PAULO", "LATITUDE": -23.5380065, "LONGITUDE": -46.6478351, "BASE": "ATENDIDOS" }, "geometry": { "type": "Point", "coordinates": [ -46.6478351, -23.5380065 ] } },
{ "type": "Feature", "properties": { "CNPJ": 10974611000194, "AGENTE": "MICHELLE_CAROLINE_BETONI", "ACAO": "REALIZAR_SEGUNDA_VISITA", "RAZAO_SOCIAL": "STATUS_EMBELEZAMENTO_AUTOMOTIVO_LTDA_-_STATUS_EMBELEZAMENTO_AUTOMOTIVO", "ENDERECO": "RUABARAODETATUI_246_VILABUARQUE_SAOPAULO", "CIDADE": "SAO_PAULO", "LATITUDE": -23.5380621, "LONGITUDE": -46.6539066, "BASE": "ATENDIDOS" }, "geometry": { "type": "Point", "coordinates": [ -46.6539066, -23.5380621 ] } },
{ "type": "Feature", "properties": { "CNPJ": 37380356000108, "AGENTE": "MICHELLE_CAROLINE_BETONI", "ACAO": "REALIZAR_SEGUNDA_VISITA", "RAZAO_SOCIAL": "BELINDA_GOLDBERG_COMERCIO_DE_CAMISETAS_LTDA_-_MARIA_BONITA", "ENDERECO": "RUADASPALMEIRAS_93_VILABUARQUE_SAOPAULO", "CIDADE": "SAO_PAULO", "LATITUDE": -23.538142, "LONGITUDE": -46.6502451, "BASE": "ATENDIDOS" }, "geometry": { "type": "Point", "coordinates": [ -46.6502451, -23.538142 ] } },
{ "type": "Feature", "properties": { "CNPJ": 62121041000193, "AGENTE": "MICHELLE_CAROLINE_BETONI", "ACAO": "REALIZAR_SEGUNDA_VISITA", "RAZAO_SOCIAL": "MERCEARIA_JOANA_DARC_LTDA_-_MERCEARIA_JOANA_DARK", "ENDERECO": "RUABARAODETATUI_253_VILABUARQUE_SAOPAULO", "CIDADE": "SAO_PAULO", "LATITUDE": -23.5382292, "LONGITUDE": -46.6538918, "BASE": "ATENDIDOS" }, "geometry": { "type": "Point", "coordinates": [ -46.6538918, -23.5382292 ] } },
{ "type": "Feature", "properties": { "CNPJ": 31321770000160, "AGENTE": "MICHELLE_CAROLINE_BETONI", "ACAO": "REALIZAR_SEGUNDA_VISITA", "RAZAO_SOCIAL": "DONA_ELISA_COMERCIO_DE_ALIMENTOS_LTDA_-_DONA_ELISA_RESTAURANTE", "ENDERECO": "RUABARAODETATUI_270_VILABUARQUE_SAOPAULO", "CIDADE": "SAO_PAULO", "LATITUDE": -23.5382651, "LONGITUDE": -46.653971, "BASE": "ATENDIDOS" }, "geometry": { "type": "Point", "coordinates": [ -46.653971, -23.5382651 ] } },
{ "type": "Feature", "properties": { "CNPJ": 12103839000134, "AGENTE": "MICHELLE_CAROLINE_BETONI", "ACAO": "REALIZAR_SEGUNDA_VISITA", "RAZAO_SOCIAL": "SRP_BAR_E_LANCHES_LTDA_-_BAR_E_LANCHES_JOIA_DA_TATUI", "ENDERECO": "RUABARAODETATUI_275_VILABUARQUE_SAOPAULO", "CIDADE": "SAO_PAULO", "LATITUDE": -23.5383786, "LONGITUDE": -46.6537989, "BASE": "ATENDIDOS" }, "geometry": { "type": "Point", "coordinates": [ -46.6537989, -23.5383786 ] } },
{ "type": "Feature", "properties": { "CNPJ": 45050945000156, "AGENTE": "MICHELLE_CAROLINE_BETONI", "ACAO": "REALIZAR_SEGUNDA_VISITA", "RAZAO_SOCIAL": "TAPECARIA_SANDRA_LTDA_-_TAPECARIA_SANDRA", "ENDERECO": "ALAMEDABARROS_47_SANTACECILIA_SAOPAULO", "CIDADE": "SAO_PAULO", "LATITUDE": -23.5384682, "LONGITUDE": -46.6522297, "BASE": "ATENDIDOS" }, "geometry": { "type": "Point", "coordinates": [ -46.6522297, -23.5384682 ] } },
{ "type": "Feature", "properties": { "CNPJ": 59993658000194, "AGENTE": "MICHELLE_CAROLINE_BETONI", "ACAO": "REALIZAR_SEGUNDA_VISITA", "RAZAO_SOCIAL": "SALGADOS_SANTA_CECILIA_LANCHONETE_LTDA_-_SALGADOS_SANTA_CECILIA", "ENDERECO": "RUADASPALMEIRAS_47_VILABUARQUE_SAOPAULO", "CIDADE": "SAO_PAULO", "LATITUDE": -23.5384778, "LONGITUDE": -46.6499269, "BASE": "ATENDIDOS" }, "geometry": { "type": "Point", "coordinates": [ -46.6499269, -23.5384778 ] } },
{ "type": "Feature", "properties": { "CNPJ": 61910881000172, "AGENTE": "MICHELLE_CAROLINE_BETONI", "ACAO": "REALIZAR_SEGUNDA_VISITA", "RAZAO_SOCIAL": "BARROS_SUPER_LANCHONETE_LTDA_-_ESFIHA_CHIC", "ENDERECO": "RUAMARTIMFRANCISCO_149_VILABUARQUE_SAOPAULO", "CIDADE": "SAO_PAULO", "LATITUDE": -23.5387252, "LONGITUDE": -46.6517222, "BASE": "ATENDIDOS" }, "geometry": { "type": "Point", "coordinates": [ -46.6517222, -23.5387252 ] } },
{ "type": "Feature", "properties": { "CNPJ": 26267893000120, "AGENTE": "MICHELLE_CAROLINE_BETONI", "ACAO": "REALIZAR_SEGUNDA_VISITA", "RAZAO_SOCIAL": "ACADEMIA_FERREIRA_&_RODRIGUES_LTDA_-_ACADEMIA_CORPUS_MALHADUS", "ENDERECO": "AVENIDASAOJOAO_1421_CAMPOSELISEOS_SAOPAULO", "CIDADE": "SAO_PAULO", "LATITUDE": -23.5388221, "LONGITUDE": -46.646673, "BASE": "ATENDIDOS" }, "geometry": { "type": "Point", "coordinates": [ -46.646673, -23.5388221 ] } },
{ "type": "Feature", "properties": { "CNPJ": 3895264000149, "AGENTE": "MICHELLE_CAROLINE_BETONI", "ACAO": "REALIZAR_SEGUNDA_VISITA", "RAZAO_SOCIAL": "FORTUNATO_MERCADO_DAS_VARIEDADES_LTDA_-_FORTUNATO_MERCADO_E_VARIEDADES", "ENDERECO": "RUAFORTUNATO_24_VILABUARQUE_SAOPAULO", "CIDADE": "SAO_PAULO", "LATITUDE": -23.539003, "LONGITUDE": -46.6514058, "BASE": "ATENDIDOS" }, "geometry": { "type": "Point", "coordinates": [ -46.6514058, -23.539003 ] } },
{ "type": "Feature", "properties": { "CNPJ": 35296947000176, "AGENTE": "MICHELLE_CAROLINE_BETONI", "ACAO": "REALIZAR_SEGUNDA_VISITA", "RAZAO_SOCIAL": "BAR_E_LANCHONETE_OLD_GOLD_LTDA_-_LANCHONETE_OLD_GOLD", "ENDERECO": "RUAFREDERICOABRANCHES_417_VILABUARQUE_SAOPAULO", "CIDADE": "SAO_PAULO", "LATITUDE": -23.53904, "LONGITUDE": -46.6513105, "BASE": "ATENDIDOS" }, "geometry": { "type": "Point", "coordinates": [ -46.6513105, -23.53904 ] } },
{ "type": "Feature", "properties": { "CNPJ": 10974611000275, "AGENTE": "MICHELLE_CAROLINE_BETONI", "ACAO": "REALIZAR_SEGUNDA_VISITA", "RAZAO_SOCIAL": "STATUS_EMBELEZAMENTO_AUTOMOTIVO_LTDA_-_STATUS_DEFENDER", "ENDERECO": "RUAMARTIMFRANCISCO_218_VILABUARQUE_SAOPAULO", "CIDADE": "SAO_PAULO", "LATITUDE": -23.5391088, "LONGITUDE": -46.6523541, "BASE": "ATENDIDOS" }, "geometry": { "type": "Point", "coordinates": [ -46.6523541, -23.5391088 ] } },
{ "type": "Feature", "properties": { "CNPJ": 47722011000149, "AGENTE": "MICHELLE_CAROLINE_BETONI", "ACAO": "REALIZAR_SEGUNDA_VISITA", "RAZAO_SOCIAL": "COMERCIAL_PET_FRIENDLY_SERVICOS_DE_BANHO_E_TOSA_LTDA_-_ESPACO_PET_FRIENDLY", "ENDERECO": "RUAIMACULADACONCEICAO_30_VILABUARQUE_SAOPAULO", "CIDADE": "SAO_PAULO", "LATITUDE": -23.5391925, "LONGITUDE": -46.652662, "BASE": "ATENDIDOS" }, "geometry": { "type": "Point", "coordinates": [ -46.652662, -23.5391925 ] } },
{ "type": "Feature", "properties": { "CNPJ": 60766995000128, "AGENTE": "MICHELLE_CAROLINE_BETONI", "ACAO": "REALIZAR_SEGUNDA_VISITA", "RAZAO_SOCIAL": "MATTA_CAPOTE_&_CIA_LTDA_-_CASA_DAS_TRES_MENINAS", "ENDERECO": "RUAMARTIMFRANCISCO_236_VILABUARQUE_SAOPAULO", "CIDADE": "SAO_PAULO", "LATITUDE": -23.5391945, "LONGITUDE": -46.6524275, "BASE": "ATENDIDOS" }, "geometry": { "type": "Point", "coordinates": [ -46.6524275, -23.5391945 ] } },
{ "type": "Feature", "properties": { "CNPJ": 13273333000136, "AGENTE": "MICHELLE_CAROLINE_BETONI", "ACAO": "REALIZAR_SEGUNDA_VISITA", "RAZAO_SOCIAL": "CLARICE_BLEIVAS_-_LEVANA_RESTAURANTE", "ENDERECO": "RUAFORTUNATO_33_HIGIENOPOLIS_SAOPAULO", "CIDADE": "SAO_PAULO", "LATITUDE": -23.5392072, "LONGITUDE": -46.6513754, "BASE": "ATENDIDOS" }, "geometry": { "type": "Point", "coordinates": [ -46.6513754, -23.5392072 ] } },
{ "type": "Feature", "properties": { "CNPJ": 25034017000190, "AGENTE": "MICHELLE_CAROLINE_BETONI", "ACAO": "REALIZAR_SEGUNDA_VISITA", "RAZAO_SOCIAL": "BRUNIAN_COMERCIO_DE_MATERIAL_DE_LIMPEZA_E_DESCARTAVEIS_LTDA_-_BRUNIAN_MATERIAL_DE_LIMPEZA", "ENDERECO": "RUAFORTUNATO_40_VILABUARQUE_SAOPAULO", "CIDADE": "SAO_PAULO", "LATITUDE": -23.5392498, "LONGITUDE": -46.6514476, "BASE": "ATENDIDOS" }, "geometry": { "type": "Point", "coordinates": [ -46.6514476, -23.5392498 ] } },
{ "type": "Feature", "properties": { "CNPJ": 2375743000171, "AGENTE": "MICHELLE_CAROLINE_BETONI", "ACAO": "REALIZAR_SEGUNDA_VISITA", "RAZAO_SOCIAL": "MILLANEA_INSTITUTO_DE_DEPILACAO_LTDA_-_MILLANEA_DEPILACAO", "ENDERECO": "RUAMARTIMFRANCISCO_217_VILABUARQUE_SAOPAULO", "CIDADE": "SAO_PAULO", "LATITUDE": -23.5392538, "LONGITUDE": -46.652061, "BASE": "ATENDIDOS" }, "geometry": { "type": "Point", "coordinates": [ -46.652061, -23.5392538 ] } },
{ "type": "Feature", "properties": { "CNPJ": 22615206000169, "AGENTE": "MICHELLE_CAROLINE_BETONI", "ACAO": "REALIZAR_SEGUNDA_VISITA", "RAZAO_SOCIAL": "22.615.206_ROSANGELA_APARECIDA_GUIMARAES_-_ROSANGELA_CABELEIREIROS", "ENDERECO": "RUAMARTIMFRANCISCO_225_VILABUARQUE_SAOPAULO", "CIDADE": "SAO_PAULO", "LATITUDE": -23.5392603, "LONGITUDE": -46.6523243, "BASE": "ATENDIDOS" }, "geometry": { "type": "Point", "coordinates": [ -46.6523243, -23.5392603 ] } },
{ "type": "Feature", "properties": { "CNPJ": 24129221000122, "AGENTE": "MICHELLE_CAROLINE_BETONI", "ACAO": "REALIZAR_SEGUNDA_VISITA", "RAZAO_SOCIAL": "IVANILDO_MENDONCA_DE_SOUSA_VISTORIAS_LTDA_-_VISTORIA_CAR", "ENDERECO": "RUAMARTIMFRANCISCO_247_VILABUARQUE_SAOPAULO", "CIDADE": "SAO_PAULO", "LATITUDE": -23.5393389, "LONGITUDE": -46.6524181, "BASE": "ATENDIDOS" }, "geometry": { "type": "Point", "coordinates": [ -46.6524181, -23.5393389 ] } },
{ "type": "Feature", "properties": { "CNPJ": 66520826000190, "AGENTE": "MICHELLE_CAROLINE_BETONI", "ACAO": "REALIZAR_SEGUNDA_VISITA", "RAZAO_SOCIAL": "A_C_PADILHA_MOTOPECAS_-_CASA_DAS_VISEIRAS", "ENDERECO": "RUABARAODECAMPINAS_104_CAMPOSELISEOS_SAOPAULO", "CIDADE": "SAO_PAULO", "LATITUDE": -23.5393895, "LONGITUDE": -46.6447759, "BASE": "ATENDIDOS" }, "geometry": { "type": "Point", "coordinates": [ -46.6447759, -23.5393895 ] } },
{ "type": "Feature", "properties": { "CNPJ": 39920885000182, "AGENTE": "MICHELLE_CAROLINE_BETONI", "ACAO": "REALIZAR_SEGUNDA_VISITA", "RAZAO_SOCIAL": "KIA_FARMA_COMERCIO_DE_PRODUTOS_FARMACEUTICOS_LTDA_-_BEM_ESTAR_FARMA", "ENDERECO": "RUAFREDERICOABRANCHES_331_VILABUARQUE_SAOPAULO", "CIDADE": "SAO_PAULO", "LATITUDE": -23.5394415, "LONGITUDE": -46.6505434, "BASE": "ATENDIDOS" }, "geometry": { "type": "Point", "coordinates": [ -46.6505434, -23.5394415 ] } },
{ "type": "Feature", "properties": { "CNPJ": 5785437000100, "AGENTE": "MICHELLE_CAROLINE_BETONI", "ACAO": "REALIZAR_SEGUNDA_VISITA", "RAZAO_SOCIAL": "SANTA_CECILIA_COMERCIO_DE_PRODUTOS_DE_UTILIDADES_DOMESTICAS_LTDA_-_SHOPPING_DO_REAL", "ENDERECO": "RUAFREDERICOABRANCHES_349_CONSOLACAO_SAOPAULO", "CIDADE": "SAO_PAULO", "LATITUDE": -23.5396501, "LONGITUDE": -46.6508087, "BASE": "ATENDIDOS" }, "geometry": { "type": "Point", "coordinates": [ -46.6508087, -23.5396501 ] } },
{ "type": "Feature", "properties": { "CNPJ": 7242099000187, "AGENTE": "MICHELLE_CAROLINE_BETONI", "ACAO": "REALIZAR_SEGUNDA_VISITA", "RAZAO_SOCIAL": "BAR_DO_ELINEI_LTDA_-_RESTAURANTE_VILA_BUARQUE", "ENDERECO": "RUAMARTIMFRANCISCO_295_VILABUARQUE_SAOPAULO", "CIDADE": "SAO_PAULO", "LATITUDE": -23.5397013, "LONGITUDE": -46.6528223, "BASE": "ATENDIDOS" }, "geometry": { "type": "Point", "coordinates": [ -46.6528223, -23.5397013 ] } },
{ "type": "Feature", "properties": { "CNPJ": 1571754000164, "AGENTE": "MICHELLE_CAROLINE_BETONI", "ACAO": "REALIZAR_SEGUNDA_VISITA", "RAZAO_SOCIAL": "G.G._MITO_COMERCIO_DE_PRODUTOS_ALIMENTICIOS_LTDA_-_GG_MITO", "ENDERECO": "RUAMARTIMFRANCISCO_313_VILABUARQUE_SAOPAULO", "CIDADE": "SAO_PAULO", "LATITUDE": -23.5397787, "LONGITUDE": -46.6529458, "BASE": "ATENDIDOS" }, "geometry": { "type": "Point", "coordinates": [ -46.6529458, -23.5397787 ] } },
{ "type": "Feature", "properties": { "CNPJ": 97532545000180, "AGENTE": "MICHELLE_CAROLINE_BETONI", "ACAO": "REALIZAR_SEGUNDA_VISITA", "RAZAO_SOCIAL": "ROMILDO_BERNARDO_SANTOS_42710723549_-_ROMILDO_CABELEIREIROS", "ENDERECO": "RUAMARTIMFRANCISCO_322_CONSOLACAO_SAOPAULO", "CIDADE": "SAO_PAULO", "LATITUDE": -23.5398287, "LONGITUDE": -46.6529936, "BASE": "ATENDIDOS" }, "geometry": { "type": "Point", "coordinates": [ -46.6529936, -23.5398287 ] } },
{ "type": "Feature", "properties": { "CNPJ": 51737712000129, "AGENTE": "MICHELLE_CAROLINE_BETONI", "ACAO": "REALIZAR_SEGUNDA_VISITA", "RAZAO_SOCIAL": "51.737.712_BIANKA_TOZARINI_MENDES_DA_SILVA_-_BIA_COSTURA", "ENDERECO": "RUABARONESADEITU_96_SANTACECILIA_SAOPAULO", "CIDADE": "SAO_PAULO", "LATITUDE": -23.5398469, "LONGITUDE": -46.6540018, "BASE": "ATENDIDOS" }, "geometry": { "type": "Point", "coordinates": [ -46.6540018, -23.5398469 ] } },
{ "type": "Feature", "properties": { "CNPJ": 11799688000138, "AGENTE": "MICHELLE_CAROLINE_BETONI", "ACAO": "REALIZAR_SEGUNDA_VISITA", "RAZAO_SOCIAL": "STAR_BEAUTY_COSMETICOS_E_UTILIDADES_LTDA_-_STAR_BEAUTY", "ENDERECO": "RUABARONESADEITU_22_SANTACECILIA_SAOPAULO", "CIDADE": "SAO_PAULO", "LATITUDE": -23.5398554, "LONGITUDE": -46.6532655, "BASE": "ATENDIDOS" }, "geometry": { "type": "Point", "coordinates": [ -46.6532655, -23.5398554 ] } },
{ "type": "Feature", "properties": { "CNPJ": 7295083000132, "AGENTE": "MICHELLE_CAROLINE_BETONI", "ACAO": "REALIZAR_SEGUNDA_VISITA", "RAZAO_SOCIAL": "ROBETO_ARTIGOS_ESPORTIVOS_LTDA_-_ONE_SUPLEMENTOS", "ENDERECO": "RUABARONESADEITU_179_SANTACECILIA_SAOPAULO", "CIDADE": "SAO_PAULO", "LATITUDE": -23.5398569, "LONGITUDE": -46.6547824, "BASE": "ATENDIDOS" }, "geometry": { "type": "Point", "coordinates": [ -46.6547824, -23.5398569 ] } },
{ "type": "Feature", "properties": { "CNPJ": 47332615000189, "AGENTE": "MICHELLE_CAROLINE_BETONI", "ACAO": "REALIZAR_SEGUNDA_VISITA", "RAZAO_SOCIAL": "CRS_BELEZA_E_ESTETICA_LTDA_-_SANTA_CECILIA__CENTRO_DE_ESTETICA", "ENDERECO": "RUABARONESADEITU_42_VILABUARQUE_SAOPAULO", "CIDADE": "SAO_PAULO", "LATITUDE": -23.5398757, "LONGITUDE": -46.6534752, "BASE": "ATENDIDOS" }, "geometry": { "type": "Point", "coordinates": [ -46.6534752, -23.5398757 ] } },
{ "type": "Feature", "properties": { "CNPJ": 55138549000139, "AGENTE": "MICHELLE_CAROLINE_BETONI", "ACAO": "REALIZAR_SEGUNDA_VISITA", "RAZAO_SOCIAL": "BARONESA_FLORES_LTDA_-_BARONESA_FLORES", "ENDERECO": "RUABARONESADEITU_203_SANTACECILIA_SAOPAULO", "CIDADE": "SAO_PAULO", "LATITUDE": -23.5399428, "LONGITUDE": -46.6550685, "BASE": "ATENDIDOS" }, "geometry": { "type": "Point", "coordinates": [ -46.6550685, -23.5399428 ] } },
{ "type": "Feature", "properties": { "CNPJ": 45406597000107, "AGENTE": "MICHELLE_CAROLINE_BETONI", "ACAO": "REALIZAR_SEGUNDA_VISITA", "RAZAO_SOCIAL": "UNO_MAIS_TABACARIA_PRESENTES_E_COMERCIO_LTDA_-_NATUREBA_CACHACARIA", "ENDERECO": "RUACANUTODOVAL_209_VILABUARQUE_SAOPAULO", "CIDADE": "SAO_PAULO", "LATITUDE": -23.5401034, "LONGITUDE": -46.6526129, "BASE": "ATENDIDOS" }, "geometry": { "type": "Point", "coordinates": [ -46.6526129, -23.5401034 ] } },
{ "type": "Feature", "properties": { "CNPJ": 29131465000163, "AGENTE": "MICHELLE_CAROLINE_BETONI", "ACAO": "REALIZAR_SEGUNDA_VISITA", "RAZAO_SOCIAL": "ALTAIR_MARIA_DE_JESUS_27228237803_-_AN_BAR", "ENDERECO": "RUACANUTODOVAL_204_VILABUARQUE_SAOPAULO", "CIDADE": "SAO_PAULO", "LATITUDE": -23.540117, "LONGITUDE": -46.652496, "BASE": "ATENDIDOS" }, "geometry": { "type": "Point", "coordinates": [ -46.652496, -23.540117 ] } },
{ "type": "Feature", "properties": { "CNPJ": 1126883000143, "AGENTE": "MICHELLE_CAROLINE_BETONI", "ACAO": "REALIZAR_SEGUNDA_VISITA", "RAZAO_SOCIAL": "LANCHES_FLOR_DO_JOAO_ALFREDO_LTDA_-_JHONYS_BAR_E_RESTAURANTE", "ENDERECO": "RUACANUTODOVAL_241_VILABUARQUE_SAOPAULO", "CIDADE": "SAO_PAULO", "LATITUDE": -23.5401253, "LONGITUDE": -46.6527657, "BASE": "ATENDIDOS" }, "geometry": { "type": "Point", "coordinates": [ -46.6527657, -23.5401253 ] } },
{ "type": "Feature", "properties": { "CNPJ": 54764633000103, "AGENTE": "MICHELLE_CAROLINE_BETONI", "ACAO": "REALIZAR_SEGUNDA_VISITA", "RAZAO_SOCIAL": "O_MIRANDES_RESTAURANTE_LTDA_-_O_MIRANDES", "ENDERECO": "RUACANUTODOVAL_206_VILABUARQUE_SAOPAULO", "CIDADE": "SAO_PAULO", "LATITUDE": -23.5401867, "LONGITUDE": -46.652584, "BASE": "ATENDIDOS" }, "geometry": { "type": "Point", "coordinates": [ -46.652584, -23.5401867 ] } },
{ "type": "Feature", "properties": { "CNPJ": 35074854000105, "AGENTE": "MICHELLE_CAROLINE_BETONI", "ACAO": "REALIZAR_SEGUNDA_VISITA", "RAZAO_SOCIAL": "RJ_ALIMENTACAO_LTDA_-_RAMA_RESTAURANTE", "ENDERECO": "RUABARAODETATUI_532_VILABUARQUE_SAOPAULO", "CIDADE": "SAO_PAULO", "LATITUDE": -23.5404017, "LONGITUDE": -46.6546969, "BASE": "ATENDIDOS" }, "geometry": { "type": "Point", "coordinates": [ -46.6546969, -23.5404017 ] } },
{ "type": "Feature", "properties": { "CNPJ": 12362144000177, "AGENTE": "MICHELLE_CAROLINE_BETONI", "ACAO": "REALIZAR_SEGUNDA_VISITA", "RAZAO_SOCIAL": "PARKING_VISUVION_ESTACIONAMENTO_LTDA_-_FRANGO_COM_TUDO_DENTRO", "ENDERECO": "RUACANUTODOVAL_115_VILABUARQUE_SAOPAULO", "CIDADE": "SAO_PAULO", "LATITUDE": -23.5404763, "LONGITUDE": -46.651685, "BASE": "ATENDIDOS" }, "geometry": { "type": "Point", "coordinates": [ -46.651685, -23.5404763 ] } },
{ "type": "Feature", "properties": { "CNPJ": 49058169000191, "AGENTE": "MICHELLE_CAROLINE_BETONI", "ACAO": "REALIZAR_SEGUNDA_VISITA", "RAZAO_SOCIAL": "ESPACO_BARBARA_MOURA_LTDA_-_ESPACO_BARBARA_MOURA", "ENDERECO": "RUACANUTODOVAL_54_VILABUARQUE_SAOPAULO", "CIDADE": "SAO_PAULO", "LATITUDE": -23.5404829, "LONGITUDE": -46.6510947, "BASE": "ATENDIDOS" }, "geometry": { "type": "Point", "coordinates": [ -46.6510947, -23.5404829 ] } },
{ "type": "Feature", "properties": { "CNPJ": 40840307000115, "AGENTE": "MICHELLE_CAROLINE_BETONI", "ACAO": "REALIZAR_SEGUNDA_VISITA", "RAZAO_SOCIAL": "BONILHA_&_NEVES_CAFES_ESPECIAIS_LTDA_-_CAFE_NAIF", "ENDERECO": "RUACANUTODOVAL_26_VILABUARQUE_SAOPAULO", "CIDADE": "SAO_PAULO", "LATITUDE": -23.5405043, "LONGITUDE": -46.6508713, "BASE": "ATENDIDOS" }, "geometry": { "type": "Point", "coordinates": [ -46.6508713, -23.5405043 ] } },
{ "type": "Feature", "properties": { "CNPJ": 53075925000249, "AGENTE": "MICHELLE_CAROLINE_BETONI", "ACAO": "REALIZAR_SEGUNDA_VISITA", "RAZAO_SOCIAL": "VAVA_ARTIGOS_RELIGIOSOS_E_ESOTERICOS_LTDA_-_VAVA_ARTIGOS_RELIGIOSOS", "ENDERECO": "RUADONAVERIDIANA_101_HIGIENOPOLIS_SAOPAULO", "CIDADE": "SAO_PAULO", "LATITUDE": -23.5405419, "LONGITUDE": -46.6503024, "BASE": "ATENDIDOS" }, "geometry": { "type": "Point", "coordinates": [ -46.6503024, -23.5405419 ] } },
{ "type": "Feature", "properties": { "CNPJ": 46249728000152, "AGENTE": "MICHELLE_CAROLINE_BETONI", "ACAO": "REALIZAR_SEGUNDA_VISITA", "RAZAO_SOCIAL": "BIG_SOM_COMERCIO_E_ASSISTENCIA_TECNICA_DE_APARELHOS_DE_SOM_LTDA_-_BIG_SOM", "ENDERECO": "RUAMARTIMFRANCISCO_458_VILABUARQUE_SAOPAULO", "CIDADE": "SAO_PAULO", "LATITUDE": -23.5407299, "LONGITUDE": -46.6538693, "BASE": "ATENDIDOS" }, "geometry": { "type": "Point", "coordinates": [ -46.6538693, -23.5407299 ] } },
{ "type": "Feature", "properties": { "CNPJ": 49706899000151, "AGENTE": "MICHELLE_CAROLINE_BETONI", "ACAO": "REALIZAR_SEGUNDA_VISITA", "RAZAO_SOCIAL": "BELLA_MISSE_LTDA_-_BELLA_MISSE", "ENDERECO": "RUAMARTIMFRANCISCO_449_VILABUARQUE_SAOPAULO", "CIDADE": "SAO_PAULO", "LATITUDE": -23.5407568, "LONGITUDE": -46.6536814, "BASE": "ATENDIDOS" }, "geometry": { "type": "Point", "coordinates": [ -46.6536814, -23.5407568 ] } },
{ "type": "Feature", "properties": { "CNPJ": 26609877000178, "AGENTE": "MICHELLE_CAROLINE_BETONI", "ACAO": "REALIZAR_SEGUNDA_VISITA", "RAZAO_SOCIAL": "OLD_BAR_E_RESTAURANTE_LTDA_-_JHONYS__BAR_E_RESTAURANTE", "ENDERECO": "RUADONAVERIDIANA_106_VILABUARQUE_SAOPAULO", "CIDADE": "SAO_PAULO", "LATITUDE": -23.5407738, "LONGITUDE": -46.650659, "BASE": "ATENDIDOS" }, "geometry": { "type": "Point", "coordinates": [ -46.650659, -23.5407738 ] } },
{ "type": "Feature", "properties": { "CNPJ": 35655849000188, "AGENTE": "MICHELLE_CAROLINE_BETONI", "ACAO": "REALIZAR_SEGUNDA_VISITA", "RAZAO_SOCIAL": "LIGIA_MARA_ROSSI_07626136888_-_GRAO_DE_BOLO", "ENDERECO": "RUABARAODETATUI_567_VILABUARQUE_SAOPAULO", "CIDADE": "SAO_PAULO", "LATITUDE": -23.5408316, "LONGITUDE": -46.6548125, "BASE": "ATENDIDOS" }, "geometry": { "type": "Point", "coordinates": [ -46.6548125, -23.5408316 ] } },
{ "type": "Feature", "properties": { "CNPJ": 38058204000156, "AGENTE": "MICHELLE_CAROLINE_BETONI", "ACAO": "REALIZAR_SEGUNDA_VISITA", "RAZAO_SOCIAL": "38.058.204_ANA_MARIA_DA_SILVA_-_MULTI_ARTES", "ENDERECO": "RUABARAODETATUI_606_VILABUARQUE_SAOPAULO", "CIDADE": "SAO_PAULO", "LATITUDE": -23.5409163, "LONGITUDE": -46.654838, "BASE": "ATENDIDOS" }, "geometry": { "type": "Point", "coordinates": [ -46.654838, -23.5409163 ] } },
{ "type": "Feature", "properties": { "CNPJ": 18478753000172, "AGENTE": "MICHELLE_CAROLINE_BETONI", "ACAO": "REALIZAR_SEGUNDA_VISITA", "RAZAO_SOCIAL": "DEUSONIL_JOSE_NUNES_DE_ARAUJO_05936964841_-_SAPATARIA_MC", "ENDERECO": "RUABARAODETATUI_618_VILABUARQUE_SAOPAULO", "CIDADE": "SAO_PAULO", "LATITUDE": -23.5413676, "LONGITUDE": -46.6550003, "BASE": "ATENDIDOS" }, "geometry": { "type": "Point", "coordinates": [ -46.6550003, -23.5413676 ] } },
{ "type": "Feature", "properties": { "CNPJ": 29792878000199, "AGENTE": "MICHELLE_CAROLINE_BETONI", "ACAO": "REALIZAR_SEGUNDA_VISITA", "RAZAO_SOCIAL": "LANCHONETE_E_RESTAURANTE_NOVA_AROUCHE_LTDA_-_LANCHONETE_NOVA_AROUCHE", "ENDERECO": "LARGODOAROUCHE_382_REPUBLICA_SAOPAULO", "CIDADE": "SAO_PAULO", "LATITUDE": -23.5414139, "LONGITUDE": -46.6458257, "BASE": "ATENDIDOS" }, "geometry": { "type": "Point", "coordinates": [ -46.6458257, -23.5414139 ] } },
{ "type": "Feature", "properties": { "CNPJ": 8620468000190, "AGENTE": "MICHELLE_CAROLINE_BETONI", "ACAO": "REALIZAR_SEGUNDA_VISITA", "RAZAO_SOCIAL": "BAR_E_LANCHONETE_CASTELAO_LTDA_-_BAR_E_LANCHONETE_CASTELAO", "ENDERECO": "RUAMARTIMFRANCISCO_553_VILABUARQUE_SAOPAULO", "CIDADE": "SAO_PAULO", "LATITUDE": -23.5415408, "LONGITUDE": -46.6543658, "BASE": "ATENDIDOS" }, "geometry": { "type": "Point", "coordinates": [ -46.6543658, -23.5415408 ] } },
{ "type": "Feature", "properties": { "CNPJ": 12118910000152, "AGENTE": "MICHELLE_CAROLINE_BETONI", "ACAO": "REALIZAR_SEGUNDA_VISITA", "RAZAO_SOCIAL": "JOSEFA_SILVA_DISTEFANO_70650284453_-_BRECHO_CENARIO", "ENDERECO": "RUAJAGUARIBE_200_CONSOLACAO_SAOPAULO", "CIDADE": "SAO_PAULO", "LATITUDE": -23.5415479, "LONGITUDE": -46.6497811, "BASE": "ATENDIDOS" }, "geometry": { "type": "Point", "coordinates": [ -46.6497811, -23.5415479 ] } },
{ "type": "Feature", "properties": { "CNPJ": 54908915000129, "AGENTE": "MICHELLE_CAROLINE_BETONI", "ACAO": "REALIZAR_SEGUNDA_VISITA", "RAZAO_SOCIAL": "TONNYS_BAR_LTDA_-_TONNY'S__BAR", "ENDERECO": "RUABENTOFREITAS_43_REPUBLICA_SAOPAULO", "CIDADE": "SAO_PAULO", "LATITUDE": -23.5422851, "LONGITUDE": -46.6454564, "BASE": "ATENDIDOS" }, "geometry": { "type": "Point", "coordinates": [ -46.6454564, -23.5422851 ] } },
{ "type": "Feature", "properties": { "CNPJ": 3944413000112, "AGENTE": "MICHELLE_CAROLINE_BETONI", "ACAO": "REALIZAR_SEGUNDA_VISITA", "RAZAO_SOCIAL": "OFFICE_PAPER_SUPRIMENTOS_PARA_INFORMATICA_E_PAPELARIA_LTDA_-_OFFICE_PAPER_PAPELARIA", "ENDERECO": "RUAMARTIMFRANCISCO_657_VILABUARQUE_SAOPAULO", "CIDADE": "SAO_PAULO", "LATITUDE": -23.5423893, "LONGITUDE": -46.6543834, "BASE": "ATENDIDOS" }, "geometry": { "type": "Point", "coordinates": [ -46.6543834, -23.5423893 ] } },
{ "type": "Feature", "properties": { "CNPJ": 43739742000146, "AGENTE": "MICHELLE_CAROLINE_BETONI", "ACAO": "REALIZAR_SEGUNDA_VISITA", "RAZAO_SOCIAL": "NADIA_KAROLINA_PALHETA_SASTRE_70540861200_-_STUDIO_WANDA_AGOSTINELLI", "ENDERECO": "RUABENTOFREITAS_77_REPUBLICA_SAOPAULO", "CIDADE": "SAO_PAULO", "LATITUDE": -23.5425426, "LONGITUDE": -46.64546, "BASE": "ATENDIDOS" }, "geometry": { "type": "Point", "coordinates": [ -46.64546, -23.5425426 ] } },
{ "type": "Feature", "properties": { "CNPJ": 54598917000169, "AGENTE": "MICHELLE_CAROLINE_BETONI", "ACAO": "REALIZAR_SEGUNDA_VISITA", "RAZAO_SOCIAL": "CASA_DE_CARNES_BIF_MOLE_LTDA_-_CASA_DE_CARNES_BIFE_MOLE", "ENDERECO": "RUASANTAISABEL_103_VILABUARQUE_SAOPAULO", "CIDADE": "SAO_PAULO", "LATITUDE": -23.5427703, "LONGITUDE": -46.6465168, "BASE": "ATENDIDOS" }, "geometry": { "type": "Point", "coordinates": [ -46.6465168, -23.5427703 ] } },
{ "type": "Feature", "properties": { "CNPJ": 29747929000160, "AGENTE": "MICHELLE_CAROLINE_BETONI", "ACAO": "REALIZAR_SEGUNDA_VISITA", "RAZAO_SOCIAL": "JOEL_SALVADOR_RESTAURANTE_LTDA_-_BOX_MINEIRO", "ENDERECO": "RUASANTAISABEL_21_VILABUARQUE_SAOPAULO", "CIDADE": "SAO_PAULO", "LATITUDE": -23.5427896, "LONGITUDE": -46.6457022, "BASE": "ATENDIDOS" }, "geometry": { "type": "Point", "coordinates": [ -46.6457022, -23.5427896 ] } },
{ "type": "Feature", "properties": { "CNPJ": 30062234000124, "AGENTE": "MICHELLE_CAROLINE_BETONI", "ACAO": "REALIZAR_SEGUNDA_VISITA", "RAZAO_SOCIAL": "A_CASA_DO_QUEIJO_-_QUEIJOS_E_DOCES_DE_MINAS_LTDA_-_A_CASA_DO_QUEIJO_QUEIJOS_E_DOCES_DE_MINAS", "ENDERECO": "RUAMARTIMFRANCISCO_719_VILABUARQUE_SAOPAULO", "CIDADE": "SAO_PAULO", "LATITUDE": -23.542876, "LONGITUDE": -46.654563, "BASE": "ATENDIDOS" }, "geometry": { "type": "Point", "coordinates": [ -46.654563, -23.542876 ] } },
{ "type": "Feature", "properties": { "CNPJ": 25257219000100, "AGENTE": "MICHELLE_CAROLINE_BETONI", "ACAO": "REALIZAR_SEGUNDA_VISITA", "RAZAO_SOCIAL": "25.257.219_PRISCILA_SANTANA_COSTA_-_PETS_PEW", "ENDERECO": "RUABENTOFREITAS_146_REPUBLICA_SAOPAULO", "CIDADE": "SAO_PAULO", "LATITUDE": -23.543036, "LONGITUDE": -46.6454295, "BASE": "ATENDIDOS" }, "geometry": { "type": "Point", "coordinates": [ -46.6454295, -23.543036 ] } },
{ "type": "Feature", "properties": { "CNPJ": 8962674000189, "AGENTE": "MICHELLE_CAROLINE_BETONI", "ACAO": "REALIZAR_SEGUNDA_VISITA", "RAZAO_SOCIAL": "ZANDONA_COMERCIO_DE_ROUPAS_LTDA_-_ZANDONA_LOJA", "ENDERECO": "RUABENTOFREITAS_134_REPUBLICA_SAOPAULO", "CIDADE": "SAO_PAULO", "LATITUDE": -23.5430371, "LONGITUDE": -46.6455441, "BASE": "ATENDIDOS" }, "geometry": { "type": "Point", "coordinates": [ -46.6455441, -23.5430371 ] } },
{ "type": "Feature", "properties": { "CNPJ": 62664073000135, "AGENTE": "MICHELLE_CAROLINE_BETONI", "ACAO": "REALIZAR_SEGUNDA_VISITA", "RAZAO_SOCIAL": "QUITANDA_OMINE_LTDA_-_QUITANDO_OMINE", "ENDERECO": "RUAMARTIMFRANCISCO_758_VILABUARQUE_SAOPAULO", "CIDADE": "SAO_PAULO", "LATITUDE": -23.5432061, "LONGITUDE": -46.654643, "BASE": "ATENDIDOS" }, "geometry": { "type": "Point", "coordinates": [ -46.654643, -23.5432061 ] } },
{ "type": "Feature", "properties": { "CNPJ": 32313701000177, "AGENTE": "MICHELLE_CAROLINE_BETONI", "ACAO": "REALIZAR_SEGUNDA_VISITA", "RAZAO_SOCIAL": "32.313.701_JOSE_LUIZ_MARTINS_-_SANTA_FOME", "ENDERECO": "RUADOUTORCESARIOMOTAJUNIOR_179_VILABUARQUE_SAOPAULO", "CIDADE": "SAO_PAULO", "LATITUDE": -23.5433397, "LONGITUDE": -46.6488571, "BASE": "ATENDIDOS" }, "geometry": { "type": "Point", "coordinates": [ -46.6488571, -23.5433397 ] } },
{ "type": "Feature", "properties": { "CNPJ": 43279814000110, "AGENTE": "MICHELLE_CAROLINE_BETONI", "ACAO": "REALIZAR_SEGUNDA_VISITA", "RAZAO_SOCIAL": "VYR_ASSITENCIA_ACESSORIOS_E_UTILIDADES_LTDA_-_VYR__ACESSORIOS_E_UTILIDADES_PARA_CASA", "ENDERECO": "RUAREGOFREITAS_186_REPUBLICA_SAOPAULO", "CIDADE": "SAO_PAULO", "LATITUDE": -23.543401, "LONGITUDE": -46.6466872, "BASE": "ATENDIDOS" }, "geometry": { "type": "Point", "coordinates": [ -46.6466872, -23.543401 ] } },
{ "type": "Feature", "properties": { "CNPJ": 5077659000160, "AGENTE": "MICHELLE_CAROLINE_BETONI", "ACAO": "REALIZAR_SEGUNDA_VISITA", "RAZAO_SOCIAL": "ORTOPARTES_PRODUTOS_ORTOPEDICOS_LTDA_-_ORTOPARTES", "ENDERECO": "RUADOUTORCESARIOMOTAJUNIOR_187_VILABUARQUE_SAOPAULO", "CIDADE": "SAO_PAULO", "LATITUDE": -23.5434669, "LONGITUDE": -46.648863, "BASE": "ATENDIDOS" }, "geometry": { "type": "Point", "coordinates": [ -46.648863, -23.5434669 ] } },
{ "type": "Feature", "properties": { "CNPJ": 37449225000130, "AGENTE": "MICHELLE_CAROLINE_BETONI", "ACAO": "REALIZAR_SEGUNDA_VISITA", "RAZAO_SOCIAL": "ME_FRUTA_LTDA_-_ME_FRUTA", "ENDERECO": "RUADOUTORCESARIOMOTAJUNIOR_199_VILABUARQUE_SAOPAULO", "CIDADE": "SAO_PAULO", "LATITUDE": -23.5435477, "LONGITUDE": -46.6488069, "BASE": "ATENDIDOS" }, "geometry": { "type": "Point", "coordinates": [ -46.6488069, -23.5435477 ] } },
{ "type": "Feature", "properties": { "CNPJ": 96337019000105, "AGENTE": "MICHELLE_CAROLINE_BETONI", "ACAO": "REALIZAR_SEGUNDA_VISITA", "RAZAO_SOCIAL": "EDITORA_E_LIVRARIA_ANITA_LTDA_-_EDITORA_E_LIVRARIA_ANTITA_GARIBALDI", "ENDERECO": "RUAREGOFREITAS_192_VILABUARQUE_SAOPAULO", "CIDADE": "SAO_PAULO", "LATITUDE": -23.5437173, "LONGITUDE": -46.6465616, "BASE": "ATENDIDOS" }, "geometry": { "type": "Point", "coordinates": [ -46.6465616, -23.5437173 ] } },
{ "type": "Feature", "properties": { "CNPJ": 2225110000187, "AGENTE": "MICHELLE_CAROLINE_BETONI", "ACAO": "REALIZAR_SEGUNDA_VISITA", "RAZAO_SOCIAL": "SAPATARIA_GURGEL_S/C_LTDA_-_SAPATARIA_GURGEL", "ENDERECO": "RUAMARQUESDEITU_454_VILABUARQUE_SAOPAULO", "CIDADE": "SAO_PAULO", "LATITUDE": -23.5437393, "LONGITUDE": -46.6487568, "BASE": "ATENDIDOS" }, "geometry": { "type": "Point", "coordinates": [ -46.6487568, -23.5437393 ] } },
{ "type": "Feature", "properties": { "CNPJ": 7158912000135, "AGENTE": "MICHELLE_CAROLINE_BETONI", "ACAO": "REALIZAR_SEGUNDA_VISITA", "RAZAO_SOCIAL": "DROGARIA_MARQUES_DE_ITU_LTDA_-_DROGARIA_MARQUES_DE_ITU", "ENDERECO": "RUAMARQUESDEITU_763_HIGIENOPOLIS_SAOPAULO", "CIDADE": "SAO_PAULO", "LATITUDE": -23.5437424, "LONGITUDE": -46.6517748, "BASE": "ATENDIDOS" }, "geometry": { "type": "Point", "coordinates": [ -46.6517748, -23.5437424 ] } },
{ "type": "Feature", "properties": { "CNPJ": 45970779000106, "AGENTE": "MICHELLE_CAROLINE_BETONI", "ACAO": "REALIZAR_SEGUNDA_VISITA", "RAZAO_SOCIAL": "OTICA_EVEREST_LTDA_-_OTICA_EVEREST", "ENDERECO": "RUAMARQUESDEITU_1011_VILABUARQUE_SAOPAULO", "CIDADE": "SAO_PAULO", "LATITUDE": -23.5437424, "LONGITUDE": -46.6542206, "BASE": "ATENDIDOS" }, "geometry": { "type": "Point", "coordinates": [ -46.6542206, -23.5437424 ] } },
{ "type": "Feature", "properties": { "CNPJ": 48122517000180, "AGENTE": "MICHELLE_CAROLINE_BETONI", "ACAO": "REALIZAR_SEGUNDA_VISITA", "RAZAO_SOCIAL": "IANIR_MOLDURAS_E_DECORACAO_LTDA_-_ART_MAX", "ENDERECO": "RUAMARQUESDEITU_280_HIGIENOPOLIS_SAOPAULO", "CIDADE": "SAO_PAULO", "LATITUDE": -23.5437783, "LONGITUDE": -46.6470246, "BASE": "ATENDIDOS" }, "geometry": { "type": "Point", "coordinates": [ -46.6470246, -23.5437783 ] } },
{ "type": "Feature", "properties": { "CNPJ": 28217039000184, "AGENTE": "MICHELLE_CAROLINE_BETONI", "ACAO": "REALIZAR_SEGUNDA_VISITA", "RAZAO_SOCIAL": "DK_LANCHES_LTDA_-_DK_BAR_E_RESTAURANTE", "ENDERECO": "RUADOUTORCESARIOMOTAJUNIOR_243_VILABUARQUE_SAOPAULO", "CIDADE": "SAO_PAULO", "LATITUDE": -23.5438155, "LONGITUDE": -46.6487899, "BASE": "ATENDIDOS" }, "geometry": { "type": "Point", "coordinates": [ -46.6487899, -23.5438155 ] } },
{ "type": "Feature", "properties": { "CNPJ": 55101975000106, "AGENTE": "MICHELLE_CAROLINE_BETONI", "ACAO": "REALIZAR_SEGUNDA_VISITA", "RAZAO_SOCIAL": "RAMPAS_BAR_E_RESTAURANTE_LTDA_-_RESTAURANTE_RAMPAS", "ENDERECO": "RUAMARQUESDEITU_621_VILABUARQUE_SAOPAULO", "CIDADE": "SAO_PAULO", "LATITUDE": -23.5438185, "LONGITUDE": -46.6503084, "BASE": "ATENDIDOS" }, "geometry": { "type": "Point", "coordinates": [ -46.6503084, -23.5438185 ] } },
{ "type": "Feature", "properties": { "CNPJ": 43478981000190, "AGENTE": "MICHELLE_CAROLINE_BETONI", "ACAO": "REALIZAR_SEGUNDA_VISITA", "RAZAO_SOCIAL": "ARTE_ATELIER_LTDA_-_ARTE_ATELIER", "ENDERECO": "RUAMARQUESDEITU_559_VILABUARQUE_SAOPAULO", "CIDADE": "SAO_PAULO", "LATITUDE": -23.5438296, "LONGITUDE": -46.6498266, "BASE": "ATENDIDOS" }, "geometry": { "type": "Point", "coordinates": [ -46.6498266, -23.5438296 ] } },
{ "type": "Feature", "properties": { "CNPJ": 51539526000185, "AGENTE": "MICHELLE_CAROLINE_BETONI", "ACAO": "REALIZAR_SEGUNDA_VISITA", "RAZAO_SOCIAL": "ARITANA_COMERCIO_DE_REFEICOES_RAPIDAS_LTDA._-_GODERE", "ENDERECO": "RUAMARQUESDEITU_595_VILABUARQUE_SAOPAULO", "CIDADE": "SAO_PAULO", "LATITUDE": -23.5439568, "LONGITUDE": -46.6502611, "BASE": "ATENDIDOS" }, "geometry": { "type": "Point", "coordinates": [ -46.6502611, -23.5439568 ] } },
{ "type": "Feature", "properties": { "CNPJ": 59889682000188, "AGENTE": "MICHELLE_CAROLINE_BETONI", "ACAO": "REALIZAR_SEGUNDA_VISITA", "RAZAO_SOCIAL": "LANCHONETE_PRINCESINHA_DA_ITU_LTDA_-_LANCHONETE_PRINCESINHA_DA_ITU", "ENDERECO": "RUADOUTORCESARIOMOTAJUNIOR_242_VILABUARQUE_SAOPAULO", "CIDADE": "SAO_PAULO", "LATITUDE": -23.5439825, "LONGITUDE": -46.6489429, "BASE": "ATENDIDOS" }, "geometry": { "type": "Point", "coordinates": [ -46.6489429, -23.5439825 ] } },
{ "type": "Feature", "properties": { "CNPJ": 60448533000162, "AGENTE": "MICHELLE_CAROLINE_BETONI", "ACAO": "REALIZAR_SEGUNDA_VISITA", "RAZAO_SOCIAL": "VICTOR_COSTA_SANTOS_CABELEIREIROS_-_ABEL_CABELEIREIROS", "ENDERECO": "RUADOUTORCESARIOMOTAJUNIOR_256_VILABUARQUE_SAOPAULO", "CIDADE": "SAO_PAULO", "LATITUDE": -23.5440297, "LONGITUDE": -46.6489627, "BASE": "ATENDIDOS" }, "geometry": { "type": "Point", "coordinates": [ -46.6489627, -23.5440297 ] } },
{ "type": "Feature", "properties": { "CNPJ": 34001779000181, "AGENTE": "MICHELLE_CAROLINE_BETONI", "ACAO": "REALIZAR_SEGUNDA_VISITA", "RAZAO_SOCIAL": "FRANCO_BRENTARI_70005167124_-_FRANCO_BRENTARI", "ENDERECO": "PRACADAREPUBLICA_0_REPUBLICA_SAOPAULO", "CIDADE": "SAO_PAULO", "LATITUDE": -23.5441038, "LONGITUDE": -46.6427817, "BASE": "ATENDIDOS" }, "geometry": { "type": "Point", "coordinates": [ -46.6427817, -23.5441038 ] } },
{ "type": "Feature", "properties": { "CNPJ": 26876263000152, "AGENTE": "MICHELLE_CAROLINE_BETONI", "ACAO": "REALIZAR_SEGUNDA_VISITA", "RAZAO_SOCIAL": "SEBO_CLEPSIDRA_COMERCIO_DE_LIVROS_LTDA_-_SEBO_CLEPSIDRA", "ENDERECO": "RUADOUTORCESARIOMOTAJUNIOR_296_VILABUARQUE_SAOPAULO", "CIDADE": "SAO_PAULO", "LATITUDE": -23.5444012, "LONGITUDE": -46.6489318, "BASE": "ATENDIDOS" }, "geometry": { "type": "Point", "coordinates": [ -46.6489318, -23.5444012 ] } },
{ "type": "Feature", "properties": { "CNPJ": 28734610000138, "AGENTE": "MICHELLE_CAROLINE_BETONI", "ACAO": "REALIZAR_SEGUNDA_VISITA", "RAZAO_SOCIAL": "28.734.610_NEIDE_SANTANA_FERREIRA_-_ATACADO_PIMENTA_GLAMOUR", "ENDERECO": "RUADEPUTADOVICENTEPENIDO_188_VILAGUILHERME_SAOPAULO", "CIDADE": "SAO_PAULO", "LATITUDE": -23.5444322, "LONGITUDE": -46.6390202, "BASE": "ATENDIDOS" }, "geometry": { "type": "Point", "coordinates": [ -46.6390202, -23.5444322 ] } },
{ "type": "Feature", "properties": { "CNPJ": 53924487000165, "AGENTE": "MICHELLE_CAROLINE_BETONI", "ACAO": "REALIZAR_SEGUNDA_VISITA", "RAZAO_SOCIAL": "53.924.487_ELANDY_ENIRA_NASCIMENTO_DA_SILVA_-_LANDY_IMPORTADOS", "ENDERECO": "RUADOUTORSERGIOMEIRA_280_BARRAFUNDA_SAOPAULO", "CIDADE": "SAO_PAULO", "LATITUDE": -23.5444456, "LONGITUDE": -46.6390339, "BASE": "ATENDIDOS" }, "geometry": { "type": "Point", "coordinates": [ -46.6390339, -23.5444456 ] } },
{ "type": "Feature", "properties": { "CNPJ": 21881259000169, "AGENTE": "MICHELLE_CAROLINE_BETONI", "ACAO": "REALIZAR_SEGUNDA_VISITA", "RAZAO_SOCIAL": "EDVAN_AIRES_LOPES_82173591304_-_EDVAN_AIRES_LOPES", "ENDERECO": "RUADAMOOCA_114_MOOCA_SAOPAULO", "CIDADE": "SAO_PAULO", "LATITUDE": -23.5444549, "LONGITUDE": -46.6390102, "BASE": "ATENDIDOS" }, "geometry": { "type": "Point", "coordinates": [ -46.6390102, -23.5444549 ] } },
{ "type": "Feature", "properties": { "CNPJ": 45841560000107, "AGENTE": "MICHELLE_CAROLINE_BETONI", "ACAO": "REALIZAR_SEGUNDA_VISITA", "RAZAO_SOCIAL": "45.841.560_ROQUE_ARAUJO_DE_FRANCA_-_ROQUE_ARAUJO_DE_FRANCA", "ENDERECO": "RUAFRANCISCAMIQUELINA_355_BELAVISTA_SAOPAULO", "CIDADE": "SAO_PAULO", "LATITUDE": -23.5445507, "LONGITUDE": -46.639048, "BASE": "ATENDIDOS" }, "geometry": { "type": "Point", "coordinates": [ -46.639048, -23.5445507 ] } },
{ "type": "Feature", "properties": { "CNPJ": 20494273000147, "AGENTE": "MICHELLE_CAROLINE_BETONI", "ACAO": "REALIZAR_SEGUNDA_VISITA", "RAZAO_SOCIAL": "NEUZA_FELIZARDO_DE_OLIVEIRA_07736418829_-_NEUZA_CABELEIREIROS", "ENDERECO": "RUASAOJOAOCLIMACO_674_SAOJOAOCLIMACO_SAOPAULO", "CIDADE": "SAO_PAULO", "LATITUDE": -23.5445651, "LONGITUDE": -46.639059, "BASE": "ATENDIDOS" }, "geometry": { "type": "Point", "coordinates": [ -46.639059, -23.5445651 ] } },
{ "type": "Feature", "properties": { "CNPJ": 22037426000152, "AGENTE": "MICHELLE_CAROLINE_BETONI", "ACAO": "REALIZAR_SEGUNDA_VISITA", "RAZAO_SOCIAL": "MARIA_JULIA_DOS_SANTOS_04700965860_-_J_CABELEIREIROS", "ENDERECO": "AVENIDAPRESTESMAIA_522_CENTRO_SAOPAULO", "CIDADE": "SAO_PAULO", "LATITUDE": -23.5445763, "LONGITUDE": -46.6390342, "BASE": "ATENDIDOS" }, "geometry": { "type": "Point", "coordinates": [ -46.6390342, -23.5445763 ] } },
{ "type": "Feature", "properties": { "CNPJ": 25961128000142, "AGENTE": "MICHELLE_CAROLINE_BETONI", "ACAO": "REALIZAR_SEGUNDA_VISITA", "RAZAO_SOCIAL": "CARLITO_OLIVEIRA_DOS_SANTOS_39303802500_-_C&E_ENCANADOR", "ENDERECO": "RUADACONSOLACAO_21_CENTRO_SAOPAULO", "CIDADE": "SAO_PAULO", "LATITUDE": -23.5446143, "LONGITUDE": -46.6390357, "BASE": "ATENDIDOS" }, "geometry": { "type": "Point", "coordinates": [ -46.6390357, -23.5446143 ] } },
{ "type": "Feature", "properties": { "CNPJ": 39880491000148, "AGENTE": "MICHELLE_CAROLINE_BETONI", "ACAO": "REALIZAR_SEGUNDA_VISITA", "RAZAO_SOCIAL": "LUCIANA_FRANKLIN_DA_COSTA_RAMOS_SADALLA_62023519349_-_FIVELA_DE_RICA", "ENDERECO": "AVENIDAMOACI_395_PLANALTOPAULISTA_SAOPAULO", "CIDADE": "SAO_PAULO", "LATITUDE": -23.5446159, "LONGITUDE": -46.6390421, "BASE": "ATENDIDOS" }, "geometry": { "type": "Point", "coordinates": [ -46.6390421, -23.5446159 ] } },
{ "type": "Feature", "properties": { "CNPJ": 59789762000161, "AGENTE": "MICHELLE_CAROLINE_BETONI", "ACAO": "REALIZAR_SEGUNDA_VISITA", "RAZAO_SOCIAL": "59.789.762_EDMILSON_MARQUES_DA_SILVA_-_PROPAGANDAS_COLETIVAS", "ENDERECO": "RUACONSELHEIRONEBIAS_532_CAMPOSELISIOS_SAOPAULO", "CIDADE": "SAO_PAULO", "LATITUDE": -23.5446228, "LONGITUDE": -46.6390393, "BASE": "ATENDIDOS" }, "geometry": { "type": "Point", "coordinates": [ -46.6390393, -23.5446228 ] } },
{ "type": "Feature", "properties": { "CNPJ": 60566189000106, "AGENTE": "MICHELLE_CAROLINE_BETONI", "ACAO": "REALIZAR_SEGUNDA_VISITA", "RAZAO_SOCIAL": "LANCHES_PUERTA_DEL_SOL_LTDA_-_LANCHES_PUERTA_DEL_SOL", "ENDERECO": "RUAGENERALJARDIM_436_VILABUARQUE_SAOPAULO", "CIDADE": "SAO_PAULO", "LATITUDE": -23.5446237, "LONGITUDE": -46.648909, "BASE": "ATENDIDOS" }, "geometry": { "type": "Point", "coordinates": [ -46.648909, -23.5446237 ] } },
{ "type": "Feature", "properties": { "CNPJ": 46522599000124, "AGENTE": "MICHELLE_CAROLINE_BETONI", "ACAO": "REALIZAR_SEGUNDA_VISITA", "RAZAO_SOCIAL": "BRUNA_CRISTINA_DA_SILVA_22806833850_-_BRUNA_PRODUCOES", "ENDERECO": "RUADOMINGOSDESANTAMARIA_912_VILAGUARANI_SAOPAULO", "CIDADE": "SAO_PAULO", "LATITUDE": -23.5446284, "LONGITUDE": -46.6390414, "BASE": "ATENDIDOS" }, "geometry": { "type": "Point", "coordinates": [ -46.6390414, -23.5446284 ] } },
{ "type": "Feature", "properties": { "CNPJ": 50144680000195, "AGENTE": "MICHELLE_CAROLINE_BETONI", "ACAO": "REALIZAR_SEGUNDA_VISITA", "RAZAO_SOCIAL": "50.144.680_HELIO_MISAEL_TEODORO_-_HELIO__MISAEL_TEODORO", "ENDERECO": "RUAHERCULANODEFREITAS_47_BELAVISTA_SAOPAULO", "CIDADE": "SAO_PAULO", "LATITUDE": -23.5446346, "LONGITUDE": -46.6390465, "BASE": "ATENDIDOS" }, "geometry": { "type": "Point", "coordinates": [ -46.6390465, -23.5446346 ] } },
{ "type": "Feature", "properties": { "CNPJ": 57015787000182, "AGENTE": "MICHELLE_CAROLINE_BETONI", "ACAO": "REALIZAR_SEGUNDA_VISITA", "RAZAO_SOCIAL": "57.015.787_CLEIDIMAR_DE_TOLEDO_BERTO_DE_OLIVEIRA_-_CLEIDE_AR_DE_TOLEDO_BERTO_DE_OLIVEIRA", "ENDERECO": "RUAHELVETIA_539_CAMPOSELISIOS_SAOPAULO", "CIDADE": "SAO_PAULO", "LATITUDE": -23.5446356, "LONGITUDE": -46.6390197, "BASE": "ATENDIDOS" }, "geometry": { "type": "Point", "coordinates": [ -46.6390197, -23.5446356 ] } },
{ "type": "Feature", "properties": { "CNPJ": 55522611000191, "AGENTE": "MICHELLE_CAROLINE_BETONI", "ACAO": "REALIZAR_SEGUNDA_VISITA", "RAZAO_SOCIAL": "55.522.611_ELIO_FRANCISCO_CAMPELO_DA_SILVA_-_ELIO_FRANCISCO_CAMPELO_DA_SILVA", "ENDERECO": "RUAVENANCIOAIRES_27_VILAPOMPEIA_SAOPAULO", "CIDADE": "SAO_PAULO", "LATITUDE": -23.5446392, "LONGITUDE": -46.6390325, "BASE": "ATENDIDOS" }, "geometry": { "type": "Point", "coordinates": [ -46.6390325, -23.5446392 ] } },
{ "type": "Feature", "properties": { "CNPJ": 30687816000104, "AGENTE": "MICHELLE_CAROLINE_BETONI", "ACAO": "REALIZAR_SEGUNDA_VISITA", "RAZAO_SOCIAL": "MARCOS_PAULO_MURANO_15776066808_-_NENE__FESTAS", "ENDERECO": "RUAJOSEDAROCHAVITA_192_CHACARAMAFALDA_SAOPAULO", "CIDADE": "SAO_PAULO", "LATITUDE": -23.5446393, "LONGITUDE": -46.6390288, "BASE": "ATENDIDOS" }, "geometry": { "type": "Point", "coordinates": [ -46.6390288, -23.5446393 ] } },
{ "type": "Feature", "properties": { "CNPJ": 56320397000153, "AGENTE": "MICHELLE_CAROLINE_BETONI", "ACAO": "REALIZAR_SEGUNDA_VISITA", "RAZAO_SOCIAL": "56.320.397_GENESIS_KATHERINE_PAZ_COSSIO_-_CONSTRUFAMILY", "ENDERECO": "RUAARAUJO_367_REPUBLICA_SAOPAULO", "CIDADE": "SAO_PAULO", "LATITUDE": -23.5446492, "LONGITUDE": -46.6390206, "BASE": "ATENDIDOS" }, "geometry": { "type": "Point", "coordinates": [ -46.6390206, -23.5446492 ] } },
{ "type": "Feature", "properties": { "CNPJ": 26432348000141, "AGENTE": "MICHELLE_CAROLINE_BETONI", "ACAO": "REALIZAR_SEGUNDA_VISITA", "RAZAO_SOCIAL": "26.432.348_LEDA_ALVES_MOTA_SHIBATA_-_DULCELLA", "ENDERECO": "RUACONSELHEIROFURTADO_207_LIBERDADE_SAOPAULO", "CIDADE": "SAO_PAULO", "LATITUDE": -23.5446543, "LONGITUDE": -46.6390244, "BASE": "ATENDIDOS" }, "geometry": { "type": "Point", "coordinates": [ -46.6390244, -23.5446543 ] } },
{ "type": "Feature", "properties": { "CNPJ": 44843099000169, "AGENTE": "MICHELLE_CAROLINE_BETONI", "ACAO": "REALIZAR_SEGUNDA_VISITA", "RAZAO_SOCIAL": "PEDRO_ARCELINO_DE_OLIVEIRA_JUNIOR_37566355899_-_JANALUH", "ENDERECO": "TRAVESSAAMEIXEIRADOBRASIL_188_CONJUNTOHABITACIONALINSTITUTOADVENTISTA_SAOPAULO", "CIDADE": "SAO_PAULO", "LATITUDE": -23.5446576, "LONGITUDE": -46.6390336, "BASE": "ATENDIDOS" }, "geometry": { "type": "Point", "coordinates": [ -46.6390336, -23.5446576 ] } },
{ "type": "Feature", "properties": { "CNPJ": 24837483000141, "AGENTE": "MICHELLE_CAROLINE_BETONI", "ACAO": "REALIZAR_SEGUNDA_VISITA", "RAZAO_SOCIAL": "24.837.483_ANA_CLAUDIA_SOUZA_MOREGOLA_-_SM_UNIFORMES_PERSONALIZADOS", "ENDERECO": "RUAALBUQUERQUEMARANHAO_180_CAMBUCI_SAOPAULO", "CIDADE": "SAO_PAULO", "LATITUDE": -23.5446626, "LONGITUDE": -46.6390261, "BASE": "ATENDIDOS" }, "geometry": { "type": "Point", "coordinates": [ -46.6390261, -23.5446626 ] } },
{ "type": "Feature", "properties": { "CNPJ": 33842247000104, "AGENTE": "MICHELLE_CAROLINE_BETONI", "ACAO": "REALIZAR_SEGUNDA_VISITA", "RAZAO_SOCIAL": "EDERSON_PEREIRA_DOS_SANTOS_38811556864_-_DIFAVELA", "ENDERECO": "RUATIROAOPOMBO_231_BRASILANDIA_SAOPAULO", "CIDADE": "SAO_PAULO", "LATITUDE": -23.5446645, "LONGITUDE": -46.6390221, "BASE": "ATENDIDOS" }, "geometry": { "type": "Point", "coordinates": [ -46.6390221, -23.5446645 ] } },
{ "type": "Feature", "properties": { "CNPJ": 16706430000163, "AGENTE": "MICHELLE_CAROLINE_BETONI", "ACAO": "REALIZAR_SEGUNDA_VISITA", "RAZAO_SOCIAL": "MARIA_CRISTINA_PERIS_PINTO_29811082472_-_NUTRI_PANE", "ENDERECO": "RUAJULIOCESARDASILVA_264_BRAS_SAOPAULO", "CIDADE": "SAO_PAULO", "LATITUDE": -23.5446649, "LONGITUDE": -46.6390136, "BASE": "ATENDIDOS" }, "geometry": { "type": "Point", "coordinates": [ -46.6390136, -23.5446649 ] } },
{ "type": "Feature", "properties": { "CNPJ": 42600790000196, "AGENTE": "MICHELLE_CAROLINE_BETONI", "ACAO": "REALIZAR_SEGUNDA_VISITA", "RAZAO_SOCIAL": "ANNA_PAULA_MOREIRA_PARANHOS_13507072874_-_AFROCRIA", "ENDERECO": "RUAPROFESSORDORIVALDIASMINHOTO_333_LAUZANEPAULISTA_SAOPAULO", "CIDADE": "SAO_PAULO", "LATITUDE": -23.5447006, "LONGITUDE": -46.6389984, "BASE": "ATENDIDOS" }, "geometry": { "type": "Point", "coordinates": [ -46.6389984, -23.5447006 ] } },
{ "type": "Feature", "properties": { "CNPJ": 53399489000182, "AGENTE": "MICHELLE_CAROLINE_BETONI", "ACAO": "REALIZAR_SEGUNDA_VISITA", "RAZAO_SOCIAL": "53.399.489_GILMARA_FERREIRA_LEITE_-_TOQUE_DE_AMOR", "ENDERECO": "RUABENTONAVARRO_14_VILANOVACURUCA_SAOPAULO", "CIDADE": "SAO_PAULO", "LATITUDE": -23.5447051, "LONGITUDE": -46.6389679, "BASE": "ATENDIDOS" }, "geometry": { "type": "Point", "coordinates": [ -46.6389679, -23.5447051 ] } },
{ "type": "Feature", "properties": { "CNPJ": 55265054000170, "AGENTE": "MICHELLE_CAROLINE_BETONI", "ACAO": "REALIZAR_SEGUNDA_VISITA", "RAZAO_SOCIAL": "55.265.054_CHRISTIANE_DOS_SANTOS_LEONARDO_-_CHRISTIANE_DOS_SANTOS_LEONARDO", "ENDERECO": "AVENIDACIPRIANORODRIGUES_200_VILAFORMOSA_SAOPAULO", "CIDADE": "SAO_PAULO", "LATITUDE": -23.544708, "LONGITUDE": -46.6389873, "BASE": "ATENDIDOS" }, "geometry": { "type": "Point", "coordinates": [ -46.6389873, -23.544708 ] } },
{ "type": "Feature", "properties": { "CNPJ": 47869240000190, "AGENTE": "MICHELLE_CAROLINE_BETONI", "ACAO": "REALIZAR_SEGUNDA_VISITA", "RAZAO_SOCIAL": "47.869.240_EDIMEA_TEREZA_DA_SILVA_-_QUILOMBO_DOCES", "ENDERECO": "RUACAIOGRACO_20_VILAROMANA_SAOPAULO", "CIDADE": "SAO_PAULO", "LATITUDE": -23.5447119, "LONGITUDE": -46.6389801, "BASE": "ATENDIDOS" }, "geometry": { "type": "Point", "coordinates": [ -46.6389801, -23.5447119 ] } },
{ "type": "Feature", "properties": { "CNPJ": 49849818000172, "AGENTE": "MICHELLE_CAROLINE_BETONI", "ACAO": "REALIZAR_SEGUNDA_VISITA", "RAZAO_SOCIAL": "49.849.818_DEBORAH_ALVES_RIVELLES_-_ART_DA_DEH", "ENDERECO": "RUADOSCURUPIAS_100_JABAQUARA_SAOPAULO", "CIDADE": "SAO_PAULO", "LATITUDE": -23.5447136, "LONGITUDE": -46.6390016, "BASE": "ATENDIDOS" }, "geometry": { "type": "Point", "coordinates": [ -46.6390016, -23.5447136 ] } },
{ "type": "Feature", "properties": { "CNPJ": 30427943000166, "AGENTE": "MICHELLE_CAROLINE_BETONI", "ACAO": "REALIZAR_SEGUNDA_VISITA", "RAZAO_SOCIAL": "JEAN_CARLOS_DIAS_33518115863_-_GOUDOS_TEC", "ENDERECO": "RUAGABUSMENDES_29_CENTRO_SAOPAULO", "CIDADE": "SAO_PAULO", "LATITUDE": -23.5447141, "LONGITUDE": -46.6425371, "BASE": "ATENDIDOS" }, "geometry": { "type": "Point", "coordinates": [ -46.6425371, -23.5447141 ] } },
{ "type": "Feature", "properties": { "CNPJ": 45469599000145, "AGENTE": "MICHELLE_CAROLINE_BETONI", "ACAO": "REALIZAR_SEGUNDA_VISITA", "RAZAO_SOCIAL": "ADRIANA_DE_PAULA_10654393850_-_GRIFE_MULHER_PRETA", "ENDERECO": "RUAFRANCISCODACUNHAMENEZES_975_JARDIMSANTALUCRECIA_SAOPAULO", "CIDADE": "SAO_PAULO", "LATITUDE": -23.5447161, "LONGITUDE": -46.6389944, "BASE": "ATENDIDOS" }, "geometry": { "type": "Point", "coordinates": [ -46.6389944, -23.5447161 ] } },
{ "type": "Feature", "properties": { "CNPJ": 15546307000160, "AGENTE": "MICHELLE_CAROLINE_BETONI", "ACAO": "REALIZAR_SEGUNDA_VISITA", "RAZAO_SOCIAL": "PRISCILA_RODRIGUES_DE_GINO_-_SEMPRE_CASEIRO", "ENDERECO": "RUAJOHNAUDUBON_35_PARQUEBRISTOL_SAOPAULO", "CIDADE": "SAO_PAULO", "LATITUDE": -23.5447164, "LONGITUDE": -46.6389322, "BASE": "ATENDIDOS" }, "geometry": { "type": "Point", "coordinates": [ -46.6389322, -23.5447164 ] } },
{ "type": "Feature", "properties": { "CNPJ": 28875891000149, "AGENTE": "MICHELLE_CAROLINE_BETONI", "ACAO": "REALIZAR_SEGUNDA_VISITA", "RAZAO_SOCIAL": "MARIO_LAURORE_70285642235_-_MARIO_LAURORE", "ENDERECO": "TRAVESSAGERALDOGUEDESDESOUZA_9_CANGAIBA_SAOPAULO", "CIDADE": "SAO_PAULO", "LATITUDE": -23.5447169, "LONGITUDE": -46.6389106, "BASE": "ATENDIDOS" }, "geometry": { "type": "Point", "coordinates": [ -46.6389106, -23.5447169 ] } },
{ "type": "Feature", "properties": { "CNPJ": 29643288000102, "AGENTE": "MICHELLE_CAROLINE_BETONI", "ACAO": "REALIZAR_SEGUNDA_VISITA", "RAZAO_SOCIAL": "DAISA_CASEMIRO_CESAR_22569396850_-_ASIA__D_AFRICA", "ENDERECO": "RUACORONELSILVERIOMAGALHAES_618_VILASANTOESTEFANO_SAOPAULO", "CIDADE": "SAO_PAULO", "LATITUDE": -23.5447213, "LONGITUDE": -46.6389713, "BASE": "ATENDIDOS" }, "geometry": { "type": "Point", "coordinates": [ -46.6389713, -23.5447213 ] } },
{ "type": "Feature", "properties": { "CNPJ": 44218711000102, "AGENTE": "MICHELLE_CAROLINE_BETONI", "ACAO": "REALIZAR_SEGUNDA_VISITA", "RAZAO_SOCIAL": "CLAUDIA_CRISTINA_SILVA_DOS_SANTOS_01397694637_-_OUROS_DA_TERRA", "ENDERECO": "RUAANTONIONUNESPINTO_14_VILAITAIM_SAOPAULO", "CIDADE": "SAO_PAULO", "LATITUDE": -23.5447224, "LONGITUDE": -46.6389951, "BASE": "ATENDIDOS" }, "geometry": { "type": "Point", "coordinates": [ -46.6389951, -23.5447224 ] } },
{ "type": "Feature", "properties": { "CNPJ": 57202724000135, "AGENTE": "MICHELLE_CAROLINE_BETONI", "ACAO": "REALIZAR_SEGUNDA_VISITA", "RAZAO_SOCIAL": "57.202.724_CARLOS_AUGUSTO_FERREIRA_-_CARLOS_AUGUSTO_FERREIRA", "ENDERECO": "LARGODOREDENTOR_20_CAMBUCI_SAOPAULO", "CIDADE": "SAO_PAULO", "LATITUDE": -23.5447306, "LONGITUDE": -46.6389522, "BASE": "ATENDIDOS" }, "geometry": { "type": "Point", "coordinates": [ -46.6389522, -23.5447306 ] } },
{ "type": "Feature", "properties": { "CNPJ": 53984051000161, "AGENTE": "MICHELLE_CAROLINE_BETONI", "ACAO": "REALIZAR_SEGUNDA_VISITA", "RAZAO_SOCIAL": "53.984.051_VIVIANE_BARBOSA_NOVAES_-_VIVIANE_BARBOSA_NOVAES", "ENDERECO": "AVENIDAPARADAPINTO_2650_VILANOVACACHOEIRINHA_SAOPAULO", "CIDADE": "SAO_PAULO", "LATITUDE": -23.5447399, "LONGITUDE": -46.6389522, "BASE": "ATENDIDOS" }, "geometry": { "type": "Point", "coordinates": [ -46.6389522, -23.5447399 ] } },
{ "type": "Feature", "properties": { "CNPJ": 56032834000133, "AGENTE": "MICHELLE_CAROLINE_BETONI", "ACAO": "REALIZAR_SEGUNDA_VISITA", "RAZAO_SOCIAL": "56.032.834_ANDREA_DOS_REIS_-_DONAKYON_BOCHE", "ENDERECO": "RUACONEGOVICENTEMIGUELMARINO_101_BARRAFUNDA_SAOPAULO", "CIDADE": "SAO_PAULO", "LATITUDE": -23.5447422, "LONGITUDE": -46.6389341, "BASE": "ATENDIDOS" }, "geometry": { "type": "Point", "coordinates": [ -46.6389341, -23.5447422 ] } },
{ "type": "Feature", "properties": { "CNPJ": 45214638000163, "AGENTE": "MICHELLE_CAROLINE_BETONI", "ACAO": "REALIZAR_SEGUNDA_VISITA", "RAZAO_SOCIAL": "45.214.638_LILIAN_SUZANA_MARCHETTI_-_LILLIAN_MARCHETTI", "ENDERECO": "AVENIDASAOJOAO_324_CENTRO_SAOPAULO", "CIDADE": "SAO_PAULO", "LATITUDE": -23.5447426, "LONGITUDE": -46.6389531, "BASE": "ATENDIDOS" }, "geometry": { "type": "Point", "coordinates": [ -46.6389531, -23.5447426 ] } },
{ "type": "Feature", "properties": { "CNPJ": 43012578000170, "AGENTE": "MICHELLE_CAROLINE_BETONI", "ACAO": "REALIZAR_SEGUNDA_VISITA", "RAZAO_SOCIAL": "43.012.578_IRACELIA_FERREIRA_DOS_SANTOS_-_MONARCA_ESPECIARIAS", "ENDERECO": "AVENIDAGENERALOLIMPIODASILVEIRA_87_SANTACECILIA_SAOPAULO", "CIDADE": "SAO_PAULO", "LATITUDE": -23.5447439, "LONGITUDE": -46.6389394, "BASE": "ATENDIDOS" }, "geometry": { "type": "Point", "coordinates": [ -46.6389394, -23.5447439 ] } },
{ "type": "Feature", "properties": { "CNPJ": 19772435000182, "AGENTE": "MICHELLE_CAROLINE_BETONI", "ACAO": "REALIZAR_SEGUNDA_VISITA", "RAZAO_SOCIAL": "GABRIELA_CRISTINA_MUSS_07682404680_-_DOUTORA_MUSS_ESTETICA_CIENTIFICA", "ENDERECO": "RUAGOMESDECARVALHO_1356_VILAOLIMPIA_SAOPAULO", "CIDADE": "SAO_PAULO", "LATITUDE": -23.5447467, "LONGITUDE": -46.6389463, "BASE": "ATENDIDOS" }, "geometry": { "type": "Point", "coordinates": [ -46.6389463, -23.5447467 ] } },
{ "type": "Feature", "properties": { "CNPJ": 15105332000108, "AGENTE": "MICHELLE_CAROLINE_BETONI", "ACAO": "REALIZAR_SEGUNDA_VISITA", "RAZAO_SOCIAL": "JOAO_LOUZEIRO_CUNHA_23941200372_-_JOAO_LOUZEIRO_CUNHA", "ENDERECO": "RUAAUGUSTOGIL_396_VILADIONISIA_SAOPAULO", "CIDADE": "SAO_PAULO", "LATITUDE": -23.5447638, "LONGITUDE": -46.6389714, "BASE": "ATENDIDOS" }, "geometry": { "type": "Point", "coordinates": [ -46.6389714, -23.5447638 ] } },
{ "type": "Feature", "properties": { "CNPJ": 2607391000132, "AGENTE": "MICHELLE_CAROLINE_BETONI", "ACAO": "REALIZAR_SEGUNDA_VISITA", "RAZAO_SOCIAL": "ROSES_PET_SHOP_&_FLOWERS_COMERCIAL_LTDA_-_ROSES_PET_SHOP", "ENDERECO": "RUADOUTORVILANOVA_142_VILABUARQUE_SAOPAULO", "CIDADE": "SAO_PAULO", "LATITUDE": -23.5450032, "LONGITUDE": -46.6504635, "BASE": "ATENDIDOS" }, "geometry": { "type": "Point", "coordinates": [ -46.6504635, -23.5450032 ] } },
{ "type": "Feature", "properties": { "CNPJ": 17035942000108, "AGENTE": "MICHELLE_CAROLINE_BETONI", "ACAO": "REALIZAR_SEGUNDA_VISITA", "RAZAO_SOCIAL": "JFM_CONSTRUCOES_E_SERVICOS_LTDA_-_LANCHONETE_NOVO_ESTILO", "ENDERECO": "RUAMAJORSERTORIO_458_VILABUARQUE_SAOPAULO", "CIDADE": "SAO_PAULO", "LATITUDE": -23.5453731, "LONGITUDE": -46.648464, "BASE": "ATENDIDOS" }, "geometry": { "type": "Point", "coordinates": [ -46.648464, -23.5453731 ] } },
{ "type": "Feature", "properties": { "CNPJ": 26276273000157, "AGENTE": "MICHELLE_CAROLINE_BETONI", "ACAO": "REALIZAR_SEGUNDA_VISITA", "RAZAO_SOCIAL": "SEBO_LUIS_BORGES_LTDA_-_SEBO_LUIS_BORGES", "ENDERECO": "RUAMARCONI_118_REPUBLICA_SAOPAULO", "CIDADE": "SAO_PAULO", "LATITUDE": -23.5454791, "LONGITUDE": -46.6401514, "BASE": "ATENDIDOS" }, "geometry": { "type": "Point", "coordinates": [ -46.6401514, -23.5454791 ] } },
{ "type": "Feature", "properties": { "CNPJ": 10454661000140, "AGENTE": "MICHELLE_CAROLINE_BETONI", "ACAO": "REALIZAR_SEGUNDA_VISITA", "RAZAO_SOCIAL": "EMPORIO_GALAN_COMERCIO_DE_ALIMENTOS_LTDA._-_EMPORIO_GALAN", "ENDERECO": "RUAMARCONI_79_REPUBLICA_SAOPAULO", "CIDADE": "SAO_PAULO", "LATITUDE": -23.5456768, "LONGITUDE": -46.6404932, "BASE": "ATENDIDOS" }, "geometry": { "type": "Point", "coordinates": [ -46.6404932, -23.5456768 ] } },
{ "type": "Feature", "properties": { "CNPJ": 51955711000150, "AGENTE": "MICHELLE_CAROLINE_BETONI", "ACAO": "REALIZAR_SEGUNDA_VISITA", "RAZAO_SOCIAL": "HAMBURG_LTDA_-_HAMBURG", "ENDERECO": "RUAMARIAANTONIA_376_HIGIENOPOLIS_SAOPAULO", "CIDADE": "SAO_PAULO", "LATITUDE": -23.5456908, "LONGITUDE": -46.6516746, "BASE": "ATENDIDOS" }, "geometry": { "type": "Point", "coordinates": [ -46.6516746, -23.5456908 ] } },
{ "type": "Feature", "properties": { "CNPJ": 60615700000112, "AGENTE": "MICHELLE_CAROLINE_BETONI", "ACAO": "REALIZAR_SEGUNDA_VISITA", "RAZAO_SOCIAL": "NOBRE_PALADAR_RESTAURANTE_LTDA_-_NOBRE_PALADAR", "ENDERECO": "RUADOUTORVILANOVA_235_VILABUARQUE_SAOPAULO", "CIDADE": "SAO_PAULO", "LATITUDE": -23.5458421, "LONGITUDE": -46.6503047, "BASE": "ATENDIDOS" }, "geometry": { "type": "Point", "coordinates": [ -46.6503047, -23.5458421 ] } },
{ "type": "Feature", "properties": { "CNPJ": 62123427000134, "AGENTE": "MICHELLE_CAROLINE_BETONI", "ACAO": "REALIZAR_SEGUNDA_VISITA", "RAZAO_SOCIAL": "NORMANDO_LANCHES_LTDA_-_NORMANDO_LANCHES", "ENDERECO": "AVENIDAIPIRANGA_318_REPUBLICA_SAOPAULO", "CIDADE": "SAO_PAULO", "LATITUDE": -23.5458519, "LONGITUDE": -46.6437716, "BASE": "ATENDIDOS" }, "geometry": { "type": "Point", "coordinates": [ -46.6437716, -23.5458519 ] } },
{ "type": "Feature", "properties": { "CNPJ": 55648949000194, "AGENTE": "MICHELLE_CAROLINE_BETONI", "ACAO": "REALIZAR_SEGUNDA_VISITA", "RAZAO_SOCIAL": "REPUBLICA_COMERCIO_DE_PRODUTOS_OTICOS_LTDA_-_OTICAS_LELLI", "ENDERECO": "RUAMARCONI_54_REPUBLICA_SAOPAULO", "CIDADE": "SAO_PAULO", "LATITUDE": -23.5458948, "LONGITUDE": -46.6407718, "BASE": "ATENDIDOS" }, "geometry": { "type": "Point", "coordinates": [ -46.6407718, -23.5458948 ] } },
{ "type": "Feature", "properties": { "CNPJ": 35532129000125, "AGENTE": "MICHELLE_CAROLINE_BETONI", "ACAO": "REALIZAR_SEGUNDA_VISITA", "RAZAO_SOCIAL": "WILLYER_CRUZ_DE_BRITO_40395656818_-_WL_STUDIOS", "ENDERECO": "RUACONSELHEIROCRISPINIANO_131_REPUBLICA_SAOPAULO", "CIDADE": "SAO_PAULO", "LATITUDE": -23.5459335, "LONGITUDE": -46.6397, "BASE": "ATENDIDOS" }, "geometry": { "type": "Point", "coordinates": [ -46.6397, -23.5459335 ] } },
{ "type": "Feature", "properties": { "CNPJ": 51180476000192, "AGENTE": "MICHELLE_CAROLINE_BETONI", "ACAO": "REALIZAR_SEGUNDA_VISITA", "RAZAO_SOCIAL": "51.180.476_ERIKA_FARIAS_FERREIRA_-_ERIKA_FERREIRA_ACESSORIOS", "ENDERECO": "RUACONSELHEIROCRISPINIANO_125_REPUBLICA_SAOPAULO", "CIDADE": "SAO_PAULO", "LATITUDE": -23.545999, "LONGITUDE": -46.6398044, "BASE": "ATENDIDOS" }, "geometry": { "type": "Point", "coordinates": [ -46.6398044, -23.545999 ] } },
{ "type": "Feature", "properties": { "CNPJ": 34552434000116, "AGENTE": "MICHELLE_CAROLINE_BETONI", "ACAO": "REALIZAR_SEGUNDA_VISITA", "RAZAO_SOCIAL": "TORRE_CAFE_CAFETERIA_LTDA_-_TORRE_DO_CAFE", "ENDERECO": "RUACONSELHEIROCRISPINIANO_115_REPUBLICA_SAOPAULO", "CIDADE": "SAO_PAULO", "LATITUDE": -23.5460455, "LONGITUDE": -46.6398588, "BASE": "ATENDIDOS" }, "geometry": { "type": "Point", "coordinates": [ -46.6398588, -23.5460455 ] } },
{ "type": "Feature", "properties": { "CNPJ": 35756644000199, "AGENTE": "MICHELLE_CAROLINE_BETONI", "ACAO": "REALIZAR_SEGUNDA_VISITA", "RAZAO_SOCIAL": "RODRIGUES_&_MELLO_LANCHONETE_PIZZARIA_E_RESTAURANTE_LTDA_-_VERSATIL_RESTAURANTE", "ENDERECO": "RUACONSELHEIROCRISPINIANO_91_REPUBLICA_SAOPAULO", "CIDADE": "SAO_PAULO", "LATITUDE": -23.5461487, "LONGITUDE": -46.6399227, "BASE": "ATENDIDOS" }, "geometry": { "type": "Point", "coordinates": [ -46.6399227, -23.5461487 ] } },
{ "type": "Feature", "properties": { "CNPJ": 24948771000173, "AGENTE": "MICHELLE_CAROLINE_BETONI", "ACAO": "REALIZAR_SEGUNDA_VISITA", "RAZAO_SOCIAL": "BARBEARIA_EXPRESS_LTDA._-_BARBEARIA_EXPRESS", "ENDERECO": "RUADOUTORVILANOVA_304_VILABUARQUE_SAOPAULO", "CIDADE": "SAO_PAULO", "LATITUDE": -23.5465115, "LONGITUDE": -46.6503637, "BASE": "ATENDIDOS" }, "geometry": { "type": "Point", "coordinates": [ -46.6503637, -23.5465115 ] } },
{ "type": "Feature", "properties": { "CNPJ": 8830863000106, "AGENTE": "MICHELLE_CAROLINE_BETONI", "ACAO": "REALIZAR_SEGUNDA_VISITA", "RAZAO_SOCIAL": "BAR_E_LANCHONETE_CONSELHEIRO_LTDA_-_BAR_E_LACHONETE_CONSELHEIRO", "ENDERECO": "RUACONSELHEIROCRISPINIANO_39_REPUBLICA_SAOPAULO", "CIDADE": "SAO_PAULO", "LATITUDE": -23.546634, "LONGITUDE": -46.6402864, "BASE": "ATENDIDOS" }, "geometry": { "type": "Point", "coordinates": [ -46.6402864, -23.546634 ] } },
{ "type": "Feature", "properties": { "CNPJ": 28644301000339, "AGENTE": "MICHELLE_CAROLINE_BETONI", "ACAO": "REALIZAR_SEGUNDA_VISITA", "RAZAO_SOCIAL": "BORGER_BURGER_LTDA_-_BORGES_BURGER", "ENDERECO": "RUADOUTORVILANOVA_319_VILABUARQUE_SAOPAULO", "CIDADE": "SAO_PAULO", "LATITUDE": -23.5466447, "LONGITUDE": -46.6503285, "BASE": "ATENDIDOS" }, "geometry": { "type": "Point", "coordinates": [ -46.6503285, -23.5466447 ] } },
{ "type": "Feature", "properties": { "CNPJ": 33587586000191, "AGENTE": "MICHELLE_CAROLINE_BETONI", "ACAO": "REALIZAR_SEGUNDA_VISITA", "RAZAO_SOCIAL": "LUCAS_MOREIRA_TRINDADE_MARQUES_-_TABACARIA_DRAGON", "ENDERECO": "RUACONSELHEIROCRISPINIANO_19_REPUBLICA_SAOPAULO", "CIDADE": "SAO_PAULO", "LATITUDE": -23.5467054, "LONGITUDE": -46.6403635, "BASE": "ATENDIDOS" }, "geometry": { "type": "Point", "coordinates": [ -46.6403635, -23.5467054 ] } },
{ "type": "Feature", "properties": { "CNPJ": 38439803000110, "AGENTE": "MICHELLE_CAROLINE_BETONI", "ACAO": "REALIZAR_SEGUNDA_VISITA", "RAZAO_SOCIAL": "NICK_NET_COMERCIO_EQUIPAMENTOS_FOTOGRAFICOS_LTDA_-_NICK_NET", "ENDERECO": "RUASETEDEABRIL_125_REPUBLICA_SAOPAULO", "CIDADE": "SAO_PAULO", "LATITUDE": -23.5468823, "LONGITUDE": -46.6411084, "BASE": "ATENDIDOS" }, "geometry": { "type": "Point", "coordinates": [ -46.6411084, -23.5468823 ] } },
{ "type": "Feature", "properties": { "CNPJ": 24185328000198, "AGENTE": "MICHELLE_CAROLINE_BETONI", "ACAO": "REALIZAR_SEGUNDA_VISITA", "RAZAO_SOCIAL": "R_PASLAR_LEAL_COMERCIO_DE_ALIMENTACAO_-_PAULISTAS_RESTAURANTE", "ENDERECO": "RUAMARIAANTONIA_140_VILABUARQUE_SAOPAULO", "CIDADE": "SAO_PAULO", "LATITUDE": -23.5468897, "LONGITUDE": -46.6497547, "BASE": "ATENDIDOS" }, "geometry": { "type": "Point", "coordinates": [ -46.6497547, -23.5468897 ] } },
{ "type": "Feature", "properties": { "CNPJ": 60442134000194, "AGENTE": "MICHELLE_CAROLINE_BETONI", "ACAO": "REALIZAR_SEGUNDA_VISITA", "RAZAO_SOCIAL": "BAR_E_CAFE_CRISPINIANO_LTDA_-_BAR_E_CAFE_CRISPINIANO", "ENDERECO": "RUASETEDEABRIL_96_REPUBLICA_SAOPAULO", "CIDADE": "SAO_PAULO", "LATITUDE": -23.5469137, "LONGITUDE": -46.6404113, "BASE": "ATENDIDOS" }, "geometry": { "type": "Point", "coordinates": [ -46.6404113, -23.5469137 ] } },
{ "type": "Feature", "properties": { "CNPJ": 53908608000185, "AGENTE": "MICHELLE_CAROLINE_BETONI", "ACAO": "REALIZAR_SEGUNDA_VISITA", "RAZAO_SOCIAL": "53.908.608_HAYLA_HAMAZAKI_-_MONTE_FUJI_RELOGIOS", "ENDERECO": "RUASETEDEABRIL_125_REPUBLICA_SAOPAULO", "CIDADE": "SAO_PAULO", "LATITUDE": -23.5469283, "LONGITUDE": -46.6411882, "BASE": "ATENDIDOS" }, "geometry": { "type": "Point", "coordinates": [ -46.6411882, -23.5469283 ] } },
{ "type": "Feature", "properties": { "CNPJ": 47687834000180, "AGENTE": "MICHELLE_CAROLINE_BETONI", "ACAO": "REALIZAR_SEGUNDA_VISITA", "RAZAO_SOCIAL": "RESTAURANTE_TERRA_MINEIRA_LTDA_-_RESTAURANTE_TERRA_MINEIRA", "ENDERECO": "RUAMARIAANTONIA_140_VILABUARQUE_SAOPAULO", "CIDADE": "SAO_PAULO", "LATITUDE": -23.5469344, "LONGITUDE": -46.6498546, "BASE": "ATENDIDOS" }, "geometry": { "type": "Point", "coordinates": [ -46.6498546, -23.5469344 ] } },
{ "type": "Feature", "properties": { "CNPJ": 29845760000181, "AGENTE": "MICHELLE_CAROLINE_BETONI", "ACAO": "REALIZAR_SEGUNDA_VISITA", "RAZAO_SOCIAL": "BERTOLDO_E_VASCONCELLOS_RESTAURANTE_LTDA_-_SANTA_GULA_RESTAURANTE", "ENDERECO": "RUAMARIAANTONIA_140_VILABUARQUE_SAOPAULO", "CIDADE": "SAO_PAULO", "LATITUDE": -23.5469372, "LONGITUDE": -46.6498007, "BASE": "ATENDIDOS" }, "geometry": { "type": "Point", "coordinates": [ -46.6498007, -23.5469372 ] } },
{ "type": "Feature", "properties": { "CNPJ": 30789836001150, "AGENTE": "MICHELLE_CAROLINE_BETONI", "ACAO": "REALIZAR_SEGUNDA_VISITA", "RAZAO_SOCIAL": "BLACK_ZONE_TRADE_LTDA_-_BLACK_ZONE", "ENDERECO": "RUAMARIAANTONIA_80_VILABUARQUE_SAOPAULO", "CIDADE": "SAO_PAULO", "LATITUDE": -23.547531, "LONGITUDE": -46.6494644, "BASE": "ATENDIDOS" }, "geometry": { "type": "Point", "coordinates": [ -46.6494644, -23.547531 ] } },
{ "type": "Feature", "properties": { "CNPJ": 60733904000158, "AGENTE": "MICHELLE_CAROLINE_BETONI", "ACAO": "REALIZAR_SEGUNDA_VISITA", "RAZAO_SOCIAL": "LANCHONETE_HIGIENOPOLIS_LTDA_-_LANCHONETE_HIGIENOPOLIS", "ENDERECO": "AVENIDAANGELICA_1709_HIGIENOPOLIS_SAOPAULO", "CIDADE": "SAO_PAULO", "LATITUDE": -23.5476087, "LONGITUDE": -46.6584371, "BASE": "ATENDIDOS" }, "geometry": { "type": "Point", "coordinates": [ -46.6584371, -23.5476087 ] } },
{ "type": "Feature", "properties": { "CNPJ": 40141054000191, "AGENTE": "MICHELLE_CAROLINE_BETONI", "ACAO": "REALIZAR_SEGUNDA_VISITA", "RAZAO_SOCIAL": "HOTEL_DAN_SP_INN_EXPRESS_LTDA_-_HOTEL_DAN_INN_EXPRESS", "ENDERECO": "RUAMARIAANTONIA_40_VILABUARQUE_SAOPAULO", "CIDADE": "SAO_PAULO", "LATITUDE": -23.5476981, "LONGITUDE": -46.6491069, "BASE": "ATENDIDOS" }, "geometry": { "type": "Point", "coordinates": [ -46.6491069, -23.5476981 ] } },
{ "type": "Feature", "properties": { "CNPJ": 10823343000100, "AGENTE": "MICHELLE_CAROLINE_BETONI", "ACAO": "REALIZAR_SEGUNDA_VISITA", "RAZAO_SOCIAL": "CONSOLACAO_CHIC_BAR_E_LANCHONETE_LTDA_-_BAR_DO_INDIO", "ENDERECO": "RUAMARIAANTONIA_49_VILABUARQUE_SAOPAULO", "CIDADE": "SAO_PAULO", "LATITUDE": -23.5477745, "LONGITUDE": -46.6492514, "BASE": "ATENDIDOS" },