{
"type": "FeatureCollection",
"name": "MICHELLE_CAROLINE_BETONI",
"crs": { "type": "name", "properties": { "name": "urn:ogc:def:crs:OGC:1.3:CRS84" } },
"xy_coordinate_resolution": 1e-15,
"features": [
{ "type": "Feature", "properties": { "CNPJ": 8020903000146, "AGENTE": "MICHELLE_CAROLINE_BETONI", "ACAO": "REALIZAR_PRIMEIRA_VISITA", "RAZAO_SOCIAL": "BENIENI_COMERCIO_DE_ROUPAS_LTDA", "ENDERECO": "AVENIDA_IPIRANGA_200_REPUBLICA_SAO_PAULO", "CIDADE": "SAO_PAULO", "LATITUDE": -23.5466363, "LONGITUDE": -46.6444026 }, "geometry": { "type": "Point", "coordinates": [ -46.6444026, -23.5466363 ] } },
{ "type": "Feature", "properties": { "CNPJ": 31425591000172, "AGENTE": "MICHELLE_CAROLINE_BETONI", "ACAO": "REALIZAR_PRIMEIRA_VISITA", "RAZAO_SOCIAL": "TRANSA55_MODA_CONSCIENTE_LTDA", "ENDERECO": "AVENIDA_SAO_LUIS_184_REPUBLICA_SAO_PAULO", "CIDADE": "SAO_PAULO", "LATITUDE": -23.5463664, "LONGITUDE": -46.642179 }, "geometry": { "type": "Point", "coordinates": [ -46.642179, -23.5463664 ] } },
{ "type": "Feature", "properties": { "CNPJ": 49821611000190, "AGENTE": "MICHELLE_CAROLINE_BETONI", "ACAO": "REALIZAR_PRIMEIRA_VISITA", "RAZAO_SOCIAL": "INTRO_NETWORK_LTDA", "ENDERECO": "AVENIDA_SAO_LUIS_187_REPUBLICA_SAO_PAULO", "CIDADE": "SAO_PAULO", "LATITUDE": -23.5463255, "LONGITUDE": -46.6421525 }, "geometry": { "type": "Point", "coordinates": [ -46.6421525, -23.5463255 ] } },
{ "type": "Feature", "properties": { "CNPJ": 33508386000104, "AGENTE": "MICHELLE_CAROLINE_BETONI", "ACAO": "REALIZAR_PRIMEIRA_VISITA", "RAZAO_SOCIAL": "VHMOR_BISTRO_E_PRESTACAO_DE_SERVICOS_DE_DESENVOLVIMENTO_PROFISSIONAL_LTDA", "ENDERECO": "AVENIDA_SAO_LUIS_187_REPUBLICA_SAO_PAULO", "CIDADE": "SAO_PAULO", "LATITUDE": -23.5463603, "LONGITUDE": -46.6422054 }, "geometry": { "type": "Point", "coordinates": [ -46.6422054, -23.5463603 ] } },
{ "type": "Feature", "properties": { "CNPJ": 55013249000123, "AGENTE": "MICHELLE_CAROLINE_BETONI", "ACAO": "REALIZAR_PRIMEIRA_VISITA", "RAZAO_SOCIAL": "TUCUPI_DO_CENTRO_LTDA", "ENDERECO": "AVENIDA_SAO_LUIS_187_REPUBLICA_SAO_PAULO", "CIDADE": "SAO_PAULO", "LATITUDE": -23.5463638, "LONGITUDE": -46.6422929 }, "geometry": { "type": "Point", "coordinates": [ -46.6422929, -23.5463638 ] } },
{ "type": "Feature", "properties": { "CNPJ": 55395137000184, "AGENTE": "MICHELLE_CAROLINE_BETONI", "ACAO": "REALIZAR_PRIMEIRA_VISITA", "RAZAO_SOCIAL": "MCC_VIAGENS_E_TURISMO_LTDA", "ENDERECO": "AVENIDA_SAO_LUIS_187_REPUBLICA_SAO_PAULO", "CIDADE": "SAO_PAULO", "LATITUDE": -23.5464495, "LONGITUDE": -46.642901 }, "geometry": { "type": "Point", "coordinates": [ -46.642901, -23.5464495 ] } },
{ "type": "Feature", "properties": { "CNPJ": 48517209000153, "AGENTE": "MICHELLE_CAROLINE_BETONI", "ACAO": "REALIZAR_PRIMEIRA_VISITA", "RAZAO_SOCIAL": "ITP_DISTRIBUIDORA_LTDA", "ENDERECO": "RUA_AGOSTINHO_GOMES_3443_IPIRANGA_SAO_PAULO", "CIDADE": "SAO_PAULO", "LATITUDE": -23.6011257, "LONGITUDE": -46.602538 }, "geometry": { "type": "Point", "coordinates": [ -46.602538, -23.6011257 ] } },
{ "type": "Feature", "properties": { "CNPJ": 20399602000170, "AGENTE": "MICHELLE_CAROLINE_BETONI", "ACAO": "REALIZAR_PRIMEIRA_VISITA", "RAZAO_SOCIAL": "CARLOS_ALBERTO_ALVES_JUNIOR", "ENDERECO": "RUA_BOM_PASTOR_1675_IPIRANGA_SAO_PAULO", "CIDADE": "SAO_PAULO", "LATITUDE": -23.5913869, "LONGITUDE": -46.6069806 }, "geometry": { "type": "Point", "coordinates": [ -46.6069806, -23.5913869 ] } },
{ "type": "Feature", "properties": { "CNPJ": 3284639000134, "AGENTE": "MICHELLE_CAROLINE_BETONI", "ACAO": "REALIZAR_PRIMEIRA_VISITA", "RAZAO_SOCIAL": "LUAR_DISTRIBUIDORA_DE_ARTIGOS_RELIGIOSOS_LTDA.", "ENDERECO": "RUA_BOM_PASTOR_2190_IPIRANGA_SAO_PAULO", "CIDADE": "SAO_PAULO", "LATITUDE": -23.5959085, "LONGITUDE": -46.6063829 }, "geometry": { "type": "Point", "coordinates": [ -46.6063829, -23.5959085 ] } },
{ "type": "Feature", "properties": { "CNPJ": 32964198000110, "AGENTE": "MICHELLE_CAROLINE_BETONI", "ACAO": "REALIZAR_PRIMEIRA_VISITA", "RAZAO_SOCIAL": "ELIANE_VALERIA_MARQUES_COMERCIO_E_SERVICOS", "ENDERECO": "RUA_BOM_PASTOR_2295_IPIRANGA_SAO_PAULO", "CIDADE": "SAO_PAULO", "LATITUDE": -23.5967672, "LONGITUDE": -46.6059082 }, "geometry": { "type": "Point", "coordinates": [ -46.6059082, -23.5967672 ] } },
{ "type": "Feature", "properties": { "CNPJ": 4484400000170, "AGENTE": "MICHELLE_CAROLINE_BETONI", "ACAO": "REALIZAR_PRIMEIRA_VISITA", "RAZAO_SOCIAL": "FLORES_TRINDADE_LTDA", "ENDERECO": "RUA_BOM_PASTOR_2421_IPIRANGA_SAO_PAULO", "CIDADE": "SAO_PAULO", "LATITUDE": -23.5976949, "LONGITUDE": -46.6055752 }, "geometry": { "type": "Point", "coordinates": [ -46.6055752, -23.5976949 ] } },
{ "type": "Feature", "properties": { "CNPJ": 27994844000151, "AGENTE": "MICHELLE_CAROLINE_BETONI", "ACAO": "REALIZAR_PRIMEIRA_VISITA", "RAZAO_SOCIAL": "INOVA_&_DECOR_AMBIENTES_PLANEJADOS_LTDA", "ENDERECO": "RUA_DOM_LUCAS_OBES_130_IPIRANGA_SAO_PAULO", "CIDADE": "SAO_PAULO", "LATITUDE": -23.5894429, "LONGITUDE": -46.6057378 }, "geometry": { "type": "Point", "coordinates": [ -46.6057378, -23.5894429 ] } },
{ "type": "Feature", "properties": { "CNPJ": 22436263000180, "AGENTE": "MICHELLE_CAROLINE_BETONI", "ACAO": "REALIZAR_PRIMEIRA_VISITA", "RAZAO_SOCIAL": "LANCHONETE_E_RESTAURANTE_FLOR_DO_SACOMA_LTDA", "ENDERECO": "RUA_GREENFELD_63_IPIRANGA_SAO_PAULO", "CIDADE": "SAO_PAULO", "LATITUDE": -23.6126867, "LONGITUDE": -46.5919183 }, "geometry": { "type": "Point", "coordinates": [ -46.5919183, -23.6126867 ] } },
{ "type": "Feature", "properties": { "CNPJ": 24581495000158, "AGENTE": "MICHELLE_CAROLINE_BETONI", "ACAO": "REALIZAR_PRIMEIRA_VISITA", "RAZAO_SOCIAL": "MR_SILVA_COMERCIO", "ENDERECO": "RUA_LINO_COUTINHO_1919_IPIRANGA_SAO_PAULO", "CIDADE": "SAO_PAULO", "LATITUDE": -23.6004564, "LONGITUDE": -46.6016498 }, "geometry": { "type": "Point", "coordinates": [ -46.6016498, -23.6004564 ] } },
{ "type": "Feature", "properties": { "CNPJ": 61269759000169, "AGENTE": "MICHELLE_CAROLINE_BETONI", "ACAO": "REALIZAR_PRIMEIRA_VISITA", "RAZAO_SOCIAL": "SUPER_LANCHES_1.218_LTDA", "ENDERECO": "RUA_SILVA_BUENO_1218_IPIRANGA_SAO_PAULO", "CIDADE": "SAO_PAULO", "LATITUDE": -23.5891806, "LONGITUDE": -46.6016151 }, "geometry": { "type": "Point", "coordinates": [ -46.6016151, -23.5891806 ] } },
{ "type": "Feature", "properties": { "CNPJ": 21107939000120, "AGENTE": "MICHELLE_CAROLINE_BETONI", "ACAO": "REALIZAR_PRIMEIRA_VISITA", "RAZAO_SOCIAL": "MARCELO_SOUTO_QUINTERO", "ENDERECO": "RUA_SILVA_BUENO_1747_IPIRANGA_SAO_PAULO", "CIDADE": "SAO_PAULO", "LATITUDE": -23.59419, "LONGITUDE": -46.60085 }, "geometry": { "type": "Point", "coordinates": [ -46.60085, -23.59419 ] } },
{ "type": "Feature", "properties": { "CNPJ": 2224213000122, "AGENTE": "MICHELLE_CAROLINE_BETONI", "ACAO": "REALIZAR_PRIMEIRA_VISITA", "RAZAO_SOCIAL": "BEMSTAR_COSMETICOS_LTDA", "ENDERECO": "RUA_SILVA_BUENO_2489_IPIRANGA_SAO_PAULO", "CIDADE": "SAO_PAULO", "LATITUDE": -23.6006238, "LONGITUDE": -46.6003978 }, "geometry": { "type": "Point", "coordinates": [ -46.6003978, -23.6006238 ] } },
{ "type": "Feature", "properties": { "CNPJ": 55224968000193, "AGENTE": "MICHELLE_CAROLINE_BETONI", "ACAO": "REALIZAR_SEGUNDA_VISITA", "RAZAO_SOCIAL": "SALAO_DE_BELEZA_SILVIO_LTDA_-_SILVIO_CABELEIREIROS", "ENDERECO": "ALAMEDA_BARAO_DE_LIMEIRA_1026_CAMPOS_ELISEOS_SAO_PAULO", "CIDADE": "SAO_PAULO", "LATITUDE": -23.5328339, "LONGITUDE": -46.648989 }, "geometry": { "type": "Point", "coordinates": [ -46.648989, -23.5328339 ] } },
{ "type": "Feature", "properties": { "CNPJ": 46416707000184, "AGENTE": "MICHELLE_CAROLINE_BETONI", "ACAO": "REALIZAR_SEGUNDA_VISITA", "RAZAO_SOCIAL": "FOTO_HIGASHI_&_ARAI_LTDA_-_ASAOTICA", "ENDERECO": "ALAMEDA_BARAO_DE_LIMEIRA_1045_CAMPOS_ELISEOS_SAO_PAULO", "CIDADE": "SAO_PAULO", "LATITUDE": -23.5327481, "LONGITUDE": -46.6491029 }, "geometry": { "type": "Point", "coordinates": [ -46.6491029, -23.5327481 ] } },
{ "type": "Feature", "properties": { "CNPJ": 8578349000117, "AGENTE": "MICHELLE_CAROLINE_BETONI", "ACAO": "REALIZAR_SEGUNDA_VISITA", "RAZAO_SOCIAL": "GSM_GLOBAL_TELECOM_LTDA_-_GSM_GLOBAL", "ENDERECO": "ALAMEDA_BARAO_DE_LIMEIRA_1051_CAMPOS_ELISEOS_SAO_PAULO", "CIDADE": "SAO_PAULO", "LATITUDE": -23.5326363, "LONGITUDE": -46.6492153 }, "geometry": { "type": "Point", "coordinates": [ -46.6492153, -23.5326363 ] } },
{ "type": "Feature", "properties": { "CNPJ": 17986867000160, "AGENTE": "MICHELLE_CAROLINE_BETONI", "ACAO": "REALIZAR_SEGUNDA_VISITA", "RAZAO_SOCIAL": "LANCHONETE_PRINCESA_DA_BARAO_LTDA_-_LANCHONETE_JABUTI", "ENDERECO": "ALAMEDA_BARAO_DE_LIMEIRA_1069_CAMPOS_ELISEOS_SAO_PAULO", "CIDADE": "SAO_PAULO", "LATITUDE": -23.5326161, "LONGITUDE": -46.6494964 }, "geometry": { "type": "Point", "coordinates": [ -46.6494964, -23.5326161 ] } },
{ "type": "Feature", "properties": { "CNPJ": 31597368000102, "AGENTE": "MICHELLE_CAROLINE_BETONI", "ACAO": "REALIZAR_SEGUNDA_VISITA", "RAZAO_SOCIAL": "RESTAURANTE_E_PIZZARIA_REI_DA_BARAO_LTDA_-_RESTAURANTE_E_PIZZARIA_REGO_DA_BARAO", "ENDERECO": "ALAMEDA_BARAO_DE_LIMEIRA_1090_CAMPOS_ELISEOS_SAO_PAULO", "CIDADE": "SAO_PAULO", "LATITUDE": -23.5322611, "LONGITUDE": -46.6490563 }, "geometry": { "type": "Point", "coordinates": [ -46.6490563, -23.5322611 ] } },
{ "type": "Feature", "properties": { "CNPJ": 19842630000212, "AGENTE": "MICHELLE_CAROLINE_BETONI", "ACAO": "REALIZAR_SEGUNDA_VISITA", "RAZAO_SOCIAL": "I_LOVE_ME_SERVICOS_DE_BELEZA_LTDA_-_I_LOVE_ME_SERVICOS_DE_BELEZA", "ENDERECO": "ALAMEDA_BARAO_DE_LIMEIRA_1253_CAMPOS_ELISEOS_SAO_PAULO", "CIDADE": "SAO_PAULO", "LATITUDE": -23.5312393, "LONGITUDE": -46.6503141 }, "geometry": { "type": "Point", "coordinates": [ -46.6503141, -23.5312393 ] } },
{ "type": "Feature", "properties": { "CNPJ": 48392615000137, "AGENTE": "MICHELLE_CAROLINE_BETONI", "ACAO": "REALIZAR_SEGUNDA_VISITA", "RAZAO_SOCIAL": "DOLCE_PETS_COMERCIO_DE_ARTIGOS_E_ACESSORIOS_LTDA_-_DOLCE_PETS", "ENDERECO": "ALAMEDA_BARAO_DE_LIMEIRA_1269_CAMPOS_ELISEOS_SAO_PAULO", "CIDADE": "SAO_PAULO", "LATITUDE": -23.5309251, "LONGITUDE": -46.6502717 }, "geometry": { "type": "Point", "coordinates": [ -46.6502717, -23.5309251 ] } },
{ "type": "Feature", "properties": { "CNPJ": 62363270000114, "AGENTE": "MICHELLE_CAROLINE_BETONI", "ACAO": "REALIZAR_SEGUNDA_VISITA", "RAZAO_SOCIAL": "PANIFICADORA_E_DOCES_CAXIAS_LTDA_-_PADARIA_CAXIAS", "ENDERECO": "ALAMEDA_BARAO_DE_LIMEIRA_360_CAMPOS_ELISEOS_SAO_PAULO", "CIDADE": "SAO_PAULO", "LATITUDE": -23.5377052, "LONGITUDE": -46.6449389 }, "geometry": { "type": "Point", "coordinates": [ -46.6449389, -23.5377052 ] } },
{ "type": "Feature", "properties": { "CNPJ": 863855000146, "AGENTE": "MICHELLE_CAROLINE_BETONI", "ACAO": "REALIZAR_SEGUNDA_VISITA", "RAZAO_SOCIAL": "CIGRECAR_ACESSORIOS_E_PECAS_P_AUTOS_LTDA_-_LIDER_101", "ENDERECO": "ALAMEDA_BARAO_DE_LIMEIRA_436_CAMPOS_ELISEOS_SAO_PAULO", "CIDADE": "SAO_PAULO", "LATITUDE": -23.5371108, "LONGITUDE": -46.6454291 }, "geometry": { "type": "Point", "coordinates": [ -46.6454291, -23.5371108 ] } },
{ "type": "Feature", "properties": { "CNPJ": 60559820000140, "AGENTE": "MICHELLE_CAROLINE_BETONI", "ACAO": "REALIZAR_SEGUNDA_VISITA", "RAZAO_SOCIAL": "CAFE_E_LANCHES_SAO_JOSE_LTDA_-_ALDINOS_RESTAURANTE", "ENDERECO": "ALAMEDA_BARAO_DE_LIMEIRA_548_CAMPOS_ELISEOS_SAO_PAULO", "CIDADE": "SAO_PAULO", "LATITUDE": -23.5362217, "LONGITUDE": -46.6461162 }, "geometry": { "type": "Point", "coordinates": [ -46.6461162, -23.5362217 ] } },
{ "type": "Feature", "properties": { "CNPJ": 49159195000106, "AGENTE": "MICHELLE_CAROLINE_BETONI", "ACAO": "REALIZAR_SEGUNDA_VISITA", "RAZAO_SOCIAL": "49.159.195_JUCIANE_SALES_PEREIRA_-_JU_TE_VESTE", "ENDERECO": "ALAMEDA_BARAO_DE_LIMEIRA_620_CAMPOS_ELISEOS_SAO_PAULO", "CIDADE": "SAO_PAULO", "LATITUDE": -23.5357821, "LONGITUDE": -46.6465075 }, "geometry": { "type": "Point", "coordinates": [ -46.6465075, -23.5357821 ] } },
{ "type": "Feature", "properties": { "CNPJ": 38169909000140, "AGENTE": "MICHELLE_CAROLINE_BETONI", "ACAO": "REALIZAR_SEGUNDA_VISITA", "RAZAO_SOCIAL": "JOSE_ERINALDO_CONCEICAO_GUIMARAES_-_BAR_E_RESTAURANTE_DO_NALDO", "ENDERECO": "ALAMEDA_BARAO_DE_LIMEIRA_729_CAMPOS_ELISEOS_SAO_PAULO", "CIDADE": "SAO_PAULO", "LATITUDE": -23.5350743, "LONGITUDE": -46.6472342 }, "geometry": { "type": "Point", "coordinates": [ -46.6472342, -23.5350743 ] } },
{ "type": "Feature", "properties": { "CNPJ": 19435483000185, "AGENTE": "MICHELLE_CAROLINE_BETONI", "ACAO": "REALIZAR_SEGUNDA_VISITA", "RAZAO_SOCIAL": "LTM_&_ARAUJO_SERVICOS_LTDA_-_EVOLUTTION_VISTORIA", "ENDERECO": "ALAMEDA_BARAO_DE_LIMEIRA_753_CAMPOS_ELISEOS_SAO_PAULO", "CIDADE": "SAO_PAULO", "LATITUDE": -23.5349314, "LONGITUDE": -46.6477003 }, "geometry": { "type": "Point", "coordinates": [ -46.6477003, -23.5349314 ] } },
{ "type": "Feature", "properties": { "CNPJ": 45218717000142, "AGENTE": "MICHELLE_CAROLINE_BETONI", "ACAO": "REALIZAR_SEGUNDA_VISITA", "RAZAO_SOCIAL": "M.M_COMERCIO_DE_VEICULOS_E_SERVICOS_AUTOMOTIVOS_LTDA_-_MM_COMERCIO_DE_VEICULOS_E_SERVICOS", "ENDERECO": "ALAMEDA_BARAO_DE_LIMEIRA_812_CAMPOS_ELISEOS_SAO_PAULO", "CIDADE": "SAO_PAULO", "LATITUDE": -23.534128, "LONGITUDE": -46.6473749 }, "geometry": { "type": "Point", "coordinates": [ -46.6473749, -23.534128 ] } },
{ "type": "Feature", "properties": { "CNPJ": 37455388000125, "AGENTE": "MICHELLE_CAROLINE_BETONI", "ACAO": "REALIZAR_SEGUNDA_VISITA", "RAZAO_SOCIAL": "CAMPOS_ELISEOS_EMPLACAR'S_SERVICOS_DE_EMPLACAMENTO_LTDA_-_EMPLACARS", "ENDERECO": "ALAMEDA_BARAO_DE_LIMEIRA_903_CAMPOS_ELISEOS_SAO_PAULO", "CIDADE": "SAO_PAULO", "LATITUDE": -23.5338474, "LONGITUDE": -46.6483412 }, "geometry": { "type": "Point", "coordinates": [ -46.6483412, -23.5338474 ] } },
{ "type": "Feature", "properties": { "CNPJ": 24230378000140, "AGENTE": "MICHELLE_CAROLINE_BETONI", "ACAO": "REALIZAR_SEGUNDA_VISITA", "RAZAO_SOCIAL": "BARAO_PERICIAS_E_VISTORIAS_AUTOMOTIVAS_LTDA._-_VISTORIA._COM.BR", "ENDERECO": "ALAMEDA_BARAO_DE_LIMEIRA_923_CAMPOS_ELISEOS_SAO_PAULO", "CIDADE": "SAO_PAULO", "LATITUDE": -23.5336727, "LONGITUDE": -46.6485178 }, "geometry": { "type": "Point", "coordinates": [ -46.6485178, -23.5336727 ] } },
{ "type": "Feature", "properties": { "CNPJ": 61133757000148, "AGENTE": "MICHELLE_CAROLINE_BETONI", "ACAO": "REALIZAR_SEGUNDA_VISITA", "RAZAO_SOCIAL": "VILA_MINEIRA_BAR_E_DRINKS_LTDA_-_VILA_MINEIRA_RESTAURANTE", "ENDERECO": "ALAMEDA_BARAO_DE_LIMEIRA_987_CAMPOS_ELISEOS_SAO_PAULO", "CIDADE": "SAO_PAULO", "LATITUDE": -23.5332499, "LONGITUDE": -46.6489351 }, "geometry": { "type": "Point", "coordinates": [ -46.6489351, -23.5332499 ] } },
{ "type": "Feature", "properties": { "CNPJ": 31547393000181, "AGENTE": "MICHELLE_CAROLINE_BETONI", "ACAO": "REALIZAR_SEGUNDA_VISITA", "RAZAO_SOCIAL": "BARBEARIA_VEGAS_LTDA_-_BARBEARIA_VEGAS", "ENDERECO": "ALAMEDA_BARROS_268_SANTA_CECILIA_SAO_PAULO", "CIDADE": "SAO_PAULO", "LATITUDE": -23.5370498, "LONGITUDE": -46.6537682 }, "geometry": { "type": "Point", "coordinates": [ -46.6537682, -23.5370498 ] } },
{ "type": "Feature", "properties": { "CNPJ": 26841816000131, "AGENTE": "MICHELLE_CAROLINE_BETONI", "ACAO": "REALIZAR_SEGUNDA_VISITA", "RAZAO_SOCIAL": "RAFAEL_FERNANDO_DOS_SANTOS_GUIMARAES_40991152832_-_RAFA_REPARACOES_DE_CELULARES", "ENDERECO": "ALAMEDA_BARROS_270_SANTA_CECILIA_SAO_PAULO", "CIDADE": "SAO_PAULO", "LATITUDE": -23.5370821, "LONGITUDE": -46.653799 }, "geometry": { "type": "Point", "coordinates": [ -46.653799, -23.5370821 ] } },
{ "type": "Feature", "properties": { "CNPJ": 45050945000156, "AGENTE": "MICHELLE_CAROLINE_BETONI", "ACAO": "REALIZAR_SEGUNDA_VISITA", "RAZAO_SOCIAL": "TAPECARIA_SANDRA_LTDA_-_TAPECARIA_SANDRA", "ENDERECO": "ALAMEDA_BARROS_47_SANTA_CECILIA_SAO_PAULO", "CIDADE": "SAO_PAULO", "LATITUDE": -23.5384682, "LONGITUDE": -46.6522297 }, "geometry": { "type": "Point", "coordinates": [ -46.6522297, -23.5384682 ] } },
{ "type": "Feature", "properties": { "CNPJ": 20666537000100, "AGENTE": "MICHELLE_CAROLINE_BETONI", "ACAO": "REALIZAR_SEGUNDA_VISITA", "RAZAO_SOCIAL": "FABIANA_DE_MONTES_NOVAES_33437243861_-_MUNDO_DE_MAGIA", "ENDERECO": "ALAMEDA_GLETE_1067_CAMPOS_ELISEOS_SAO_PAULO", "CIDADE": "SAO_PAULO", "LATITUDE": -23.537362, "LONGITUDE": -46.650704 }, "geometry": { "type": "Point", "coordinates": [ -46.650704, -23.537362 ] } },
{ "type": "Feature", "properties": { "CNPJ": 46695646000131, "AGENTE": "MICHELLE_CAROLINE_BETONI", "ACAO": "REALIZAR_SEGUNDA_VISITA", "RAZAO_SOCIAL": "DR_COMERCIO_DE_PECAS_E_ACESSORIOS_PARA_REFRIGERACAO_LTDA_-_DR_REFRIGERACAO", "ENDERECO": "ALAMEDA_GLETE_670_CAMPOS_ELISEOS_SAO_PAULO", "CIDADE": "SAO_PAULO", "LATITUDE": -23.5354363, "LONGITUDE": -46.6473469 }, "geometry": { "type": "Point", "coordinates": [ -46.6473469, -23.5354363 ] } },
{ "type": "Feature", "properties": { "CNPJ": 42629918000225, "AGENTE": "MICHELLE_CAROLINE_BETONI", "ACAO": "REALIZAR_SEGUNDA_VISITA", "RAZAO_SOCIAL": "BRAD_PET_BOUTIQUE_E_ESTETICA_ANIMAL_LTDA_-_BRAD_PET_SHOP", "ENDERECO": "ALAMEDA_NOTHMANN_1029_CAMPOS_ELISEOS_SAO_PAULO", "CIDADE": "SAO_PAULO", "LATITUDE": -23.5354446, "LONGITUDE": -46.6502377 }, "geometry": { "type": "Point", "coordinates": [ -46.6502377, -23.5354446 ] } },
{ "type": "Feature", "properties": { "CNPJ": 37484109000151, "AGENTE": "MICHELLE_CAROLINE_BETONI", "ACAO": "REALIZAR_SEGUNDA_VISITA", "RAZAO_SOCIAL": "VANDA_LUCIA_DOS_SANTOS_PINHEIRO_29199948320_-_MV_CABELEIREIROS", "ENDERECO": "ALAMEDA_NOTHMANN_1243_CAMPOS_ELISEOS_SAO_PAULO", "CIDADE": "SAO_PAULO", "LATITUDE": -23.5363415, "LONGITUDE": -46.6520332 }, "geometry": { "type": "Point", "coordinates": [ -46.6520332, -23.5363415 ] } },
{ "type": "Feature", "properties": { "CNPJ": 42620705000151, "AGENTE": "MICHELLE_CAROLINE_BETONI", "ACAO": "REALIZAR_SEGUNDA_VISITA", "RAZAO_SOCIAL": "42.620.705_STEFANE_MARIA_RODRIGUES_DA_SILVA_-_ALEMAO_E_CIA_AGUAS", "ENDERECO": "ALAMEDA_NOTHMANN_989_CAMPOS_ELISEOS_SAO_PAULO", "CIDADE": "SAO_PAULO", "LATITUDE": -23.5350353, "LONGITUDE": -46.6500227 }, "geometry": { "type": "Point", "coordinates": [ -46.6500227, -23.5350353 ] } },
{ "type": "Feature", "properties": { "CNPJ": 60427875000104, "AGENTE": "MICHELLE_CAROLINE_BETONI", "ACAO": "REALIZAR_SEGUNDA_VISITA", "RAZAO_SOCIAL": "60.427.875_JOSELIA_RODRIGUES_SILVA_FREITAS_-_PAO_DE_LO", "ENDERECO": "ALAMEDA_RIBEIRO_DA_SILVA_594_CAMPOS_ELISEOS_SAO_PAULO", "CIDADE": "SAO_PAULO", "LATITUDE": -23.5321079, "LONGITUDE": -46.6488924 }, "geometry": { "type": "Point", "coordinates": [ -46.6488924, -23.5321079 ] } },
{ "type": "Feature", "properties": { "CNPJ": 35516134000144, "AGENTE": "MICHELLE_CAROLINE_BETONI", "ACAO": "REALIZAR_SEGUNDA_VISITA", "RAZAO_SOCIAL": "35.516.134_JOERLAN_VIEIRA_DOS_SANTOS_-_MARRE_BOM_CONFEITARIA", "ENDERECO": "ALAMEDA_RIBEIRO_DA_SILVA_611_CAMPOS_ELISEOS_SAO_PAULO", "CIDADE": "SAO_PAULO", "LATITUDE": -23.5323113, "LONGITUDE": -46.6490099 }, "geometry": { "type": "Point", "coordinates": [ -46.6490099, -23.5323113 ] } },
{ "type": "Feature", "properties": { "CNPJ": 24808352000136, "AGENTE": "MICHELLE_CAROLINE_BETONI", "ACAO": "REALIZAR_SEGUNDA_VISITA", "RAZAO_SOCIAL": "24.808.352_MARCOS_ROGERIO_FABIO_-_BARBAROS_BARBEARIA", "ENDERECO": "ALAMEDA_RIBEIRO_DA_SILVA_619_CAMPOS_ELISEOS_SAO_PAULO", "CIDADE": "SAO_PAULO", "LATITUDE": -23.5323631, "LONGITUDE": -46.649064 }, "geometry": { "type": "Point", "coordinates": [ -46.649064, -23.5323631 ] } },
{ "type": "Feature", "properties": { "CNPJ": 5909741000103, "AGENTE": "MICHELLE_CAROLINE_BETONI", "ACAO": "REALIZAR_SEGUNDA_VISITA", "RAZAO_SOCIAL": "ALBERTO_DINIZ_OLIVEIRA_-_BETO_DINIZ_CABELO_E_ESTETICA", "ENDERECO": "ALAMEDA_RIBEIRO_DA_SILVA_687_CAMPOS_ELISEOS_SAO_PAULO", "CIDADE": "SAO_PAULO", "LATITUDE": -23.5327011, "LONGITUDE": -46.6496337 }, "geometry": { "type": "Point", "coordinates": [ -46.6496337, -23.5327011 ] } },
{ "type": "Feature", "properties": { "CNPJ": 32866604000101, "AGENTE": "MICHELLE_CAROLINE_BETONI", "ACAO": "REALIZAR_SEGUNDA_VISITA", "RAZAO_SOCIAL": "PAOLA_GISELLA_MARTINANGELO_FERREIRA_04940039870_-_MARTINANGELO_RESTAURANTE", "ENDERECO": "ALAMEDA_RIBEIRO_DA_SILVA_707_CAMPOS_ELISEOS_SAO_PAULO", "CIDADE": "SAO_PAULO", "LATITUDE": -23.532806, "LONGITUDE": -46.6496963 }, "geometry": { "type": "Point", "coordinates": [ -46.6496963, -23.532806 ] } },
{ "type": "Feature", "properties": { "CNPJ": 45859101000150, "AGENTE": "MICHELLE_CAROLINE_BETONI", "ACAO": "REALIZAR_SEGUNDA_VISITA", "RAZAO_SOCIAL": "ROCHA_&_ROCHA_GUAREI_LTDA_-_NINHO_VERDE", "ENDERECO": "AREA_AREA_RURAL_0_AREA_RURAL_DE_GUAREI_GUAREI", "CIDADE": "GUAREI", "LATITUDE": -23.5163927, "LONGITUDE": -46.6373193 }, "geometry": { "type": "Point", "coordinates": [ -46.6373193, -23.5163927 ] } },
{ "type": "Feature", "properties": { "CNPJ": 36640965000196, "AGENTE": "MICHELLE_CAROLINE_BETONI", "ACAO": "REALIZAR_SEGUNDA_VISITA", "RAZAO_SOCIAL": "THAIS_ALVARENGA_24976311821_-_NANANANANA", "ENDERECO": "AREA_AREA_RURAL_2342_AREA_RURAL_DE_SAO_FRANCISCO_XAVIER_SAO_JOSE_DOS_CAMPOS", "CIDADE": "SAO_JOSE_DOS_CAMPOS", "LATITUDE": -23.5164025, "LONGITUDE": -46.6365307 }, "geometry": { "type": "Point", "coordinates": [ -46.6365307, -23.5164025 ] } },
{ "type": "Feature", "properties": { "CNPJ": 60733904000158, "AGENTE": "MICHELLE_CAROLINE_BETONI", "ACAO": "REALIZAR_SEGUNDA_VISITA", "RAZAO_SOCIAL": "LANCHONETE_HIGIENOPOLIS_LTDA_-_LANCHONETE_HIGIENOPOLIS", "ENDERECO": "AVENIDA_ANGELICA_1709_HIGIENOPOLIS_SAO_PAULO", "CIDADE": "SAO_PAULO", "LATITUDE": -23.5476087, "LONGITUDE": -46.6584371 }, "geometry": { "type": "Point", "coordinates": [ -46.6584371, -23.5476087 ] } },
{ "type": "Feature", "properties": { "CNPJ": 9575763000135, "AGENTE": "MICHELLE_CAROLINE_BETONI", "ACAO": "REALIZAR_SEGUNDA_VISITA", "RAZAO_SOCIAL": "LANCHONETE_BELA_ANGELICA_LTDA_-_BELA_ANGELICA_RESTAURANTE", "ENDERECO": "AVENIDA_ANGELICA_2064_HIGIENOPOLIS_SAO_PAULO", "CIDADE": "SAO_PAULO", "LATITUDE": -23.5503322, "LONGITUDE": -46.6600641 }, "geometry": { "type": "Point", "coordinates": [ -46.6600641, -23.5503322 ] } },
{ "type": "Feature", "properties": { "CNPJ": 55265054000170, "AGENTE": "MICHELLE_CAROLINE_BETONI", "ACAO": "REALIZAR_SEGUNDA_VISITA", "RAZAO_SOCIAL": "55.265.054_CHRISTIANE_DOS_SANTOS_LEONARDO_-_CHRISTIANE_DOS_SANTOS_LEONARDO", "ENDERECO": "AVENIDA_CIPRIANO_RODRIGUES_200_VILA_FORMOSA_SAO_PAULO", "CIDADE": "SAO_PAULO", "LATITUDE": -23.544708, "LONGITUDE": -46.6389873 }, "geometry": { "type": "Point", "coordinates": [ -46.6389873, -23.544708 ] } },
{ "type": "Feature", "properties": { "CNPJ": 25961328000103, "AGENTE": "MICHELLE_CAROLINE_BETONI", "ACAO": "REALIZAR_SEGUNDA_VISITA", "RAZAO_SOCIAL": "ALBENIA_SILVA_DE_PAIVA_03330776447_-_TUPIOCAS__TAPIOCARIA_GOURMET", "ENDERECO": "AVENIDA_DUQUE_DE_CAXIAS_925_CAMPOS_ELISEOS_SAO_PAULO", "CIDADE": "SAO_PAULO", "LATITUDE": -23.5166752, "LONGITUDE": -46.6362293 }, "geometry": { "type": "Point", "coordinates": [ -46.6362293, -23.5166752 ] } },
{ "type": "Feature", "properties": { "CNPJ": 43012578000170, "AGENTE": "MICHELLE_CAROLINE_BETONI", "ACAO": "REALIZAR_SEGUNDA_VISITA", "RAZAO_SOCIAL": "43.012.578_IRACELIA_FERREIRA_DOS_SANTOS_-_MONARCA_ESPECIARIAS", "ENDERECO": "AVENIDA_GENERAL_OLIMPIO_DA_SILVEIRA_87_SANTA_CECILIA_SAO_PAULO", "CIDADE": "SAO_PAULO", "LATITUDE": -23.5447439, "LONGITUDE": -46.6389394 }, "geometry": { "type": "Point", "coordinates": [ -46.6389394, -23.5447439 ] } },
{ "type": "Feature", "properties": { "CNPJ": 41307503000191, "AGENTE": "MICHELLE_CAROLINE_BETONI", "ACAO": "REALIZAR_SEGUNDA_VISITA", "RAZAO_SOCIAL": "HELPA_PRODUTOS_E_SERVICOS_LTDA_-_FEHE_CHOCOLATE", "ENDERECO": "AVENIDA_GENERAL_OSORIO_1015_VILA_TRUJILLO_SOROCABA", "CIDADE": "SOROCABA", "LATITUDE": -23.5163527, "LONGITUDE": -46.6367095 }, "geometry": { "type": "Point", "coordinates": [ -46.6367095, -23.5163527 ] } },
{ "type": "Feature", "properties": { "CNPJ": 62123427000134, "AGENTE": "MICHELLE_CAROLINE_BETONI", "ACAO": "REALIZAR_SEGUNDA_VISITA", "RAZAO_SOCIAL": "NORMANDO_LANCHES_LTDA_-_NORMANDO_LANCHES", "ENDERECO": "AVENIDA_IPIRANGA_318_REPUBLICA_SAO_PAULO", "CIDADE": "SAO_PAULO", "LATITUDE": -23.5458519, "LONGITUDE": -46.6437716 }, "geometry": { "type": "Point", "coordinates": [ -46.6437716, -23.5458519 ] } },
{ "type": "Feature", "properties": { "CNPJ": 50075877000110, "AGENTE": "MICHELLE_CAROLINE_BETONI", "ACAO": "REALIZAR_SEGUNDA_VISITA", "RAZAO_SOCIAL": "LABFLORA_SAUDE_COMPLEMENTAR_LTDA_-_LABFLORA", "ENDERECO": "AVENIDA_JOAO_FIRMINO_1275_ASSUNCAO_SAO_BERNARDO_DO_CAMPO", "CIDADE": "SAO_BERNARDO_DO_CAMPO", "LATITUDE": -23.5158451, "LONGITUDE": -46.6367953 }, "geometry": { "type": "Point", "coordinates": [ -46.6367953, -23.5158451 ] } },
{ "type": "Feature", "properties": { "CNPJ": 39880491000148, "AGENTE": "MICHELLE_CAROLINE_BETONI", "ACAO": "REALIZAR_SEGUNDA_VISITA", "RAZAO_SOCIAL": "LUCIANA_FRANKLIN_DA_COSTA_RAMOS_SADALLA_62023519349_-_FIVELA_DE_RICA", "ENDERECO": "AVENIDA_MOACI_395_PLANALTO_PAULISTA_SAO_PAULO", "CIDADE": "SAO_PAULO", "LATITUDE": -23.5446159, "LONGITUDE": -46.6390421 }, "geometry": { "type": "Point", "coordinates": [ -46.6390421, -23.5446159 ] } },
{ "type": "Feature", "properties": { "CNPJ": 16499460000146, "AGENTE": "MICHELLE_CAROLINE_BETONI", "ACAO": "REALIZAR_SEGUNDA_VISITA", "RAZAO_SOCIAL": "CHEF_DI_SERIO_GASTRONOMIA_E_EVENTOS_LTDA_-_CHEF_DI_SERIO", "ENDERECO": "AVENIDA_NOVE_DE_JULHO_37_CENTRO_RIBEIRAO_PRETO", "CIDADE": "RIBEIRAO_PRETO", "LATITUDE": -23.5163727, "LONGITUDE": -46.6373017 }, "geometry": { "type": "Point", "coordinates": [ -46.6373017, -23.5163727 ] } },
{ "type": "Feature", "properties": { "CNPJ": 42859345000145, "AGENTE": "MICHELLE_CAROLINE_BETONI", "ACAO": "REALIZAR_SEGUNDA_VISITA", "RAZAO_SOCIAL": "OPEN_DRINK_INDUSTRIA_DE_ALIMENTOS_E_BEBIDAS_LTDA_-_OPEN_DRINKS", "ENDERECO": "AVENIDA_OLAVO_FONTOURA_1209_PARQUE_ANHEMBI_SAO_PAULO", "CIDADE": "SAO_PAULO", "LATITUDE": -23.5167988, "LONGITUDE": -46.6374898 }, "geometry": { "type": "Point", "coordinates": [ -46.6374898, -23.5167988 ] } },
{ "type": "Feature", "properties": { "CNPJ": 53984051000161, "AGENTE": "MICHELLE_CAROLINE_BETONI", "ACAO": "REALIZAR_SEGUNDA_VISITA", "RAZAO_SOCIAL": "53.984.051_VIVIANE_BARBOSA_NOVAES_-_VIVIANE_BARBOSA_NOVAES", "ENDERECO": "AVENIDA_PARADA_PINTO_2650_VILA_NOVA_CACHOEIRINHA_SAO_PAULO", "CIDADE": "SAO_PAULO", "LATITUDE": -23.5447399, "LONGITUDE": -46.6389522 }, "geometry": { "type": "Point", "coordinates": [ -46.6389522, -23.5447399 ] } },
{ "type": "Feature", "properties": { "CNPJ": 48712883000199, "AGENTE": "MICHELLE_CAROLINE_BETONI", "ACAO": "REALIZAR_SEGUNDA_VISITA", "RAZAO_SOCIAL": "BOTICA_DA_OCA_SAUDE_VETERINARIA_LTDA_-_BOTICA_NATURAL", "ENDERECO": "AVENIDA_PAULISTA_1636_BELA_VISTA_SAO_PAULO", "CIDADE": "SAO_PAULO", "LATITUDE": -23.5166702, "LONGITUDE": -46.6365866 }, "geometry": { "type": "Point", "coordinates": [ -46.6365866, -23.5166702 ] } },
{ "type": "Feature", "properties": { "CNPJ": 47995560000197, "AGENTE": "MICHELLE_CAROLINE_BETONI", "ACAO": "REALIZAR_SEGUNDA_VISITA", "RAZAO_SOCIAL": "IA_CAFE_INDUSTRIA_E_COMERCIO_LTDA_-_IA_CAFE", "ENDERECO": "AVENIDA_PAULO_VI_936_RESIDENCIAL_PARAISO_FRANCA", "CIDADE": "FRANCA", "LATITUDE": -23.5159946, "LONGITUDE": -46.6368289 }, "geometry": { "type": "Point", "coordinates": [ -46.6368289, -23.5159946 ] } },
{ "type": "Feature", "properties": { "CNPJ": 22037426000152, "AGENTE": "MICHELLE_CAROLINE_BETONI", "ACAO": "REALIZAR_SEGUNDA_VISITA", "RAZAO_SOCIAL": "MARIA_JULIA_DOS_SANTOS_04700965860_-_J_CABELEIREIROS", "ENDERECO": "AVENIDA_PRESTES_MAIA_522_CENTRO_SAO_PAULO", "CIDADE": "SAO_PAULO", "LATITUDE": -23.5445763, "LONGITUDE": -46.6390342 }, "geometry": { "type": "Point", "coordinates": [ -46.6390342, -23.5445763 ] } },
{ "type": "Feature", "properties": { "CNPJ": 26267893000120, "AGENTE": "MICHELLE_CAROLINE_BETONI", "ACAO": "REALIZAR_SEGUNDA_VISITA", "RAZAO_SOCIAL": "ACADEMIA_FERREIRA_&_RODRIGUES_LTDA_-_ACADEMIA_CORPUS_MALHADUS", "ENDERECO": "AVENIDA_SAO_JOAO_1421_CAMPOS_ELISEOS_SAO_PAULO", "CIDADE": "SAO_PAULO", "LATITUDE": -23.5388221, "LONGITUDE": -46.646673 }, "geometry": { "type": "Point", "coordinates": [ -46.646673, -23.5388221 ] } },
{ "type": "Feature", "properties": { "CNPJ": 41907592000107, "AGENTE": "MICHELLE_CAROLINE_BETONI", "ACAO": "REALIZAR_SEGUNDA_VISITA", "RAZAO_SOCIAL": "BAR_E_LANCHONETE_IMPERIO_DA_SAO_JOAO_LTDA_-_LANCHONETE_IMPERIO_DA_SAO_JOAO", "ENDERECO": "AVENIDA_SAO_JOAO_1587_CAMPOS_ELISEOS_SAO_PAULO", "CIDADE": "SAO_PAULO", "LATITUDE": -23.5380065, "LONGITUDE": -46.6478351 }, "geometry": { "type": "Point", "coordinates": [ -46.6478351, -23.5380065 ] } },
{ "type": "Feature", "properties": { "CNPJ": 45217524000177, "AGENTE": "MICHELLE_CAROLINE_BETONI", "ACAO": "REALIZAR_SEGUNDA_VISITA", "RAZAO_SOCIAL": "ZOOM_OFFICE_MOVEIS_LTDA_-_ZOOM_OFFICE_MOVEIS", "ENDERECO": "AVENIDA_SAO_JOAO_1959_VILA_BUARQUE_SAO_PAULO", "CIDADE": "SAO_PAULO", "LATITUDE": -23.5362673, "LONGITUDE": -46.651152 }, "geometry": { "type": "Point", "coordinates": [ -46.651152, -23.5362673 ] } },
{ "type": "Feature", "properties": { "CNPJ": 23966079000105, "AGENTE": "MICHELLE_CAROLINE_BETONI", "ACAO": "REALIZAR_SEGUNDA_VISITA", "RAZAO_SOCIAL": "LANCHONETE_CAFE_NO_PONTO_LTDA_-_LANCHONETE_CAFE_NO_PONTO", "ENDERECO": "AVENIDA_SAO_JOAO_1997_VILA_BUARQUE_SAO_PAULO", "CIDADE": "SAO_PAULO", "LATITUDE": -23.5361259, "LONGITUDE": -46.6515809 }, "geometry": { "type": "Point", "coordinates": [ -46.6515809, -23.5361259 ] } },
{ "type": "Feature", "properties": { "CNPJ": 45214638000163, "AGENTE": "MICHELLE_CAROLINE_BETONI", "ACAO": "REALIZAR_SEGUNDA_VISITA", "RAZAO_SOCIAL": "45.214.638_LILIAN_SUZANA_MARCHETTI_-_LILLIAN_MARCHETTI", "ENDERECO": "AVENIDA_SAO_JOAO_324_CENTRO_SAO_PAULO", "CIDADE": "SAO_PAULO", "LATITUDE": -23.5447426, "LONGITUDE": -46.6389531 }, "geometry": { "type": "Point", "coordinates": [ -46.6389531, -23.5447426 ] } },
{ "type": "Feature", "properties": { "CNPJ": 37340212000128, "AGENTE": "MICHELLE_CAROLINE_BETONI", "ACAO": "REALIZAR_SEGUNDA_VISITA", "RAZAO_SOCIAL": "RONALDO_DIAS_DE_OLIVEIRA_35895240810_-_RONALDO_DIAS", "ENDERECO": "AVENIDA_SAO_JOAO_657_REPUBLICA_SAO_PAULO", "CIDADE": "SAO_PAULO", "LATITUDE": -23.5447471, "LONGITUDE": -46.6389619 }, "geometry": { "type": "Point", "coordinates": [ -46.6389619, -23.5447471 ] } },
{ "type": "Feature", "properties": { "CNPJ": 15400406000139, "AGENTE": "MICHELLE_CAROLINE_BETONI", "ACAO": "REALIZAR_SEGUNDA_VISITA", "RAZAO_SOCIAL": "15.400.406_PAULA_SOLER_GUIMARAES_-_KIPPYS_NATURAL", "ENDERECO": "AVENIDA_VIRGILIO_SOEIRA_1770_JAMIL_CURY_RIBEIRAO_PRETO", "CIDADE": "RIBEIRAO_PRETO", "LATITUDE": -23.5168786, "LONGITUDE": -46.6366079 }, "geometry": { "type": "Point", "coordinates": [ -46.6366079, -23.5168786 ] } },
{ "type": "Feature", "properties": { "CNPJ": 72950801000129, "AGENTE": "MICHELLE_CAROLINE_BETONI", "ACAO": "REALIZAR_SEGUNDA_VISITA", "RAZAO_SOCIAL": "MAYARA_PIZZAS_E_LANCHONETE_LTDA_-_PRA_LEVAR_FOODIS", "ENDERECO": "ESTRADA_PREFEITO_BENTO_ROTGER_DOMINGUES_109_MOMBACA_ITAPECERICA_DA_SERRA", "CIDADE": "ITAPECERICA_DA_SERRA", "LATITUDE": -23.5163034, "LONGITUDE": -46.6364848 }, "geometry": { "type": "Point", "coordinates": [ -46.6364848, -23.5163034 ] } },
{ "type": "Feature", "properties": { "CNPJ": 36420971000138, "AGENTE": "MICHELLE_CAROLINE_BETONI", "ACAO": "REALIZAR_SEGUNDA_VISITA", "RAZAO_SOCIAL": "NOVVO_BEM_ESTAR_COMERCIO_DE_PRODUTOS_NATURAIS_LTDA_-_NOVVO_BEM_ESTAR", "ENDERECO": "ESTRADA_TENENTE_MARQUES_1980_CHACARAS_SANTA_CRUZ_SANTANA_DE_PARNAIBA", "CIDADE": "SANTANA_DE_PARNAIBA", "LATITUDE": -23.5162435, "LONGITUDE": -46.6364995 }, "geometry": { "type": "Point", "coordinates": [ -46.6364995, -23.5162435 ] } },
{ "type": "Feature", "properties": { "CNPJ": 29792878000199, "AGENTE": "MICHELLE_CAROLINE_BETONI", "ACAO": "REALIZAR_SEGUNDA_VISITA", "RAZAO_SOCIAL": "LANCHONETE_E_RESTAURANTE_NOVA_AROUCHE_LTDA_-_LANCHONETE_NOVA_AROUCHE", "ENDERECO": "LARGO_DO_AROUCHE_382_REPUBLICA_SAO_PAULO", "CIDADE": "SAO_PAULO", "LATITUDE": -23.5414139, "LONGITUDE": -46.6458257 }, "geometry": { "type": "Point", "coordinates": [ -46.6458257, -23.5414139 ] } },
{ "type": "Feature", "properties": { "CNPJ": 57202724000135, "AGENTE": "MICHELLE_CAROLINE_BETONI", "ACAO": "REALIZAR_SEGUNDA_VISITA", "RAZAO_SOCIAL": "57.202.724_CARLOS_AUGUSTO_FERREIRA_-_CARLOS_AUGUSTO_FERREIRA", "ENDERECO": "LARGO_DO_REDENTOR_20_CAMBUCI_SAO_PAULO", "CIDADE": "SAO_PAULO", "LATITUDE": -23.5447306, "LONGITUDE": -46.6389522 }, "geometry": { "type": "Point", "coordinates": [ -46.6389522, -23.5447306 ] } },
{ "type": "Feature", "properties": { "CNPJ": 34001779000181, "AGENTE": "MICHELLE_CAROLINE_BETONI", "ACAO": "REALIZAR_SEGUNDA_VISITA", "RAZAO_SOCIAL": "FRANCO_BRENTARI_70005167124_-_FRANCO_BRENTARI", "ENDERECO": "PRACA_DA_REPUBLICA_0_REPUBLICA_SAO_PAULO", "CIDADE": "SAO_PAULO", "LATITUDE": -23.5441038, "LONGITUDE": -46.6427817 }, "geometry": { "type": "Point", "coordinates": [ -46.6427817, -23.5441038 ] } },
{ "type": "Feature", "properties": { "CNPJ": 4917755000106, "AGENTE": "MICHELLE_CAROLINE_BETONI", "ACAO": "REALIZAR_SEGUNDA_VISITA", "RAZAO_SOCIAL": "ESSENCIA_DO_VALE_ALIMENTOS_LTDA_-_ESSENCIA_DO_VALE", "ENDERECO": "RODOVIA_DOUTOR_AVELINO_JUNIOR_901_ENTRE_RIOS_CRUZEIRO", "CIDADE": "CRUZEIRO", "LATITUDE": -23.5168986, "LONGITUDE": -46.6369164 }, "geometry": { "type": "Point", "coordinates": [ -46.6369164, -23.5168986 ] } },
{ "type": "Feature", "properties": { "CNPJ": 49300527000120, "AGENTE": "MICHELLE_CAROLINE_BETONI", "ACAO": "REALIZAR_SEGUNDA_VISITA", "RAZAO_SOCIAL": "49.300.527_RITA_DE_CASSIA_GRIGOLON_COMAR_-_BONITA_COSMESTICOS_DO_BEM", "ENDERECO": "RUA_ADVOGADO_LUIZ_GAMA_870_BONFIM_CAMPINAS", "CIDADE": "CAMPINAS", "LATITUDE": -23.516313, "LONGITUDE": -46.6362664 }, "geometry": { "type": "Point", "coordinates": [ -46.6362664, -23.516313 ] } },
{ "type": "Feature", "properties": { "CNPJ": 52762644000110, "AGENTE": "MICHELLE_CAROLINE_BETONI", "ACAO": "REALIZAR_SEGUNDA_VISITA", "RAZAO_SOCIAL": "52.762.644_LARS_EIRIK_FRANTZEN_-_PLANTARA_VEG", "ENDERECO": "RUA_AGISSE_42_VILA_MADALENA_SAO_PAULO", "CIDADE": "SAO_PAULO", "LATITUDE": -23.516257, "LONGITUDE": -46.6363968 }, "geometry": { "type": "Point", "coordinates": [ -46.6363968, -23.516257 ] } },
{ "type": "Feature", "properties": { "CNPJ": 27231108000141, "AGENTE": "MICHELLE_CAROLINE_BETONI", "ACAO": "REALIZAR_SEGUNDA_VISITA", "RAZAO_SOCIAL": "NATALICE_COSTA_SOUSA_03443735509_-_N_&_C_STUDIO_DE_BELEZA", "ENDERECO": "RUA_AGOSTINHO_GOMES_2971_IPIRANGA_SAO_PAULO", "CIDADE": "SAO_PAULO", "LATITUDE": -23.5968971, "LONGITUDE": -46.6032536 }, "geometry": { "type": "Point", "coordinates": [ -46.6032536, -23.5968971 ] } },
{ "type": "Feature", "properties": { "CNPJ": 24837483000141, "AGENTE": "MICHELLE_CAROLINE_BETONI", "ACAO": "REALIZAR_SEGUNDA_VISITA", "RAZAO_SOCIAL": "24.837.483_ANA_CLAUDIA_SOUZA_MOREGOLA_-_SM_UNIFORMES_PERSONALIZADOS", "ENDERECO": "RUA_ALBUQUERQUE_MARANHAO_180_CAMBUCI_SAO_PAULO", "CIDADE": "SAO_PAULO", "LATITUDE": -23.5446626, "LONGITUDE": -46.6390261 }, "geometry": { "type": "Point", "coordinates": [ -46.6390261, -23.5446626 ] } },
{ "type": "Feature", "properties": { "CNPJ": 24513175000160, "AGENTE": "MICHELLE_CAROLINE_BETONI", "ACAO": "REALIZAR_SEGUNDA_VISITA", "RAZAO_SOCIAL": "LAVANDERIA_ROSA_BRANCA_LTDA_-_LAVANDERIA_ROSA_BRANCA", "ENDERECO": "RUA_ALVARO_DE_CARVALHO_341_BELA_VISTA_SAO_PAULO", "CIDADE": "SAO_PAULO", "LATITUDE": -23.5495297, "LONGITUDE": -46.6436501 }, "geometry": { "type": "Point", "coordinates": [ -46.6436501, -23.5495297 ] } },
{ "type": "Feature", "properties": { "CNPJ": 44218711000102, "AGENTE": "MICHELLE_CAROLINE_BETONI", "ACAO": "REALIZAR_SEGUNDA_VISITA", "RAZAO_SOCIAL": "CLAUDIA_CRISTINA_SILVA_DOS_SANTOS_01397694637_-_OUROS_DA_TERRA", "ENDERECO": "RUA_ANTONIO_NUNES_PINTO_14_VILA_ITAIM_SAO_PAULO", "CIDADE": "SAO_PAULO", "LATITUDE": -23.5447224, "LONGITUDE": -46.6389951 }, "geometry": { "type": "Point", "coordinates": [ -46.6389951, -23.5447224 ] } },
{ "type": "Feature", "properties": { "CNPJ": 56320397000153, "AGENTE": "MICHELLE_CAROLINE_BETONI", "ACAO": "REALIZAR_SEGUNDA_VISITA", "RAZAO_SOCIAL": "56.320.397_GENESIS_KATHERINE_PAZ_COSSIO_-_CONSTRUFAMILY", "ENDERECO": "RUA_ARAUJO_367_REPUBLICA_SAO_PAULO", "CIDADE": "SAO_PAULO", "LATITUDE": -23.5446492, "LONGITUDE": -46.6390206 }, "geometry": { "type": "Point", "coordinates": [ -46.6390206, -23.5446492 ] } },
{ "type": "Feature", "properties": { "CNPJ": 51983589000126, "AGENTE": "MICHELLE_CAROLINE_BETONI", "ACAO": "REALIZAR_SEGUNDA_VISITA", "RAZAO_SOCIAL": "51.983.589_CAROLINE_RAMOS_SOARES_SILVA_-_RAMOS_DO_CACAU", "ENDERECO": "RUA_ARICANGA_1256_JARDIM_SILVA_TELES_SAO_PAULO", "CIDADE": "SAO_PAULO", "LATITUDE": -23.5447014, "LONGITUDE": -46.6389381 }, "geometry": { "type": "Point", "coordinates": [ -46.6389381, -23.5447014 ] } },
{ "type": "Feature", "properties": { "CNPJ": 15105332000108, "AGENTE": "MICHELLE_CAROLINE_BETONI", "ACAO": "REALIZAR_SEGUNDA_VISITA", "RAZAO_SOCIAL": "JOAO_LOUZEIRO_CUNHA_23941200372_-_JOAO_LOUZEIRO_CUNHA", "ENDERECO": "RUA_AUGUSTO_GIL_396_VILA_DIONISIA_SAO_PAULO", "CIDADE": "SAO_PAULO", "LATITUDE": -23.5447638, "LONGITUDE": -46.6389714 }, "geometry": { "type": "Point", "coordinates": [ -46.6389714, -23.5447638 ] } },
{ "type": "Feature", "properties": { "CNPJ": 20959676000114, "AGENTE": "MICHELLE_CAROLINE_BETONI", "ACAO": "REALIZAR_SEGUNDA_VISITA", "RAZAO_SOCIAL": "B_E_M_MARTINS_COMERCIO_DE_LIVROS_-_LIVRARIA_PONTA_DE_LANCA", "ENDERECO": "RUA_AURELIANO_COUTINHO_26_CONSOLACAO_SAO_PAULO", "CIDADE": "SAO_PAULO", "LATITUDE": -23.5402363, "LONGITUDE": -46.652769 }, "geometry": { "type": "Point", "coordinates": [ -46.652769, -23.5402363 ] } },
{ "type": "Feature", "properties": { "CNPJ": 66520826000190, "AGENTE": "MICHELLE_CAROLINE_BETONI", "ACAO": "REALIZAR_SEGUNDA_VISITA", "RAZAO_SOCIAL": "A_C_PADILHA_MOTOPECAS_-_CASA_DAS_VISEIRAS", "ENDERECO": "RUA_BARAO_DE_CAMPINAS_104_CAMPOS_ELISEOS_SAO_PAULO", "CIDADE": "SAO_PAULO", "LATITUDE": -23.5393895, "LONGITUDE": -46.6447759 }, "geometry": { "type": "Point", "coordinates": [ -46.6447759, -23.5393895 ] } },
{ "type": "Feature", "properties": { "CNPJ": 61078051000120, "AGENTE": "MICHELLE_CAROLINE_BETONI", "ACAO": "REALIZAR_SEGUNDA_VISITA", "RAZAO_SOCIAL": "BAR_E_LANCHES_JOIA_DO_MONDEGO_LTDA_-_MONDEGO_BAR", "ENDERECO": "RUA_BARAO_DE_TATUI_128_VILA_BUARQUE_SAO_PAULO", "CIDADE": "SAO_PAULO", "LATITUDE": -23.5370944, "LONGITUDE": -46.6535631 }, "geometry": { "type": "Point", "coordinates": [ -46.6535631, -23.5370944 ] } },
{ "type": "Feature", "properties": { "CNPJ": 61538476000175, "AGENTE": "MICHELLE_CAROLINE_BETONI", "ACAO": "REALIZAR_SEGUNDA_VISITA", "RAZAO_SOCIAL": "BAR_E_LANCHES_CABRAL_LTDA_-_LANCHONETE_E_RESTAURANTE_CABRAL", "ENDERECO": "RUA_BARAO_DE_TATUI_154_VILA_BUARQUE_SAO_PAULO", "CIDADE": "SAO_PAULO", "LATITUDE": -23.5372573, "LONGITUDE": -46.6535644 }, "geometry": { "type": "Point", "coordinates": [ -46.6535644, -23.5372573 ] } },
{ "type": "Feature", "properties": { "CNPJ": 5594449000149, "AGENTE": "MICHELLE_CAROLINE_BETONI", "ACAO": "REALIZAR_SEGUNDA_VISITA", "RAZAO_SOCIAL": "ARTE_&_DESIGN_COMERCIO_DE_MOLDURAS_LTDA_-_ARTE_&_DESIGN", "ENDERECO": "RUA_BARAO_DE_TATUI_219_VILA_BUARQUE_SAO_PAULO", "CIDADE": "SAO_PAULO", "LATITUDE": -23.537863, "LONGITUDE": -46.6535424 }, "geometry": { "type": "Point", "coordinates": [ -46.6535424, -23.537863 ] } },
{ "type": "Feature", "properties": { "CNPJ": 10974611000194, "AGENTE": "MICHELLE_CAROLINE_BETONI", "ACAO": "REALIZAR_SEGUNDA_VISITA", "RAZAO_SOCIAL": "STATUS_EMBELEZAMENTO_AUTOMOTIVO_LTDA_-_STATUS_EMBELEZAMENTO_AUTOMOTIVO", "ENDERECO": "RUA_BARAO_DE_TATUI_246_VILA_BUARQUE_SAO_PAULO", "CIDADE": "SAO_PAULO", "LATITUDE": -23.5380621, "LONGITUDE": -46.6539066 }, "geometry": { "type": "Point", "coordinates": [ -46.6539066, -23.5380621 ] } },
{ "type": "Feature", "properties": { "CNPJ": 62121041000193, "AGENTE": "MICHELLE_CAROLINE_BETONI", "ACAO": "REALIZAR_SEGUNDA_VISITA", "RAZAO_SOCIAL": "MERCEARIA_JOANA_DARC_LTDA_-_MERCEARIA_JOANA_DARK", "ENDERECO": "RUA_BARAO_DE_TATUI_253_VILA_BUARQUE_SAO_PAULO", "CIDADE": "SAO_PAULO", "LATITUDE": -23.5382292, "LONGITUDE": -46.6538918 }, "geometry": { "type": "Point", "coordinates": [ -46.6538918, -23.5382292 ] } },
{ "type": "Feature", "properties": { "CNPJ": 31321770000160, "AGENTE": "MICHELLE_CAROLINE_BETONI", "ACAO": "REALIZAR_SEGUNDA_VISITA", "RAZAO_SOCIAL": "DONA_ELISA_COMERCIO_DE_ALIMENTOS_LTDA_-_DONA_ELISA_RESTAURANTE", "ENDERECO": "RUA_BARAO_DE_TATUI_270_VILA_BUARQUE_SAO_PAULO", "CIDADE": "SAO_PAULO", "LATITUDE": -23.5382651, "LONGITUDE": -46.653971 }, "geometry": { "type": "Point", "coordinates": [ -46.653971, -23.5382651 ] } },
{ "type": "Feature", "properties": { "CNPJ": 12103839000134, "AGENTE": "MICHELLE_CAROLINE_BETONI", "ACAO": "REALIZAR_SEGUNDA_VISITA", "RAZAO_SOCIAL": "SRP_BAR_E_LANCHES_LTDA_-_BAR_E_LANCHES_JOIA_DA_TATUI", "ENDERECO": "RUA_BARAO_DE_TATUI_275_VILA_BUARQUE_SAO_PAULO", "CIDADE": "SAO_PAULO", "LATITUDE": -23.5383786, "LONGITUDE": -46.6537989 }, "geometry": { "type": "Point", "coordinates": [ -46.6537989, -23.5383786 ] } },
{ "type": "Feature", "properties": { "CNPJ": 35074854000105, "AGENTE": "MICHELLE_CAROLINE_BETONI", "ACAO": "REALIZAR_SEGUNDA_VISITA", "RAZAO_SOCIAL": "RJ_ALIMENTACAO_LTDA_-_RAMA_RESTAURANTE", "ENDERECO": "RUA_BARAO_DE_TATUI_532_VILA_BUARQUE_SAO_PAULO", "CIDADE": "SAO_PAULO", "LATITUDE": -23.5404017, "LONGITUDE": -46.6546969 }, "geometry": { "type": "Point", "coordinates": [ -46.6546969, -23.5404017 ] } },
{ "type": "Feature", "properties": { "CNPJ": 55066352000131, "AGENTE": "MICHELLE_CAROLINE_BETONI", "ACAO": "REALIZAR_SEGUNDA_VISITA", "RAZAO_SOCIAL": "COMERCIO_DE_MATERIAL_DE_CONSTRUCAO_IDEAL_LTDA_-_IDEAL_MATERIAIS_DE_CONSTRUCAO", "ENDERECO": "RUA_BARAO_DE_TATUI_55_SANTA_CECILIA_SAO_PAULO", "CIDADE": "SAO_PAULO", "LATITUDE": -23.5365862, "LONGITUDE": -46.6530229 }, "geometry": { "type": "Point", "coordinates": [ -46.6530229, -23.5365862 ] } },
{ "type": "Feature", "properties": { "CNPJ": 35655849000188, "AGENTE": "MICHELLE_CAROLINE_BETONI", "ACAO": "REALIZAR_SEGUNDA_VISITA", "RAZAO_SOCIAL": "LIGIA_MARA_ROSSI_07626136888_-_GRAO_DE_BOLO", "ENDERECO": "RUA_BARAO_DE_TATUI_567_VILA_BUARQUE_SAO_PAULO", "CIDADE": "SAO_PAULO", "LATITUDE": -23.5408316, "LONGITUDE": -46.6548125 }, "geometry": { "type": "Point", "coordinates": [ -46.6548125, -23.5408316 ] } },
{ "type": "Feature", "properties": { "CNPJ": 38058204000156, "AGENTE": "MICHELLE_CAROLINE_BETONI", "ACAO": "REALIZAR_SEGUNDA_VISITA", "RAZAO_SOCIAL": "38.058.204_ANA_MARIA_DA_SILVA_-_MULTI_ARTES", "ENDERECO": "RUA_BARAO_DE_TATUI_606_VILA_BUARQUE_SAO_PAULO", "CIDADE": "SAO_PAULO", "LATITUDE": -23.5409163, "LONGITUDE": -46.654838 }, "geometry": { "type": "Point", "coordinates": [ -46.654838, -23.5409163 ] } },
{ "type": "Feature", "properties": { "CNPJ": 18478753000172, "AGENTE": "MICHELLE_CAROLINE_BETONI", "ACAO": "REALIZAR_SEGUNDA_VISITA", "RAZAO_SOCIAL": "DEUSONIL_JOSE_NUNES_DE_ARAUJO_05936964841_-_SAPATARIA_MC", "ENDERECO": "RUA_BARAO_DE_TATUI_618_VILA_BUARQUE_SAO_PAULO", "CIDADE": "SAO_PAULO", "LATITUDE": -23.5413676, "LONGITUDE": -46.6550003 }, "geometry": { "type": "Point", "coordinates": [ -46.6550003, -23.5413676 ] } },
{ "type": "Feature", "properties": { "CNPJ": 5529633000105, "AGENTE": "MICHELLE_CAROLINE_BETONI", "ACAO": "REALIZAR_SEGUNDA_VISITA", "RAZAO_SOCIAL": "PET_SHOP-SANTOS_COMERCIO_DE_RACOES_PARA_CAES_E_GATOS_LTDA_-_PET_SHOP_SANTOS", "ENDERECO": "RUA_BARAO_DE_TATUI_64_SANTA_CECILIA_SAO_PAULO", "CIDADE": "SAO_PAULO", "LATITUDE": -23.5365729, "LONGITUDE": -46.6532237 }, "geometry": { "type": "Point", "coordinates": [ -46.6532237, -23.5365729 ] } },
{ "type": "Feature", "properties": { "CNPJ": 45985513000137, "AGENTE": "MICHELLE_CAROLINE_BETONI", "ACAO": "REALIZAR_SEGUNDA_VISITA", "RAZAO_SOCIAL": "PPLI_ESTETICA_E_BELEZA_LTDA_-_BEAUTY_B_BELEZA_E_ESTETICA", "ENDERECO": "RUA_BARAO_DE_TATUI_75_VILA_BUARQUE_SAO_PAULO", "CIDADE": "SAO_PAULO", "LATITUDE": -23.5367773, "LONGITUDE": -46.6531585 }, "geometry": { "type": "Point", "coordinates": [ -46.6531585, -23.5367773 ] } },
{ "type": "Feature", "properties": { "CNPJ": 7295083000132, "AGENTE": "MICHELLE_CAROLINE_BETONI", "ACAO": "REALIZAR_SEGUNDA_VISITA", "RAZAO_SOCIAL": "ROBETO_ARTIGOS_ESPORTIVOS_LTDA_-_ONE_SUPLEMENTOS", "ENDERECO": "RUA_BARONESA_DE_ITU_179_SANTA_CECILIA_SAO_PAULO", "CIDADE": "SAO_PAULO", "LATITUDE": -23.5398569, "LONGITUDE": -46.6547824 }, "geometry": { "type": "Point", "coordinates": [ -46.6547824, -23.5398569 ] } },
{ "type": "Feature", "properties": { "CNPJ": 55138549000139, "AGENTE": "MICHELLE_CAROLINE_BETONI", "ACAO": "REALIZAR_SEGUNDA_VISITA", "RAZAO_SOCIAL": "BARONESA_FLORES_LTDA_-_BARONESA_FLORES", "ENDERECO": "RUA_BARONESA_DE_ITU_203_SANTA_CECILIA_SAO_PAULO", "CIDADE": "SAO_PAULO", "LATITUDE": -23.5399428, "LONGITUDE": -46.6550685 }, "geometry": { "type": "Point", "coordinates": [ -46.6550685, -23.5399428 ] } },
{ "type": "Feature", "properties": { "CNPJ": 11799688000138, "AGENTE": "MICHELLE_CAROLINE_BETONI", "ACAO": "REALIZAR_SEGUNDA_VISITA", "RAZAO_SOCIAL": "STAR_BEAUTY_COSMETICOS_E_UTILIDADES_LTDA_-_STAR_BEAUTY", "ENDERECO": "RUA_BARONESA_DE_ITU_22_SANTA_CECILIA_SAO_PAULO", "CIDADE": "SAO_PAULO", "LATITUDE": -23.5398554, "LONGITUDE": -46.6532655 }, "geometry": { "type": "Point", "coordinates": [ -46.6532655, -23.5398554 ] } },
{ "type": "Feature", "properties": { "CNPJ": 47332615000189, "AGENTE": "MICHELLE_CAROLINE_BETONI", "ACAO": "REALIZAR_SEGUNDA_VISITA", "RAZAO_SOCIAL": "CRS_BELEZA_E_ESTETICA_LTDA_-_SANTA_CECILIA__CENTRO_DE_ESTETICA", "ENDERECO": "RUA_BARONESA_DE_ITU_42_VILA_BUARQUE_SAO_PAULO", "CIDADE": "SAO_PAULO", "LATITUDE": -23.5398757, "LONGITUDE": -46.6534752 }, "geometry": { "type": "Point", "coordinates": [ -46.6534752, -23.5398757 ] } },
{ "type": "Feature", "properties": { "CNPJ": 51737712000129, "AGENTE": "MICHELLE_CAROLINE_BETONI", "ACAO": "REALIZAR_SEGUNDA_VISITA", "RAZAO_SOCIAL": "51.737.712_BIANKA_TOZARINI_MENDES_DA_SILVA_-_BIA_COSTURA", "ENDERECO": "RUA_BARONESA_DE_ITU_96_SANTA_CECILIA_SAO_PAULO", "CIDADE": "SAO_PAULO", "LATITUDE": -23.5398469, "LONGITUDE": -46.6540018 }, "geometry": { "type": "Point", "coordinates": [ -46.6540018, -23.5398469 ] } },
{ "type": "Feature", "properties": { "CNPJ": 8962674000189, "AGENTE": "MICHELLE_CAROLINE_BETONI", "ACAO": "REALIZAR_SEGUNDA_VISITA", "RAZAO_SOCIAL": "ZANDONA_COMERCIO_DE_ROUPAS_LTDA_-_ZANDONA_LOJA", "ENDERECO": "RUA_BENTO_FREITAS_134_REPUBLICA_SAO_PAULO", "CIDADE": "SAO_PAULO", "LATITUDE": -23.5430371, "LONGITUDE": -46.6455441 }, "geometry": { "type": "Point", "coordinates": [ -46.6455441, -23.5430371 ] } },
{ "type": "Feature", "properties": { "CNPJ": 25257219000100, "AGENTE": "MICHELLE_CAROLINE_BETONI", "ACAO": "REALIZAR_SEGUNDA_VISITA", "RAZAO_SOCIAL": "25.257.219_PRISCILA_SANTANA_COSTA_-_PETS_PEW", "ENDERECO": "RUA_BENTO_FREITAS_146_REPUBLICA_SAO_PAULO", "CIDADE": "SAO_PAULO", "LATITUDE": -23.543036, "LONGITUDE": -46.6454295 }, "geometry": { "type": "Point", "coordinates": [ -46.6454295, -23.543036 ] } },
{ "type": "Feature", "properties": { "CNPJ": 54908915000129, "AGENTE": "MICHELLE_CAROLINE_BETONI", "ACAO": "REALIZAR_SEGUNDA_VISITA", "RAZAO_SOCIAL": "TONNYS_BAR_LTDA_-_TONNY'S__BAR", "ENDERECO": "RUA_BENTO_FREITAS_43_REPUBLICA_SAO_PAULO", "CIDADE": "SAO_PAULO", "LATITUDE": -23.5422851, "LONGITUDE": -46.6454564 }, "geometry": { "type": "Point", "coordinates": [ -46.6454564, -23.5422851 ] } },
{ "type": "Feature", "properties": { "CNPJ": 43739742000146, "AGENTE": "MICHELLE_CAROLINE_BETONI", "ACAO": "REALIZAR_SEGUNDA_VISITA", "RAZAO_SOCIAL": "NADIA_KAROLINA_PALHETA_SASTRE_70540861200_-_STUDIO_WANDA_AGOSTINELLI", "ENDERECO": "RUA_BENTO_FREITAS_77_REPUBLICA_SAO_PAULO", "CIDADE": "SAO_PAULO", "LATITUDE": -23.5425426, "LONGITUDE": -46.64546 }, "geometry": { "type": "Point", "coordinates": [ -46.64546, -23.5425426 ] } },
{ "type": "Feature", "properties": { "CNPJ": 53399489000182, "AGENTE": "MICHELLE_CAROLINE_BETONI", "ACAO": "REALIZAR_SEGUNDA_VISITA", "RAZAO_SOCIAL": "53.399.489_GILMARA_FERREIRA_LEITE_-_TOQUE_DE_AMOR", "ENDERECO": "RUA_BENTO_NAVARRO_14_VILA_NOVA_CURUCA_SAO_PAULO", "CIDADE": "SAO_PAULO", "LATITUDE": -23.5447051, "LONGITUDE": -46.6389679 }, "geometry": { "type": "Point", "coordinates": [ -46.6389679, -23.5447051 ] } },
{ "type": "Feature", "properties": { "CNPJ": 47869240000190, "AGENTE": "MICHELLE_CAROLINE_BETONI", "ACAO": "REALIZAR_SEGUNDA_VISITA", "RAZAO_SOCIAL": "47.869.240_EDIMEA_TEREZA_DA_SILVA_-_QUILOMBO_DOCES", "ENDERECO": "RUA_CAIO_GRACO_20_VILA_ROMANA_SAO_PAULO", "CIDADE": "SAO_PAULO", "LATITUDE": -23.5447119, "LONGITUDE": -46.6389801 }, "geometry": { "type": "Point", "coordinates": [ -46.6389801, -23.5447119 ] } },
{ "type": "Feature", "properties": { "CNPJ": 50831453000138, "AGENTE": "MICHELLE_CAROLINE_BETONI", "ACAO": "REALIZAR_SEGUNDA_VISITA", "RAZAO_SOCIAL": "50.831.453_LOURDES_APARECIDA_PAULA_-_ECO_ORTA", "ENDERECO": "RUA_CALIXTO_BARBIERI_136_I.A.P.I._OSASCO", "CIDADE": "OSASCO", "LATITUDE": -23.5165912, "LONGITUDE": -46.6362326 }, "geometry": { "type": "Point", "coordinates": [ -46.6362326, -23.5165912 ] } },
{ "type": "Feature", "properties": { "CNPJ": 12362144000177, "AGENTE": "MICHELLE_CAROLINE_BETONI", "ACAO": "REALIZAR_SEGUNDA_VISITA", "RAZAO_SOCIAL": "PARKING_VISUVION_ESTACIONAMENTO_LTDA_-_FRANGO_COM_TUDO_DENTRO", "ENDERECO": "RUA_CANUTO_DO_VAL_115_VILA_BUARQUE_SAO_PAULO", "CIDADE": "SAO_PAULO", "LATITUDE": -23.5404763, "LONGITUDE": -46.651685 }, "geometry": { "type": "Point", "coordinates": [ -46.651685, -23.5404763 ] } },
{ "type": "Feature", "properties": { "CNPJ": 29131465000163, "AGENTE": "MICHELLE_CAROLINE_BETONI", "ACAO": "REALIZAR_SEGUNDA_VISITA", "RAZAO_SOCIAL": "ALTAIR_MARIA_DE_JESUS_27228237803_-_AN_BAR", "ENDERECO": "RUA_CANUTO_DO_VAL_204_VILA_BUARQUE_SAO_PAULO", "CIDADE": "SAO_PAULO", "LATITUDE": -23.540117, "LONGITUDE": -46.652496 }, "geometry": { "type": "Point", "coordinates": [ -46.652496, -23.540117 ] } },
{ "type": "Feature", "properties": { "CNPJ": 54764633000103, "AGENTE": "MICHELLE_CAROLINE_BETONI", "ACAO": "REALIZAR_SEGUNDA_VISITA", "RAZAO_SOCIAL": "O_MIRANDES_RESTAURANTE_LTDA_-_O_MIRANDES", "ENDERECO": "RUA_CANUTO_DO_VAL_206_VILA_BUARQUE_SAO_PAULO", "CIDADE": "SAO_PAULO", "LATITUDE": -23.5401867, "LONGITUDE": -46.652584 }, "geometry": { "type": "Point", "coordinates": [ -46.652584, -23.5401867 ] } },
{ "type": "Feature", "properties": { "CNPJ": 45406597000107, "AGENTE": "MICHELLE_CAROLINE_BETONI", "ACAO": "REALIZAR_SEGUNDA_VISITA", "RAZAO_SOCIAL": "UNO_MAIS_TABACARIA_PRESENTES_E_COMERCIO_LTDA_-_NATUREBA_CACHACARIA", "ENDERECO": "RUA_CANUTO_DO_VAL_209_VILA_BUARQUE_SAO_PAULO", "CIDADE": "SAO_PAULO", "LATITUDE": -23.5401034, "LONGITUDE": -46.6526129 }, "geometry": { "type": "Point", "coordinates": [ -46.6526129, -23.5401034 ] } },
{ "type": "Feature", "properties": { "CNPJ": 1126883000143, "AGENTE": "MICHELLE_CAROLINE_BETONI", "ACAO": "REALIZAR_SEGUNDA_VISITA", "RAZAO_SOCIAL": "LANCHES_FLOR_DO_JOAO_ALFREDO_LTDA_-_JHONYS_BAR_E_RESTAURANTE", "ENDERECO": "RUA_CANUTO_DO_VAL_241_VILA_BUARQUE_SAO_PAULO", "CIDADE": "SAO_PAULO", "LATITUDE": -23.5401253, "LONGITUDE": -46.6527657 }, "geometry": { "type": "Point", "coordinates": [ -46.6527657, -23.5401253 ] } },
{ "type": "Feature", "properties": { "CNPJ": 40840307000115, "AGENTE": "MICHELLE_CAROLINE_BETONI", "ACAO": "REALIZAR_SEGUNDA_VISITA", "RAZAO_SOCIAL": "BONILHA_&_NEVES_CAFES_ESPECIAIS_LTDA_-_CAFE_NAIF", "ENDERECO": "RUA_CANUTO_DO_VAL_26_VILA_BUARQUE_SAO_PAULO", "CIDADE": "SAO_PAULO", "LATITUDE": -23.5405043, "LONGITUDE": -46.6508713 }, "geometry": { "type": "Point", "coordinates": [ -46.6508713, -23.5405043 ] } },
{ "type": "Feature", "properties": { "CNPJ": 49058169000191, "AGENTE": "MICHELLE_CAROLINE_BETONI", "ACAO": "REALIZAR_SEGUNDA_VISITA", "RAZAO_SOCIAL": "ESPACO_BARBARA_MOURA_LTDA_-_ESPACO_BARBARA_MOURA", "ENDERECO": "RUA_CANUTO_DO_VAL_54_VILA_BUARQUE_SAO_PAULO", "CIDADE": "SAO_PAULO", "LATITUDE": -23.5404829, "LONGITUDE": -46.6510947 }, "geometry": { "type": "Point", "coordinates": [ -46.6510947, -23.5404829 ] } },
{ "type": "Feature", "properties": { "CNPJ": 45895155000171, "AGENTE": "MICHELLE_CAROLINE_BETONI", "ACAO": "REALIZAR_SEGUNDA_VISITA", "RAZAO_SOCIAL": "JULIANA_THERESA_SARTO_SHOYAMA_27342086878_-_THE_KHORA", "ENDERECO": "RUA_CESAR_VALLEJO_170_REAL_PARQUE_SAO_PAULO", "CIDADE": "SAO_PAULO", "LATITUDE": -23.5163652, "LONGITUDE": -46.6359182 }, "geometry": { "type": "Point", "coordinates": [ -46.6359182, -23.5163652 ] } },
{ "type": "Feature", "properties": { "CNPJ": 55334567000196, "AGENTE": "MICHELLE_CAROLINE_BETONI", "ACAO": "REALIZAR_SEGUNDA_VISITA", "RAZAO_SOCIAL": "TEKA_CORDEIRO_COMERCIO_E_INDUSTRIA_LTDA_-_HOT_TERAPIC_INOVACAO_E_SAUDE", "ENDERECO": "RUA_CHABERA_129_VILA_FORMOSA_SAO_PAULO", "CIDADE": "SAO_PAULO", "LATITUDE": -23.5164427, "LONGITUDE": -46.6374213 }, "geometry": { "type": "Point", "coordinates": [ -46.6374213, -23.5164427 ] } },
{ "type": "Feature", "properties": { "CNPJ": 30811240000137, "AGENTE": "MICHELLE_CAROLINE_BETONI", "ACAO": "REALIZAR_SEGUNDA_VISITA", "RAZAO_SOCIAL": "JULIANA_DOS_SANTOS_GALVAO_JARDINAGEM_-_GARDEM_SACOMA", "ENDERECO": "RUA_CIPRIANO_BARATA_3500_IPIRANGA_SAO_PAULO", "CIDADE": "SAO_PAULO", "LATITUDE": -23.6001041, "LONGITUDE": -46.6042432 }, "geometry": { "type": "Point", "coordinates": [ -46.6042432, -23.6001041 ] } },
{ "type": "Feature", "properties": { "CNPJ": 48522294000148, "AGENTE": "MICHELLE_CAROLINE_BETONI", "ACAO": "REALIZAR_SEGUNDA_VISITA", "RAZAO_SOCIAL": "MARCELIO_BONFIM_MARTINS_89224337520_-_BAR_E_LANCHONETE_BATE_PAPO", "ENDERECO": "RUA_COMANDANTE_TAYLOR_139_IPIRANGA_SAO_PAULO", "CIDADE": "SAO_PAULO", "LATITUDE": -23.5323567, "LONGITUDE": -46.5785217 }, "geometry": { "type": "Point", "coordinates": [ -46.5785217, -23.5323567 ] } },
{ "type": "Feature", "properties": { "CNPJ": 56032834000133, "AGENTE": "MICHELLE_CAROLINE_BETONI", "ACAO": "REALIZAR_SEGUNDA_VISITA", "RAZAO_SOCIAL": "56.032.834_ANDREA_DOS_REIS_-_DONAKYON_BOCHE", "ENDERECO": "RUA_CONEGO_VICENTE_MIGUEL_MARINO_101_BARRA_FUNDA_SAO_PAULO", "CIDADE": "SAO_PAULO", "LATITUDE": -23.5447422, "LONGITUDE": -46.6389341 }, "geometry": { "type": "Point", "coordinates": [ -46.6389341, -23.5447422 ] } },
{ "type": "Feature", "properties": { "CNPJ": 34552434000116, "AGENTE": "MICHELLE_CAROLINE_BETONI", "ACAO": "REALIZAR_SEGUNDA_VISITA", "RAZAO_SOCIAL": "TORRE_CAFE_CAFETERIA_LTDA_-_TORRE_DO_CAFE", "ENDERECO": "RUA_CONSELHEIRO_CRISPINIANO_115_REPUBLICA_SAO_PAULO", "CIDADE": "SAO_PAULO", "LATITUDE": -23.5460455, "LONGITUDE": -46.6398588 }, "geometry": { "type": "Point", "coordinates": [ -46.6398588, -23.5460455 ] } },
{ "type": "Feature", "properties": { "CNPJ": 51180476000192, "AGENTE": "MICHELLE_CAROLINE_BETONI", "ACAO": "REALIZAR_SEGUNDA_VISITA", "RAZAO_SOCIAL": "51.180.476_ERIKA_FARIAS_FERREIRA_-_ERIKA_FERREIRA_ACESSORIOS", "ENDERECO": "RUA_CONSELHEIRO_CRISPINIANO_125_REPUBLICA_SAO_PAULO", "CIDADE": "SAO_PAULO", "LATITUDE": -23.545999, "LONGITUDE": -46.6398044 }, "geometry": { "type": "Point", "coordinates": [ -46.6398044, -23.545999 ] } },
{ "type": "Feature", "properties": { "CNPJ": 35532129000125, "AGENTE": "MICHELLE_CAROLINE_BETONI", "ACAO": "REALIZAR_SEGUNDA_VISITA", "RAZAO_SOCIAL": "WILLYER_CRUZ_DE_BRITO_40395656818_-_WL_STUDIOS", "ENDERECO": "RUA_CONSELHEIRO_CRISPINIANO_131_REPUBLICA_SAO_PAULO", "CIDADE": "SAO_PAULO", "LATITUDE": -23.5459335, "LONGITUDE": -46.6397 }, "geometry": { "type": "Point", "coordinates": [ -46.6397, -23.5459335 ] } },
{ "type": "Feature", "properties": { "CNPJ": 33587586000191, "AGENTE": "MICHELLE_CAROLINE_BETONI", "ACAO": "REALIZAR_SEGUNDA_VISITA", "RAZAO_SOCIAL": "LUCAS_MOREIRA_TRINDADE_MARQUES_-_TABACARIA_DRAGON", "ENDERECO": "RUA_CONSELHEIRO_CRISPINIANO_19_REPUBLICA_SAO_PAULO", "CIDADE": "SAO_PAULO", "LATITUDE": -23.5467054, "LONGITUDE": -46.6403635 }, "geometry": { "type": "Point", "coordinates": [ -46.6403635, -23.5467054 ] } },
{ "type": "Feature", "properties": { "CNPJ": 8830863000106, "AGENTE": "MICHELLE_CAROLINE_BETONI", "ACAO": "REALIZAR_SEGUNDA_VISITA", "RAZAO_SOCIAL": "BAR_E_LANCHONETE_CONSELHEIRO_LTDA_-_BAR_E_LACHONETE_CONSELHEIRO", "ENDERECO": "RUA_CONSELHEIRO_CRISPINIANO_39_REPUBLICA_SAO_PAULO", "CIDADE": "SAO_PAULO", "LATITUDE": -23.546634, "LONGITUDE": -46.6402864 }, "geometry": { "type": "Point", "coordinates": [ -46.6402864, -23.546634 ] } },
{ "type": "Feature", "properties": { "CNPJ": 35756644000199, "AGENTE": "MICHELLE_CAROLINE_BETONI", "ACAO": "REALIZAR_SEGUNDA_VISITA", "RAZAO_SOCIAL": "RODRIGUES_&_MELLO_LANCHONETE_PIZZARIA_E_RESTAURANTE_LTDA_-_VERSATIL_RESTAURANTE", "ENDERECO": "RUA_CONSELHEIRO_CRISPINIANO_91_REPUBLICA_SAO_PAULO", "CIDADE": "SAO_PAULO", "LATITUDE": -23.5461487, "LONGITUDE": -46.6399227 }, "geometry": { "type": "Point", "coordinates": [ -46.6399227, -23.5461487 ] } },
{ "type": "Feature", "properties": { "CNPJ": 26432348000141, "AGENTE": "MICHELLE_CAROLINE_BETONI", "ACAO": "REALIZAR_SEGUNDA_VISITA", "RAZAO_SOCIAL": "26.432.348_LEDA_ALVES_MOTA_SHIBATA_-_DULCELLA", "ENDERECO": "RUA_CONSELHEIRO_FURTADO_207_LIBERDADE_SAO_PAULO", "CIDADE": "SAO_PAULO", "LATITUDE": -23.5446543, "LONGITUDE": -46.6390244 }, "geometry": { "type": "Point", "coordinates": [ -46.6390244, -23.5446543 ] } },
{ "type": "Feature", "properties": { "CNPJ": 59789762000161, "AGENTE": "MICHELLE_CAROLINE_BETONI", "ACAO": "REALIZAR_SEGUNDA_VISITA", "RAZAO_SOCIAL": "59.789.762_EDMILSON_MARQUES_DA_SILVA_-_PROPAGANDAS_COLETIVAS", "ENDERECO": "RUA_CONSELHEIRO_NEBIAS_532_CAMPOS_ELISIOS_SAO_PAULO", "CIDADE": "SAO_PAULO", "LATITUDE": -23.5446228, "LONGITUDE": -46.6390393 }, "geometry": { "type": "Point", "coordinates": [ -46.6390393, -23.5446228 ] } },
{ "type": "Feature", "properties": { "CNPJ": 61233237000107, "AGENTE": "MICHELLE_CAROLINE_BETONI", "ACAO": "REALIZAR_SEGUNDA_VISITA", "RAZAO_SOCIAL": "61.233.237_LUIZA_HADDAD_MOREIRA_LIMA_-_SOLO_FERTIL", "ENDERECO": "RUA_CORONEL_FERREIRA_LEAL_271_VILA_GOMES_SAO_PAULO", "CIDADE": "SAO_PAULO", "LATITUDE": -23.5157941, "LONGITUDE": -46.6368266 }, "geometry": { "type": "Point", "coordinates": [ -46.6368266, -23.5157941 ] } },
{ "type": "Feature", "properties": { "CNPJ": 29643288000102, "AGENTE": "MICHELLE_CAROLINE_BETONI", "ACAO": "REALIZAR_SEGUNDA_VISITA", "RAZAO_SOCIAL": "DAISA_CASEMIRO_CESAR_22569396850_-_ASIA__D_AFRICA", "ENDERECO": "RUA_CORONEL_SILVERIO_MAGALHAES_618_VILA_SANTO_ESTEFANO_SAO_PAULO", "CIDADE": "SAO_PAULO", "LATITUDE": -23.5447213, "LONGITUDE": -46.6389713 }, "geometry": { "type": "Point", "coordinates": [ -46.6389713, -23.5447213 ] } },
{ "type": "Feature", "properties": { "CNPJ": 2231772000160, "AGENTE": "MICHELLE_CAROLINE_BETONI", "ACAO": "REALIZAR_SEGUNDA_VISITA", "RAZAO_SOCIAL": "ENEMEOP_COMERCIO_DE_FLORES_E_PRESENTES_LTDA_-_ENEMEOP_FLORES", "ENDERECO": "RUA_COSTA_AGUIAR_1184_IPIRANGA_SAO_PAULO", "CIDADE": "SAO_PAULO", "LATITUDE": -23.5844279, "LONGITUDE": -46.6067227 }, "geometry": { "type": "Point", "coordinates": [ -46.6067227, -23.5844279 ] } },
{ "type": "Feature", "properties": { "CNPJ": 47954651000184, "AGENTE": "MICHELLE_CAROLINE_BETONI", "ACAO": "REALIZAR_SEGUNDA_VISITA", "RAZAO_SOCIAL": "MMM_S_BAR_E_RESTAURANTE_LTDA_-_QUINTAL_DO_DOM", "ENDERECO": "RUA_COSTA_AGUIAR_1431_IPIRANGA_SAO_PAULO", "CIDADE": "SAO_PAULO", "LATITUDE": -23.5867665, "LONGITUDE": -46.6062621 }, "geometry": { "type": "Point", "coordinates": [ -46.6062621, -23.5867665 ] } },
{ "type": "Feature", "properties": { "CNPJ": 50719410000165, "AGENTE": "MICHELLE_CAROLINE_BETONI", "ACAO": "REALIZAR_SEGUNDA_VISITA", "RAZAO_SOCIAL": "50.719.410_JOSE_VICTOR_DOS_REIS_RAPOSO_-_NOBRE_BARBEARIA", "ENDERECO": "RUA_COSTA_AGUIAR_1467_IPIRANGA_SAO_PAULO", "CIDADE": "SAO_PAULO", "LATITUDE": -23.5869476, "LONGITUDE": -46.6063358 }, "geometry": { "type": "Point", "coordinates": [ -46.6063358, -23.5869476 ] } },
{ "type": "Feature", "properties": { "CNPJ": 46127476000199, "AGENTE": "MICHELLE_CAROLINE_BETONI", "ACAO": "REALIZAR_SEGUNDA_VISITA", "RAZAO_SOCIAL": "BE_MULTI_SUPLEMENTOS_LTDA_-_BE._MULTTI", "ENDERECO": "RUA_CREUSA_FERREIRA_LIMA_DE_SOUZA_ARAUJO_69_POLVILHO_CAJAMAR", "CIDADE": "CAJAMAR", "LATITUDE": -23.5168508, "LONGITUDE": -46.6360145 }, "geometry": { "type": "Point", "coordinates": [ -46.6360145, -23.5168508 ] } },
{ "type": "Feature", "properties": { "CNPJ": 25961128000142, "AGENTE": "MICHELLE_CAROLINE_BETONI", "ACAO": "REALIZAR_SEGUNDA_VISITA", "RAZAO_SOCIAL": "CARLITO_OLIVEIRA_DOS_SANTOS_39303802500_-_C&E_ENCANADOR", "ENDERECO": "RUA_DA_CONSOLACAO_21_CENTRO_SAO_PAULO", "CIDADE": "SAO_PAULO", "LATITUDE": -23.5446143, "LONGITUDE": -46.6390357 }, "geometry": { "type": "Point", "coordinates": [ -46.6390357, -23.5446143 ] } },
{ "type": "Feature", "properties": { "CNPJ": 23757839000174, "AGENTE": "MICHELLE_CAROLINE_BETONI", "ACAO": "REALIZAR_SEGUNDA_VISITA", "RAZAO_SOCIAL": "EMPORIO_DOCE_MENINA_LTDA_-_EMPORIO__DOCE_MENINA", "ENDERECO": "RUA_DA_CONSOLACAO_824_CONSOLACAO_SAO_PAULO", "CIDADE": "SAO_PAULO", "LATITUDE": -23.5480021, "LONGITUDE": -46.6494774 }, "geometry": { "type": "Point", "coordinates": [ -46.6494774, -23.5480021 ] } },
{ "type": "Feature", "properties": { "CNPJ": 21881259000169, "AGENTE": "MICHELLE_CAROLINE_BETONI", "ACAO": "REALIZAR_SEGUNDA_VISITA", "RAZAO_SOCIAL": "EDVAN_AIRES_LOPES_82173591304_-_EDVAN_AIRES_LOPES", "ENDERECO": "RUA_DA_MOOCA_114_MOOCA_SAO_PAULO", "CIDADE": "SAO_PAULO", "LATITUDE": -23.5444549, "LONGITUDE": -46.6390102 }, "geometry": { "type": "Point", "coordinates": [ -46.6390102, -23.5444549 ] } },
{ "type": "Feature", "properties": { "CNPJ": 52031511000174, "AGENTE": "MICHELLE_CAROLINE_BETONI", "ACAO": "REALIZAR_SEGUNDA_VISITA", "RAZAO_SOCIAL": "ZERO_UM_MOTO_PECAS_LTDA_-_ZERO_1_MOTO_PECAS", "ENDERECO": "RUA_DAS_JUNTAS_PROVISORIAS_557_IPIRANGA_SAO_PAULO", "CIDADE": "SAO_PAULO", "LATITUDE": -23.5915851, "LONGITUDE": -46.5978854 }, "geometry": { "type": "Point", "coordinates": [ -46.5978854, -23.5915851 ] } },
{ "type": "Feature", "properties": { "CNPJ": 45688903000145, "AGENTE": "MICHELLE_CAROLINE_BETONI", "ACAO": "REALIZAR_SEGUNDA_VISITA", "RAZAO_SOCIAL": "45.688.903_ANDRE_DE_SOUZA_-_AZ_AUTOMACOES", "ENDERECO": "RUA_DAS_JUNTAS_PROVISORIAS_949_IPIRANGA_SAO_PAULO", "CIDADE": "SAO_PAULO", "LATITUDE": -23.5952983, "LONGITUDE": -46.597155 }, "geometry": { "type": "Point", "coordinates": [ -46.597155, -23.5952983 ] } },
{ "type": "Feature", "properties": { "CNPJ": 50224771000130, "AGENTE": "MICHELLE_CAROLINE_BETONI", "ACAO": "REALIZAR_SEGUNDA_VISITA", "RAZAO_SOCIAL": "MAGNIFICO_CARNES_LTDA_-_MAGNIFICO_BOUTIQUE_DE_CARNES", "ENDERECO": "RUA_DAS_PALMEIRAS_200_VILA_BUARQUE_SAO_PAULO", "CIDADE": "SAO_PAULO", "LATITUDE": -23.5374626, "LONGITUDE": -46.6510342 }, "geometry": { "type": "Point", "coordinates": [ -46.6510342, -23.5374626 ] } },
{ "type": "Feature", "properties": { "CNPJ": 31334580000187, "AGENTE": "MICHELLE_CAROLINE_BETONI", "ACAO": "REALIZAR_SEGUNDA_VISITA", "RAZAO_SOCIAL": "JOAO_JORGE_MARTINS_FREITAS_05612509871_-_JJC_ATELIER", "ENDERECO": "RUA_DAS_PALMEIRAS_257_VILA_BUARQUE_SAO_PAULO", "CIDADE": "SAO_PAULO", "LATITUDE": -23.5373378, "LONGITUDE": -46.6515997 }, "geometry": { "type": "Point", "coordinates": [ -46.6515997, -23.5373378 ] } },
{ "type": "Feature", "properties": { "CNPJ": 59993658000194, "AGENTE": "MICHELLE_CAROLINE_BETONI", "ACAO": "REALIZAR_SEGUNDA_VISITA", "RAZAO_SOCIAL": "SALGADOS_SANTA_CECILIA_LANCHONETE_LTDA_-_SALGADOS_SANTA_CECILIA", "ENDERECO": "RUA_DAS_PALMEIRAS_47_VILA_BUARQUE_SAO_PAULO", "CIDADE": "SAO_PAULO", "LATITUDE": -23.5384778, "LONGITUDE": -46.6499269 }, "geometry": { "type": "Point", "coordinates": [ -46.6499269, -23.5384778 ] } },
{ "type": "Feature", "properties": { "CNPJ": 37380356000108, "AGENTE": "MICHELLE_CAROLINE_BETONI", "ACAO": "REALIZAR_SEGUNDA_VISITA", "RAZAO_SOCIAL": "BELINDA_GOLDBERG_COMERCIO_DE_CAMISETAS_LTDA_-_MARIA_BONITA", "ENDERECO": "RUA_DAS_PALMEIRAS_93_VILA_BUARQUE_SAO_PAULO", "CIDADE": "SAO_PAULO", "LATITUDE": -23.538142, "LONGITUDE": -46.6502451 }, "geometry": { "type": "Point", "coordinates": [ -46.6502451, -23.538142 ] } },
{ "type": "Feature", "properties": { "CNPJ": 25114386000193, "AGENTE": "MICHELLE_CAROLINE_BETONI", "ACAO": "REALIZAR_SEGUNDA_VISITA", "RAZAO_SOCIAL": "25.114.386_ANA_ZILDA_RODRIGUES_COUTINHO_-_FLORADAS_DA_SERRA", "ENDERECO": "RUA_DE_JACEGUAVA_513_LAGOA_GRANDE_EMBU-GUACU", "CIDADE": "EMBU-GUACU", "LATITUDE": -23.5164577, "LONGITUDE": -46.6365948 }, "geometry": { "type": "Point", "coordinates": [ -46.6365948, -23.5164577 ] } },
{ "type": "Feature", "properties": { "CNPJ": 48645807000108, "AGENTE": "MICHELLE_CAROLINE_BETONI", "ACAO": "REALIZAR_SEGUNDA_VISITA", "RAZAO_SOCIAL": "BRUNA_MARQUES_CARDOSO_ALVES_PEREIRA_42223727816_-_BRUNA_MARQUES", "ENDERECO": "RUA_DENDEZEIRO_58_JARDIM_MATARAZZO_SAO_PAULO", "CIDADE": "SAO_PAULO", "LATITUDE": -23.5167562, "LONGITUDE": -46.6362917 }, "geometry": { "type": "Point", "coordinates": [ -46.6362917, -23.5167562 ] } },
{ "type": "Feature", "properties": { "CNPJ": 28734610000138, "AGENTE": "MICHELLE_CAROLINE_BETONI", "ACAO": "REALIZAR_SEGUNDA_VISITA", "RAZAO_SOCIAL": "28.734.610_NEIDE_SANTANA_FERREIRA_-_ATACADO_PIMENTA_GLAMOUR", "ENDERECO": "RUA_DEPUTADO_VICENTE_PENIDO_188_VILA_GUILHERME_SAO_PAULO", "CIDADE": "SAO_PAULO", "LATITUDE": -23.5444322, "LONGITUDE": -46.6390202 }, "geometry": { "type": "Point", "coordinates": [ -46.6390202, -23.5444322 ] } },
{ "type": "Feature", "properties": { "CNPJ": 26166336000112, "AGENTE": "MICHELLE_CAROLINE_BETONI", "ACAO": "REALIZAR_SEGUNDA_VISITA", "RAZAO_SOCIAL": "GIMAK_COMERCIO_DE_MATERIAIS_EM_GERAL_LTDA._-_GIMAX_MATERIAIS_EM_GERAL", "ENDERECO": "RUA_DO_GRITO_724_IPIRANGA_SAO_PAULO", "CIDADE": "SAO_PAULO", "LATITUDE": -23.5989825, "LONGITUDE": -46.597804 }, "geometry": { "type": "Point", "coordinates": [ -46.597804, -23.5989825 ] } },
{ "type": "Feature", "properties": { "CNPJ": 3483321000182, "AGENTE": "MICHELLE_CAROLINE_BETONI", "ACAO": "REALIZAR_SEGUNDA_VISITA", "RAZAO_SOCIAL": "FEFA_CONSERCOM_SERVICOS_E_COMERCIO_LTDA_-_FERA_SENSORES", "ENDERECO": "RUA_DO_MANIFESTO_1727_IPIRANGA_SAO_PAULO", "CIDADE": "SAO_PAULO", "LATITUDE": -23.5885394, "LONGITUDE": -46.6000063 }, "geometry": { "type": "Point", "coordinates": [ -46.6000063, -23.5885394 ] } },
{ "type": "Feature", "properties": { "CNPJ": 46522599000124, "AGENTE": "MICHELLE_CAROLINE_BETONI", "ACAO": "REALIZAR_SEGUNDA_VISITA", "RAZAO_SOCIAL": "BRUNA_CRISTINA_DA_SILVA_22806833850_-_BRUNA_PRODUCOES", "ENDERECO": "RUA_DOMINGOS_DE_SANTA_MARIA_912_VILA_GUARANI_SAO_PAULO", "CIDADE": "SAO_PAULO", "LATITUDE": -23.5446284, "LONGITUDE": -46.6390414 }, "geometry": { "type": "Point", "coordinates": [ -46.6390414, -23.5446284 ] } },
{ "type": "Feature", "properties": { "CNPJ": 53075925000249, "AGENTE": "MICHELLE_CAROLINE_BETONI", "ACAO": "REALIZAR_SEGUNDA_VISITA", "RAZAO_SOCIAL": "VAVA_ARTIGOS_RELIGIOSOS_E_ESOTERICOS_LTDA_-_VAVA_ARTIGOS_RELIGIOSOS", "ENDERECO": "RUA_DONA_VERIDIANA_101_HIGIENOPOLIS_SAO_PAULO", "CIDADE": "SAO_PAULO", "LATITUDE": -23.5405419, "LONGITUDE": -46.6503024 }, "geometry": { "type": "Point", "coordinates": [ -46.6503024, -23.5405419 ] } },
{ "type": "Feature", "properties": { "CNPJ": 26609877000178, "AGENTE": "MICHELLE_CAROLINE_BETONI", "ACAO": "REALIZAR_SEGUNDA_VISITA", "RAZAO_SOCIAL": "OLD_BAR_E_RESTAURANTE_LTDA_-_JHONYS__BAR_E_RESTAURANTE", "ENDERECO": "RUA_DONA_VERIDIANA_106_VILA_BUARQUE_SAO_PAULO", "CIDADE": "SAO_PAULO", "LATITUDE": -23.5407738, "LONGITUDE": -46.650659 }, "geometry": { "type": "Point", "coordinates": [ -46.650659, -23.5407738 ] } },
{ "type": "Feature", "properties": { "CNPJ": 49849818000172, "AGENTE": "MICHELLE_CAROLINE_BETONI", "ACAO": "REALIZAR_SEGUNDA_VISITA", "RAZAO_SOCIAL": "49.849.818_DEBORAH_ALVES_RIVELLES_-_ART_DA_DEH", "ENDERECO": "RUA_DOS_CURUPIAS_100_JABAQUARA_SAO_PAULO", "CIDADE": "SAO_PAULO", "LATITUDE": -23.5447136, "LONGITUDE": -46.6390016 }, "geometry": { "type": "Point", "coordinates": [ -46.6390016, -23.5447136 ] } },
{ "type": "Feature", "properties": { "CNPJ": 53042417000183, "AGENTE": "MICHELLE_CAROLINE_BETONI", "ACAO": "REALIZAR_SEGUNDA_VISITA", "RAZAO_SOCIAL": "ZOE_WELLNESS_COMERCIO_DE_PRODUTOS_SAUDAVEIS_LTDA_-_ZOE_WELLNESS", "ENDERECO": "RUA_DOS_PINHEIROS_801_PINHEIROS_SAO_PAULO", "CIDADE": "SAO_PAULO", "LATITUDE": -23.5162775, "LONGITUDE": -46.6368544 }, "geometry": { "type": "Point", "coordinates": [ -46.6368544, -23.5162775 ] } },
{ "type": "Feature", "properties": { "CNPJ": 32313701000177, "AGENTE": "MICHELLE_CAROLINE_BETONI", "ACAO": "REALIZAR_SEGUNDA_VISITA", "RAZAO_SOCIAL": "32.313.701_JOSE_LUIZ_MARTINS_-_SANTA_FOME", "ENDERECO": "RUA_DOUTOR_CESARIO_MOTA_JUNIOR_179_VILA_BUARQUE_SAO_PAULO", "CIDADE": "SAO_PAULO", "LATITUDE": -23.5433397, "LONGITUDE": -46.6488571 }, "geometry": { "type": "Point", "coordinates": [ -46.6488571, -23.5433397 ] } },
{ "type": "Feature", "properties": { "CNPJ": 5077659000160, "AGENTE": "MICHELLE_CAROLINE_BETONI", "ACAO": "REALIZAR_SEGUNDA_VISITA", "RAZAO_SOCIAL": "ORTOPARTES_PRODUTOS_ORTOPEDICOS_LTDA_-_ORTOPARTES", "ENDERECO": "RUA_DOUTOR_CESARIO_MOTA_JUNIOR_187_VILA_BUARQUE_SAO_PAULO", "CIDADE": "SAO_PAULO", "LATITUDE": -23.5434669, "LONGITUDE": -46.648863 }, "geometry": { "type": "Point", "coordinates": [ -46.648863, -23.5434669 ] } },
{ "type": "Feature", "properties": { "CNPJ": 37449225000130, "AGENTE": "MICHELLE_CAROLINE_BETONI", "ACAO": "REALIZAR_SEGUNDA_VISITA", "RAZAO_SOCIAL": "ME_FRUTA_LTDA_-_ME_FRUTA", "ENDERECO": "RUA_DOUTOR_CESARIO_MOTA_JUNIOR_199_VILA_BUARQUE_SAO_PAULO", "CIDADE": "SAO_PAULO", "LATITUDE": -23.5435477, "LONGITUDE": -46.6488069 }, "geometry": { "type": "Point", "coordinates": [ -46.6488069, -23.5435477 ] } },
{ "type": "Feature", "properties": { "CNPJ": 59889682000188, "AGENTE": "MICHELLE_CAROLINE_BETONI", "ACAO": "REALIZAR_SEGUNDA_VISITA", "RAZAO_SOCIAL": "LANCHONETE_PRINCESINHA_DA_ITU_LTDA_-_LANCHONETE_PRINCESINHA_DA_ITU", "ENDERECO": "RUA_DOUTOR_CESARIO_MOTA_JUNIOR_242_VILA_BUARQUE_SAO_PAULO", "CIDADE": "SAO_PAULO", "LATITUDE": -23.5439825, "LONGITUDE": -46.6489429 }, "geometry": { "type": "Point", "coordinates": [ -46.6489429, -23.5439825 ] } },
{ "type": "Feature", "properties": { "CNPJ": 28217039000184, "AGENTE": "MICHELLE_CAROLINE_BETONI", "ACAO": "REALIZAR_SEGUNDA_VISITA", "RAZAO_SOCIAL": "DK_LANCHES_LTDA_-_DK_BAR_E_RESTAURANTE", "ENDERECO": "RUA_DOUTOR_CESARIO_MOTA_JUNIOR_243_VILA_BUARQUE_SAO_PAULO", "CIDADE": "SAO_PAULO", "LATITUDE": -23.5438155, "LONGITUDE": -46.6487899 }, "geometry": { "type": "Point", "coordinates": [ -46.6487899, -23.5438155 ] } },
{ "type": "Feature", "properties": { "CNPJ": 60448533000162, "AGENTE": "MICHELLE_CAROLINE_BETONI", "ACAO": "REALIZAR_SEGUNDA_VISITA", "RAZAO_SOCIAL": "VICTOR_COSTA_SANTOS_CABELEIREIROS_-_ABEL_CABELEIREIROS", "ENDERECO": "RUA_DOUTOR_CESARIO_MOTA_JUNIOR_256_VILA_BUARQUE_SAO_PAULO", "CIDADE": "SAO_PAULO", "LATITUDE": -23.5440297, "LONGITUDE": -46.6489627 }, "geometry": { "type": "Point", "coordinates": [ -46.6489627, -23.5440297 ] } },
{ "type": "Feature", "properties": { "CNPJ": 26876263000152, "AGENTE": "MICHELLE_CAROLINE_BETONI", "ACAO": "REALIZAR_SEGUNDA_VISITA", "RAZAO_SOCIAL": "SEBO_CLEPSIDRA_COMERCIO_DE_LIVROS_LTDA_-_SEBO_CLEPSIDRA", "ENDERECO": "RUA_DOUTOR_CESARIO_MOTA_JUNIOR_296_VILA_BUARQUE_SAO_PAULO", "CIDADE": "SAO_PAULO", "LATITUDE": -23.5444012, "LONGITUDE": -46.6489318 }, "geometry": { "type": "Point", "coordinates": [ -46.6489318, -23.5444012 ] } },
{ "type": "Feature", "properties": { "CNPJ": 52911951000116, "AGENTE": "MICHELLE_CAROLINE_BETONI", "ACAO": "REALIZAR_SEGUNDA_VISITA", "RAZAO_SOCIAL": "52.911.951_ANA_PAULA_APARECIDA_DE_SOUZA_-_PAPOULA_JOIAS_E_BIJOUTERIAS", "ENDERECO": "RUA_DOUTOR_DIB_GEBARA_211_JARDIM_IRACEMA_SAO_PAULO", "CIDADE": "SAO_PAULO", "LATITUDE": -23.5447271, "LONGITUDE": -46.6389572 }, "geometry": { "type": "Point", "coordinates": [ -46.6389572, -23.5447271 ] } },
{ "type": "Feature", "properties": { "CNPJ": 53924487000165, "AGENTE": "MICHELLE_CAROLINE_BETONI", "ACAO": "REALIZAR_SEGUNDA_VISITA", "RAZAO_SOCIAL": "53.924.487_ELANDY_ENIRA_NASCIMENTO_DA_SILVA_-_LANDY_IMPORTADOS", "ENDERECO": "RUA_DOUTOR_SERGIO_MEIRA_280_BARRA_FUNDA_SAO_PAULO", "CIDADE": "SAO_PAULO", "LATITUDE": -23.5444456, "LONGITUDE": -46.6390339 }, "geometry": { "type": "Point", "coordinates": [ -46.6390339, -23.5444456 ] } },
{ "type": "Feature", "properties": { "CNPJ": 2607391000132, "AGENTE": "MICHELLE_CAROLINE_BETONI", "ACAO": "REALIZAR_SEGUNDA_VISITA", "RAZAO_SOCIAL": "ROSES_PET_SHOP_&_FLOWERS_COMERCIAL_LTDA_-_ROSES_PET_SHOP", "ENDERECO": "RUA_DOUTOR_VILA_NOVA_142_VILA_BUARQUE_SAO_PAULO", "CIDADE": "SAO_PAULO", "LATITUDE": -23.5450032, "LONGITUDE": -46.6504635 }, "geometry": { "type": "Point", "coordinates": [ -46.6504635, -23.5450032 ] } },
{ "type": "Feature", "properties": { "CNPJ": 60615700000112, "AGENTE": "MICHELLE_CAROLINE_BETONI", "ACAO": "REALIZAR_SEGUNDA_VISITA", "RAZAO_SOCIAL": "NOBRE_PALADAR_RESTAURANTE_LTDA_-_NOBRE_PALADAR", "ENDERECO": "RUA_DOUTOR_VILA_NOVA_235_VILA_BUARQUE_SAO_PAULO", "CIDADE": "SAO_PAULO", "LATITUDE": -23.5458421, "LONGITUDE": -46.6503047 }, "geometry": { "type": "Point", "coordinates": [ -46.6503047, -23.5458421 ] } },
{ "type": "Feature", "properties": { "CNPJ": 24948771000173, "AGENTE": "MICHELLE_CAROLINE_BETONI", "ACAO": "REALIZAR_SEGUNDA_VISITA", "RAZAO_SOCIAL": "BARBEARIA_EXPRESS_LTDA._-_BARBEARIA_EXPRESS", "ENDERECO": "RUA_DOUTOR_VILA_NOVA_304_VILA_BUARQUE_SAO_PAULO", "CIDADE": "SAO_PAULO", "LATITUDE": -23.5465115, "LONGITUDE": -46.6503637 }, "geometry": { "type": "Point", "coordinates": [ -46.6503637, -23.5465115 ] } },
{ "type": "Feature", "properties": { "CNPJ": 28644301000339, "AGENTE": "MICHELLE_CAROLINE_BETONI", "ACAO": "REALIZAR_SEGUNDA_VISITA", "RAZAO_SOCIAL": "BORGER_BURGER_LTDA_-_BORGES_BURGER", "ENDERECO": "RUA_DOUTOR_VILA_NOVA_319_VILA_BUARQUE_SAO_PAULO", "CIDADE": "SAO_PAULO", "LATITUDE": -23.5466447, "LONGITUDE": -46.6503285 }, "geometry": { "type": "Point", "coordinates": [ -46.6503285, -23.5466447 ] } },
{ "type": "Feature", "properties": { "CNPJ": 32751662000190, "AGENTE": "MICHELLE_CAROLINE_BETONI", "ACAO": "REALIZAR_SEGUNDA_VISITA", "RAZAO_SOCIAL": "ESA_-_ESCOLA_DE_SABERES_ANCESTRAIS_LTDA_-_AROGYA", "ENDERECO": "RUA_DUARTE_DE_CARVALHO_131_TATUAPE_SAO_PAULO", "CIDADE": "SAO_PAULO", "LATITUDE": -23.5164113, "LONGITUDE": -46.6362571 }, "geometry": { "type": "Point", "coordinates": [ -46.6362571, -23.5164113 ] } },
{ "type": "Feature", "properties": { "CNPJ": 32514957000142, "AGENTE": "MICHELLE_CAROLINE_BETONI", "ACAO": "REALIZAR_SEGUNDA_VISITA", "RAZAO_SOCIAL": "IAMANI_COMERCIO_DE_PRODUTOS_NATURAIS_LTDA_-_IAMANI", "ENDERECO": "RUA_FERREIRA_DE_ARAUJO_1029_PINHEIROS_SAO_PAULO", "CIDADE": "SAO_PAULO", "LATITUDE": -23.5167004, "LONGITUDE": -46.6363125 }, "geometry": { "type": "Point", "coordinates": [ -46.6363125, -23.5167004 ] } },
{ "type": "Feature", "properties": { "CNPJ": 44220326000108, "AGENTE": "MICHELLE_CAROLINE_BETONI", "ACAO": "REALIZAR_SEGUNDA_VISITA", "RAZAO_SOCIAL": "D-LIFES_COMERCIO_DE_BEBIDAS_LTDA_-_LIFE_STRONG", "ENDERECO": "RUA_FERRUCIO_BERTAGLIA_100_JARDIM_HELENA_AMERICANA", "CIDADE": "AMERICANA", "LATITUDE": -23.5162763, "LONGITUDE": -46.6368335 }, "geometry": { "type": "Point", "coordinates": [ -46.6368335, -23.5162763 ] } },
{ "type": "Feature", "properties": { "CNPJ": 3895264000149, "AGENTE": "MICHELLE_CAROLINE_BETONI", "ACAO": "REALIZAR_SEGUNDA_VISITA", "RAZAO_SOCIAL": "FORTUNATO_MERCADO_DAS_VARIEDADES_LTDA_-_FORTUNATO_MERCADO_E_VARIEDADES", "ENDERECO": "RUA_FORTUNATO_24_VILA_BUARQUE_SAO_PAULO", "CIDADE": "SAO_PAULO", "LATITUDE": -23.539003, "LONGITUDE": -46.6514058 }, "geometry": { "type": "Point", "coordinates": [ -46.6514058, -23.539003 ] } },
{ "type": "Feature", "properties": { "CNPJ": 13273333000136, "AGENTE": "MICHELLE_CAROLINE_BETONI", "ACAO": "REALIZAR_SEGUNDA_VISITA", "RAZAO_SOCIAL": "CLARICE_BLEIVAS_-_LEVANA_RESTAURANTE", "ENDERECO": "RUA_FORTUNATO_33_HIGIENOPOLIS_SAO_PAULO", "CIDADE": "SAO_PAULO", "LATITUDE": -23.5392072, "LONGITUDE": -46.6513754 }, "geometry": { "type": "Point", "coordinates": [ -46.6513754, -23.5392072 ] } },
{ "type": "Feature", "properties": { "CNPJ": 25034017000190, "AGENTE": "MICHELLE_CAROLINE_BETONI", "ACAO": "REALIZAR_SEGUNDA_VISITA", "RAZAO_SOCIAL": "BRUNIAN_COMERCIO_DE_MATERIAL_DE_LIMPEZA_E_DESCARTAVEIS_LTDA_-_BRUNIAN_MATERIAL_DE_LIMPEZA", "ENDERECO": "RUA_FORTUNATO_40_VILA_BUARQUE_SAO_PAULO", "CIDADE": "SAO_PAULO", "LATITUDE": -23.5392498, "LONGITUDE": -46.6514476 }, "geometry": { "type": "Point", "coordinates": [ -46.6514476, -23.5392498 ] } },
{ "type": "Feature", "properties": { "CNPJ": 45841560000107, "AGENTE": "MICHELLE_CAROLINE_BETONI", "ACAO": "REALIZAR_SEGUNDA_VISITA", "RAZAO_SOCIAL": "45.841.560_ROQUE_ARAUJO_DE_FRANCA_-_ROQUE_ARAUJO_DE_FRANCA", "ENDERECO": "RUA_FRANCISCA_MIQUELINA_355_BELA_VISTA_SAO_PAULO", "CIDADE": "SAO_PAULO", "LATITUDE": -23.5445507, "LONGITUDE": -46.639048 }, "geometry": { "type": "Point", "coordinates": [ -46.639048, -23.5445507 ] } },
{ "type": "Feature", "properties": { "CNPJ": 45469599000145, "AGENTE": "MICHELLE_CAROLINE_BETONI", "ACAO": "REALIZAR_SEGUNDA_VISITA", "RAZAO_SOCIAL": "ADRIANA_DE_PAULA_10654393850_-_GRIFE_MULHER_PRETA", "ENDERECO": "RUA_FRANCISCO_DA_CUNHA_MENEZES_975_JARDIM_SANTA_LUCRECIA_SAO_PAULO", "CIDADE": "SAO_PAULO", "LATITUDE": -23.5447161, "LONGITUDE": -46.6389944 }, "geometry": { "type": "Point", "coordinates": [ -46.6389944, -23.5447161 ] } },
{ "type": "Feature", "properties": { "CNPJ": 51538351000191, "AGENTE": "MICHELLE_CAROLINE_BETONI", "ACAO": "REALIZAR_SEGUNDA_VISITA", "RAZAO_SOCIAL": "TIS_MARKETING_E_PROPAGANDA_LTDA_-_ACQUA.TIS", "ENDERECO": "RUA_FRANCISCO_TRAMONTANO_101_REAL_PARK_SAO_PAULO", "CIDADE": "SAO_PAULO", "LATITUDE": -23.5168424, "LONGITUDE": -46.6365646 }, "geometry": { "type": "Point", "coordinates": [ -46.6365646, -23.5168424 ] } },
{ "type": "Feature", "properties": { "CNPJ": 39920885000182, "AGENTE": "MICHELLE_CAROLINE_BETONI", "ACAO": "REALIZAR_SEGUNDA_VISITA", "RAZAO_SOCIAL": "KIA_FARMA_COMERCIO_DE_PRODUTOS_FARMACEUTICOS_LTDA_-_BEM_ESTAR_FARMA", "ENDERECO": "RUA_FREDERICO_ABRANCHES_331_VILA_BUARQUE_SAO_PAULO", "CIDADE": "SAO_PAULO", "LATITUDE": -23.5394415, "LONGITUDE": -46.6505434 }, "geometry": { "type": "Point", "coordinates": [ -46.6505434, -23.5394415 ] } },
{ "type": "Feature", "properties": { "CNPJ": 5785437000100, "AGENTE": "MICHELLE_CAROLINE_BETONI", "ACAO": "REALIZAR_SEGUNDA_VISITA", "RAZAO_SOCIAL": "SANTA_CECILIA_COMERCIO_DE_PRODUTOS_DE_UTILIDADES_DOMESTICAS_LTDA_-_SHOPPING_DO_REAL", "ENDERECO": "RUA_FREDERICO_ABRANCHES_349_CONSOLACAO_SAO_PAULO", "CIDADE": "SAO_PAULO", "LATITUDE": -23.5396501, "LONGITUDE": -46.6508087 }, "geometry": { "type": "Point", "coordinates": [ -46.6508087, -23.5396501 ] } },
{ "type": "Feature", "properties": { "CNPJ": 35296947000176, "AGENTE": "MICHELLE_CAROLINE_BETONI", "ACAO": "REALIZAR_SEGUNDA_VISITA", "RAZAO_SOCIAL": "BAR_E_LANCHONETE_OLD_GOLD_LTDA_-_LANCHONETE_OLD_GOLD", "ENDERECO": "RUA_FREDERICO_ABRANCHES_417_VILA_BUARQUE_SAO_PAULO", "CIDADE": "SAO_PAULO", "LATITUDE": -23.53904, "LONGITUDE": -46.6513105 }, "geometry": { "type": "Point", "coordinates": [ -46.6513105, -23.53904 ] } },
{ "type": "Feature", "properties": { "CNPJ": 30427943000166, "AGENTE": "MICHELLE_CAROLINE_BETONI", "ACAO": "REALIZAR_SEGUNDA_VISITA", "RAZAO_SOCIAL": "JEAN_CARLOS_DIAS_33518115863_-_GOUDOS_TEC", "ENDERECO": "RUA_GABUS_MENDES_29_CENTRO_SAO_PAULO", "CIDADE": "SAO_PAULO", "LATITUDE": -23.5447141, "LONGITUDE": -46.6425371 }, "geometry": { "type": "Point", "coordinates": [ -46.6425371, -23.5447141 ] } },
{ "type": "Feature", "properties": { "CNPJ": 60566189000106, "AGENTE": "MICHELLE_CAROLINE_BETONI", "ACAO": "REALIZAR_SEGUNDA_VISITA", "RAZAO_SOCIAL": "LANCHES_PUERTA_DEL_SOL_LTDA_-_LANCHES_PUERTA_DEL_SOL", "ENDERECO": "RUA_GENERAL_JARDIM_436_VILA_BUARQUE_SAO_PAULO", "CIDADE": "SAO_PAULO", "LATITUDE": -23.5446237, "LONGITUDE": -46.648909 }, "geometry": { "type": "Point", "coordinates": [ -46.648909, -23.5446237 ] } },
{ "type": "Feature", "properties": { "CNPJ": 19772435000182, "AGENTE": "MICHELLE_CAROLINE_BETONI", "ACAO": "REALIZAR_SEGUNDA_VISITA", "RAZAO_SOCIAL": "GABRIELA_CRISTINA_MUSS_07682404680_-_DOUTORA_MUSS_ESTETICA_CIENTIFICA", "ENDERECO": "RUA_GOMES_DE_CARVALHO_1356_VILA_OLIMPIA_SAO_PAULO", "CIDADE": "SAO_PAULO", "LATITUDE": -23.5447467, "LONGITUDE": -46.6389463 }, "geometry": { "type": "Point", "coordinates": [ -46.6389463, -23.5447467 ] } },
{ "type": "Feature", "properties": { "CNPJ": 13462110000117, "AGENTE": "MICHELLE_CAROLINE_BETONI", "ACAO": "REALIZAR_SEGUNDA_VISITA", "RAZAO_SOCIAL": "GO_GREEN_DISTRIBUIDORA_DE_HORTIFRUTI_LTDA_-_GO_GREEN", "ENDERECO": "RUA_HASSIB_MOFARREJ_1101_VILA_LEOPOLDINA_SAO_PAULO", "CIDADE": "SAO_PAULO", "LATITUDE": -23.516545, "LONGITUDE": -46.6372992 }, "geometry": { "type": "Point", "coordinates": [ -46.6372992, -23.516545 ] } },
{ "type": "Feature", "properties": { "CNPJ": 57015787000182, "AGENTE": "MICHELLE_CAROLINE_BETONI", "ACAO": "REALIZAR_SEGUNDA_VISITA", "RAZAO_SOCIAL": "57.015.787_CLEIDIMAR_DE_TOLEDO_BERTO_DE_OLIVEIRA_-_CLEIDE_AR_DE_TOLEDO_BERTO_DE_OLIVEIRA", "ENDERECO": "RUA_HELVETIA_539_CAMPOS_ELISIOS_SAO_PAULO", "CIDADE": "SAO_PAULO", "LATITUDE": -23.5446356, "LONGITUDE": -46.6390197 }, "geometry": { "type": "Point", "coordinates": [ -46.6390197, -23.5446356 ] } },
{ "type": "Feature", "properties": { "CNPJ": 6219762000160, "AGENTE": "MICHELLE_CAROLINE_BETONI", "ACAO": "REALIZAR_SEGUNDA_VISITA", "RAZAO_SOCIAL": "OTANIEL_CARDOSO_DA_SILVA_MECANICA_-_RETANCAR", "ENDERECO": "RUA_HELVETIA_656_CAMPOS_ELISEOS_SAO_PAULO", "CIDADE": "SAO_PAULO", "LATITUDE": -23.5363601, "LONGITUDE": -46.6465018 }, "geometry": { "type": "Point", "coordinates": [ -46.6465018, -23.5363601 ] } },
{ "type": "Feature", "properties": { "CNPJ": 50144680000195, "AGENTE": "MICHELLE_CAROLINE_BETONI", "ACAO": "REALIZAR_SEGUNDA_VISITA", "RAZAO_SOCIAL": "50.144.680_HELIO_MISAEL_TEODORO_-_HELIO__MISAEL_TEODORO", "ENDERECO": "RUA_HERCULANO_DE_FREITAS_47_BELA_VISTA_SAO_PAULO", "CIDADE": "SAO_PAULO", "LATITUDE": -23.5446346, "LONGITUDE": -46.6390465 }, "geometry": { "type": "Point", "coordinates": [ -46.6390465, -23.5446346 ] } },
{ "type": "Feature", "properties": { "CNPJ": 47722011000149, "AGENTE": "MICHELLE_CAROLINE_BETONI", "ACAO": "REALIZAR_SEGUNDA_VISITA", "RAZAO_SOCIAL": "COMERCIAL_PET_FRIENDLY_SERVICOS_DE_BANHO_E_TOSA_LTDA_-_ESPACO_PET_FRIENDLY", "ENDERECO": "RUA_IMACULADA_CONCEICAO_30_VILA_BUARQUE_SAO_PAULO", "CIDADE": "SAO_PAULO", "LATITUDE": -23.5391925, "LONGITUDE": -46.652662 }, "geometry": { "type": "Point", "coordinates": [ -46.652662, -23.5391925 ] } },
{ "type": "Feature", "properties": { "CNPJ": 12118910000152, "AGENTE": "MICHELLE_CAROLINE_BETONI", "ACAO": "REALIZAR_SEGUNDA_VISITA", "RAZAO_SOCIAL": "JOSEFA_SILVA_DISTEFANO_70650284453_-_BRECHO_CENARIO", "ENDERECO": "RUA_JAGUARIBE_200_CONSOLACAO_SAO_PAULO", "CIDADE": "SAO_PAULO", "LATITUDE": -23.5415479, "LONGITUDE": -46.6497811 }, "geometry": { "type": "Point", "coordinates": [ -46.6497811, -23.5415479 ] } },
{ "type": "Feature", "properties": { "CNPJ": 15546307000160, "AGENTE": "MICHELLE_CAROLINE_BETONI", "ACAO": "REALIZAR_SEGUNDA_VISITA", "RAZAO_SOCIAL": "PRISCILA_RODRIGUES_DE_GINO_-_SEMPRE_CASEIRO", "ENDERECO": "RUA_JOHN_AUDUBON_35_PARQUE_BRISTOL_SAO_PAULO", "CIDADE": "SAO_PAULO", "LATITUDE": -23.5447164, "LONGITUDE": -46.6389322 }, "geometry": { "type": "Point", "coordinates": [ -46.6389322, -23.5447164 ] } },
{ "type": "Feature", "properties": { "CNPJ": 32997113000108, "AGENTE": "MICHELLE_CAROLINE_BETONI", "ACAO": "REALIZAR_SEGUNDA_VISITA", "RAZAO_SOCIAL": "GRAJABEER_PUB_BAR_LTDA_-_GRAJABEER_PUB_BAR", "ENDERECO": "RUA_JOSE_BONIFACIO_FILHO_49_JARDIM_SAO_BENEDITO_SAO_PAULO", "CIDADE": "SAO_PAULO", "LATITUDE": -23.5166737, "LONGITUDE": -46.6362038 }, "geometry": { "type": "Point", "coordinates": [ -46.6362038, -23.5166737 ] } },
{ "type": "Feature", "properties": { "CNPJ": 30687816000104, "AGENTE": "MICHELLE_CAROLINE_BETONI", "ACAO": "REALIZAR_SEGUNDA_VISITA", "RAZAO_SOCIAL": "MARCOS_PAULO_MURANO_15776066808_-_NENE__FESTAS", "ENDERECO": "RUA_JOSE_DA_ROCHA_VITA_192_CHACARA_MAFALDA_SAO_PAULO", "CIDADE": "SAO_PAULO", "LATITUDE": -23.5446393, "LONGITUDE": -46.6390288 }, "geometry": { "type": "Point", "coordinates": [ -46.6390288, -23.5446393 ] } },
{ "type": "Feature", "properties": { "CNPJ": 16706430000163, "AGENTE": "MICHELLE_CAROLINE_BETONI", "ACAO": "REALIZAR_SEGUNDA_VISITA", "RAZAO_SOCIAL": "MARIA_CRISTINA_PERIS_PINTO_29811082472_-_NUTRI_PANE", "ENDERECO": "RUA_JULIO_CESAR_DA_SILVA_264_BRAS_SAO_PAULO", "CIDADE": "SAO_PAULO", "LATITUDE": -23.5446649, "LONGITUDE": -46.6390136 }, "geometry": { "type": "Point", "coordinates": [ -46.6390136, -23.5446649 ] } },
{ "type": "Feature", "properties": { "CNPJ": 50052953000171, "AGENTE": "MICHELLE_CAROLINE_BETONI", "ACAO": "REALIZAR_SEGUNDA_VISITA", "RAZAO_SOCIAL": "ARK_AGRONEGOCIOS_PRODUTOS_E_SERVICOS_DE_INFRAESTRUTURA_E_AUTOMACAO_EM_RODOVIAS_ESTACIONAMENTOS_E_CONTROLE_DE_ACESSO_LTDA_-_PINK_LIMAO", "ENDERECO": "RUA_LABATUT_727_IPIRANGA_SAO_PAULO", "CIDADE": "SAO_PAULO", "LATITUDE": -23.5935429, "LONGITUDE": -46.5996368 }, "geometry": { "type": "Point", "coordinates": [ -46.5996368, -23.5935429 ] } },
{ "type": "Feature", "properties": { "CNPJ": 43894252000114, "AGENTE": "MICHELLE_CAROLINE_BETONI", "ACAO": "REALIZAR_SEGUNDA_VISITA", "RAZAO_SOCIAL": "CLEMENCAR_AUTO_MECANICA_LTDA_-_CLEMENCAR", "ENDERECO": "RUA_LIMA_E_SILVA_865_IPIRANGA_SAO_PAULO", "CIDADE": "SAO_PAULO", "LATITUDE": -23.5945337, "LONGITUDE": -46.5978607 }, "geometry": { "type": "Point", "coordinates": [ -46.5978607, -23.5945337 ] } },
{ "type": "Feature", "properties": { "CNPJ": 275781000127, "AGENTE": "MICHELLE_CAROLINE_BETONI", "ACAO": "REALIZAR_SEGUNDA_VISITA", "RAZAO_SOCIAL": "CELSO_TORETA_ARTESANATO_-_ARTESANATO_BRASILEIRO", "ENDERECO": "RUA_LINO_COUTINHO_1285_IPIRANGA_SAO_PAULO", "CIDADE": "SAO_PAULO", "LATITUDE": -23.5948733, "LONGITUDE": -46.6022217 }, "geometry": { "type": "Point", "coordinates": [ -46.6022217, -23.5948733 ] } },
{ "type": "Feature", "properties": { "CNPJ": 55497593000135, "AGENTE": "MICHELLE_CAROLINE_BETONI", "ACAO": "REALIZAR_SEGUNDA_VISITA", "RAZAO_SOCIAL": "55.497.593_JOSE_MIKAEL_FLORENCIO_ALVES_-_MARCENARIA_ARTES_FLORENCIO", "ENDERECO": "RUA_LINO_COUTINHO_1868_IPIRANGA_SAO_PAULO", "CIDADE": "SAO_PAULO", "LATITUDE": -23.6015817, "LONGITUDE": -46.6020917 }, "geometry": { "type": "Point", "coordinates": [ -46.6020917, -23.6015817 ] } },
{ "type": "Feature", "properties": { "CNPJ": 43874215000144, "AGENTE": "MICHELLE_CAROLINE_BETONI", "ACAO": "REALIZAR_SEGUNDA_VISITA", "RAZAO_SOCIAL": "OTICA_ACAZ_SP_LTDA_-_OTICA_ACAZ", "ENDERECO": "RUA_LINO_COUTINHO_950_IPIRANGA_SAO_PAULO", "CIDADE": "SAO_PAULO", "LATITUDE": -23.5917517, "LONGITUDE": -46.6030417 }, "geometry": { "type": "Point", "coordinates": [ -46.6030417, -23.5917517 ] } },
{ "type": "Feature", "properties": { "CNPJ": 27855627000180, "AGENTE": "MICHELLE_CAROLINE_BETONI", "ACAO": "REALIZAR_SEGUNDA_VISITA", "RAZAO_SOCIAL": "DANIELLA_CORREA_ANTUNES_36869156859_-_QUITUTERIA_ARTESANAL", "ENDERECO": "RUA_MAGIN_FARINAS_LOPEZ_141_MACEDO_GUARULHOS", "CIDADE": "GUARULHOS", "LATITUDE": -23.5160365, "LONGITUDE": -46.6362553 }, "geometry": { "type": "Point", "coordinates": [ -46.6362553, -23.5160365 ] } },
{ "type": "Feature", "properties": { "CNPJ": 17035942000108, "AGENTE": "MICHELLE_CAROLINE_BETONI", "ACAO": "REALIZAR_SEGUNDA_VISITA", "RAZAO_SOCIAL": "JFM_CONSTRUCOES_E_SERVICOS_LTDA_-_LANCHONETE_NOVO_ESTILO", "ENDERECO": "RUA_MAJOR_SERTORIO_458_VILA_BUARQUE_SAO_PAULO", "CIDADE": "SAO_PAULO", "LATITUDE": -23.5453731, "LONGITUDE": -46.648464 }, "geometry": { "type": "Point", "coordinates": [ -46.648464, -23.5453731 ] } },
{ "type": "Feature", "properties": { "CNPJ": 26276273000157, "AGENTE": "MICHELLE_CAROLINE_BETONI", "ACAO": "REALIZAR_SEGUNDA_VISITA", "RAZAO_SOCIAL": "SEBO_LUIS_BORGES_LTDA_-_SEBO_LUIS_BORGES", "ENDERECO": "RUA_MARCONI_118_REPUBLICA_SAO_PAULO", "CIDADE": "SAO_PAULO", "LATITUDE": -23.5454791, "LONGITUDE": -46.6401514 }, "geometry": { "type": "Point", "coordinates": [ -46.6401514, -23.5454791 ] } },
{ "type": "Feature", "properties": { "CNPJ": 55648949000194, "AGENTE": "MICHELLE_CAROLINE_BETONI", "ACAO": "REALIZAR_SEGUNDA_VISITA", "RAZAO_SOCIAL": "REPUBLICA_COMERCIO_DE_PRODUTOS_OTICOS_LTDA_-_OTICAS_LELLI", "ENDERECO": "RUA_MARCONI_54_REPUBLICA_SAO_PAULO", "CIDADE": "SAO_PAULO", "LATITUDE": -23.5458948, "LONGITUDE": -46.6407718 }, "geometry": { "type": "Point", "coordinates": [ -46.6407718, -23.5458948 ] } },
{ "type": "Feature", "properties": { "CNPJ": 10454661000140, "AGENTE": "MICHELLE_CAROLINE_BETONI", "ACAO": "REALIZAR_SEGUNDA_VISITA", "RAZAO_SOCIAL": "EMPORIO_GALAN_COMERCIO_DE_ALIMENTOS_LTDA._-_EMPORIO_GALAN", "ENDERECO": "RUA_MARCONI_79_REPUBLICA_SAO_PAULO", "CIDADE": "SAO_PAULO", "LATITUDE": -23.5456768, "LONGITUDE": -46.6404932 }, "geometry": { "type": "Point", "coordinates": [ -46.6404932, -23.5456768 ] } },
{ "type": "Feature", "properties": { "CNPJ": 24185328000198, "AGENTE": "MICHELLE_CAROLINE_BETONI", "ACAO": "REALIZAR_SEGUNDA_VISITA", "RAZAO_SOCIAL": "R_PASLAR_LEAL_COMERCIO_DE_ALIMENTACAO_-_PAULISTAS_RESTAURANTE", "ENDERECO": "RUA_MARIA_ANTONIA_140_VILA_BUARQUE_SAO_PAULO", "CIDADE": "SAO_PAULO", "LATITUDE": -23.5468897, "LONGITUDE": -46.6497547 }, "geometry": { "type": "Point", "coordinates": [ -46.6497547, -23.5468897 ] } },
{ "type": "Feature", "properties": { "CNPJ": 47687834000180, "AGENTE": "MICHELLE_CAROLINE_BETONI", "ACAO": "REALIZAR_SEGUNDA_VISITA", "RAZAO_SOCIAL": "RESTAURANTE_TERRA_MINEIRA_LTDA_-_RESTAURANTE_TERRA_MINEIRA", "ENDERECO": "RUA_MARIA_ANTONIA_140_VILA_BUARQUE_SAO_PAULO", "CIDADE": "SAO_PAULO", "LATITUDE": -23.5469344, "LONGITUDE": -46.6498546 }, "geometry": { "type": "Point", "coordinates": [ -46.6498546, -23.5469344 ] } },
{ "type": "Feature", "properties": { "CNPJ": 29845760000181, "AGENTE": "MICHELLE_CAROLINE_BETONI", "ACAO": "REALIZAR_SEGUNDA_VISITA", "RAZAO_SOCIAL": "BERTOLDO_E_VASCONCELLOS_RESTAURANTE_LTDA_-_SANTA_GULA_RESTAURANTE", "ENDERECO": "RUA_MARIA_ANTONIA_140_VILA_BUARQUE_SAO_PAULO", "CIDADE": "SAO_PAULO", "LATITUDE": -23.5469372, "LONGITUDE": -46.6498007 }, "geometry": { "type": "Point", "coordinates": [ -46.6498007, -23.5469372 ] } },
{ "type": "Feature", "properties": { "CNPJ": 51955711000150, "AGENTE": "MICHELLE_CAROLINE_BETONI", "ACAO": "REALIZAR_SEGUNDA_VISITA", "RAZAO_SOCIAL": "HAMBURG_LTDA_-_HAMBURG", "ENDERECO": "RUA_MARIA_ANTONIA_376_HIGIENOPOLIS_SAO_PAULO", "CIDADE": "SAO_PAULO", "LATITUDE": -23.5456908, "LONGITUDE": -46.6516746 }, "geometry": { "type": "Point", "coordinates": [ -46.6516746, -23.5456908 ] } },
{ "type": "Feature", "properties": { "CNPJ": 40141054000191, "AGENTE": "MICHELLE_CAROLINE_BETONI", "ACAO": "REALIZAR_SEGUNDA_VISITA", "RAZAO_SOCIAL": "HOTEL_DAN_SP_INN_EXPRESS_LTDA_-_HOTEL_DAN_INN_EXPRESS", "ENDERECO": "RUA_MARIA_ANTONIA_40_VILA_BUARQUE_SAO_PAULO", "CIDADE": "SAO_PAULO", "LATITUDE": -23.5476981, "LONGITUDE": -46.6491069 }, "geometry": { "type": "Point", "coordinates": [ -46.6491069, -23.5476981 ] } },
{ "type": "Feature", "properties": { "CNPJ": 10823343000100, "AGENTE": "MICHELLE_CAROLINE_BETONI", "ACAO": "REALIZAR_SEGUNDA_VISITA", "RAZAO_SOCIAL": "CONSOLACAO_CHIC_BAR_E_LANCHONETE_LTDA_-_BAR_DO_INDIO", "ENDERECO": "RUA_MARIA_ANTONIA_49_VILA_BUARQUE_SAO_PAULO", "CIDADE": "SAO_PAULO", "LATITUDE": -23.5477745, "LONGITUDE": -46.6492514 }, "geometry": { "type": "Point", "coordinates": [ -46.6492514, -23.5477745 ] } },
{ "type": "Feature", "properties": { "CNPJ": 30789836001150, "AGENTE": "MICHELLE_CAROLINE_BETONI", "ACAO": "REALIZAR_SEGUNDA_VISITA", "RAZAO_SOCIAL": "BLACK_ZONE_TRADE_LTDA_-_BLACK_ZONE", "ENDERECO": "RUA_MARIA_ANTONIA_80_VILA_BUARQUE_SAO_PAULO", "CIDADE": "SAO_PAULO", "LATITUDE": -23.547531, "LONGITUDE": -46.6494644 }, "geometry": { "type": "Point", "coordinates": [ -46.6494644, -23.547531 ] } },
{ "type": "Feature", "properties": { "CNPJ": 44441424000167, "AGENTE": "MICHELLE_CAROLINE_BETONI", "ACAO": "REALIZAR_SEGUNDA_VISITA", "RAZAO_SOCIAL": "DAFRANI_LTDA_-_FRAVITA", "ENDERECO": "RUA_MARILIA_336_MARAMBAIA_VINHEDO", "CIDADE": "VINHEDO", "LATITUDE": -23.5161682, "LONGITUDE": -46.637315 }, "geometry": { "type": "Point", "coordinates": [ -46.637315, -23.5161682 ] } },
{ "type": "Feature", "properties": { "CNPJ": 45970779000106, "AGENTE": "MICHELLE_CAROLINE_BETONI", "ACAO": "REALIZAR_SEGUNDA_VISITA", "RAZAO_SOCIAL": "OTICA_EVEREST_LTDA_-_OTICA_EVEREST", "ENDERECO": "RUA_MARQUES_DE_ITU_1011_VILA_BUARQUE_SAO_PAULO", "CIDADE": "SAO_PAULO", "LATITUDE": -23.5437424, "LONGITUDE": -46.6542206 }, "geometry": { "type": "Point", "coordinates": [ -46.6542206, -23.5437424 ] } },
{ "type": "Feature", "properties": { "CNPJ": 48122517000180, "AGENTE": "MICHELLE_CAROLINE_BETONI", "ACAO": "REALIZAR_SEGUNDA_VISITA", "RAZAO_SOCIAL": "IANIR_MOLDURAS_E_DECORACAO_LTDA_-_ART_MAX", "ENDERECO": "RUA_MARQUES_DE_ITU_280_HIGIENOPOLIS_SAO_PAULO", "CIDADE": "SAO_PAULO", "LATITUDE": -23.5437783, "LONGITUDE": -46.6470246 }, "geometry": { "type": "Point", "coordinates": [ -46.6470246, -23.5437783 ] } },
{ "type": "Feature", "properties": { "CNPJ": 2225110000187, "AGENTE": "MICHELLE_CAROLINE_BETONI", "ACAO": "REALIZAR_SEGUNDA_VISITA", "RAZAO_SOCIAL": "SAPATARIA_GURGEL_S/C_LTDA_-_SAPATARIA_GURGEL", "ENDERECO": "RUA_MARQUES_DE_ITU_454_VILA_BUARQUE_SAO_PAULO", "CIDADE": "SAO_PAULO", "LATITUDE": -23.5437393, "LONGITUDE": -46.6487568 }, "geometry": { "type": "Point", "coordinates": [ -46.6487568, -23.5437393 ] } },
{ "type": "Feature", "properties": { "CNPJ": 43478981000190, "AGENTE": "MICHELLE_CAROLINE_BETONI", "ACAO": "REALIZAR_SEGUNDA_VISITA", "RAZAO_SOCIAL": "ARTE_ATELIER_LTDA_-_ARTE_ATELIER", "ENDERECO": "RUA_MARQUES_DE_ITU_559_VILA_BUARQUE_SAO_PAULO", "CIDADE": "SAO_PAULO", "LATITUDE": -23.5438296, "LONGITUDE": -46.6498266 }, "geometry": { "type": "Point", "coordinates": [ -46.6498266, -23.5438296 ] } },
{ "type": "Feature", "properties": { "CNPJ": 51539526000185, "AGENTE": "MICHELLE_CAROLINE_BETONI", "ACAO": "REALIZAR_SEGUNDA_VISITA", "RAZAO_SOCIAL": "ARITANA_COMERCIO_DE_REFEICOES_RAPIDAS_LTDA._-_GODERE", "ENDERECO": "RUA_MARQUES_DE_ITU_595_VILA_BUARQUE_SAO_PAULO", "CIDADE": "SAO_PAULO", "LATITUDE": -23.5439568, "LONGITUDE": -46.6502611 }, "geometry": { "type": "Point", "coordinates": [ -46.6502611, -23.5439568 ] } },
{ "type": "Feature", "properties": { "CNPJ": 55101975000106, "AGENTE": "MICHELLE_CAROLINE_BETONI", "ACAO": "REALIZAR_SEGUNDA_VISITA", "RAZAO_SOCIAL": "RAMPAS_BAR_E_RESTAURANTE_LTDA_-_RESTAURANTE_RAMPAS", "ENDERECO": "RUA_MARQUES_DE_ITU_621_VILA_BUARQUE_SAO_PAULO", "CIDADE": "SAO_PAULO", "LATITUDE": -23.5438185, "LONGITUDE": -46.6503084 }, "geometry": { "type": "Point", "coordinates": [ -46.6503084, -23.5438185 ] } },
{ "type": "Feature", "properties": { "CNPJ": 7158912000135, "AGENTE": "MICHELLE_CAROLINE_BETONI", "ACAO": "REALIZAR_SEGUNDA_VISITA", "RAZAO_SOCIAL": "DROGARIA_MARQUES_DE_ITU_LTDA_-_DROGARIA_MARQUES_DE_ITU", "ENDERECO": "RUA_MARQUES_DE_ITU_763_HIGIENOPOLIS_SAO_PAULO", "CIDADE": "SAO_PAULO", "LATITUDE": -23.5437424, "LONGITUDE": -46.6517748 }, "geometry": { "type": "Point", "coordinates": [ -46.6517748, -23.5437424 ] } },
{ "type": "Feature", "properties": { "CNPJ": 61910881000172, "AGENTE": "MICHELLE_CAROLINE_BETONI", "ACAO": "REALIZAR_SEGUNDA_VISITA", "RAZAO_SOCIAL": "BARROS_SUPER_LANCHONETE_LTDA_-_ESFIHA_CHIC", "ENDERECO": "RUA_MARTIM_FRANCISCO_149_VILA_BUARQUE_SAO_PAULO", "CIDADE": "SAO_PAULO", "LATITUDE": -23.5387252, "LONGITUDE": -46.6517222 }, "geometry": { "type": "Point", "coordinates": [ -46.6517222, -23.5387252 ] } },
{ "type": "Feature", "properties": { "CNPJ": 45848900000121, "AGENTE": "MICHELLE_CAROLINE_BETONI", "ACAO": "REALIZAR_SEGUNDA_VISITA", "RAZAO_SOCIAL": "OTICA_DAMFER_LTDA_-_OTICA_DANFER", "ENDERECO": "RUA_MARTIM_FRANCISCO_15_VILA_BUARQUE_SAO_PAULO", "CIDADE": "SAO_PAULO", "LATITUDE": -23.537744, "LONGITUDE": -46.6508826 }, "geometry": { "type": "Point", "coordinates": [ -46.6508826, -23.537744 ] } },
{ "type": "Feature", "properties": { "CNPJ": 2375743000171, "AGENTE": "MICHELLE_CAROLINE_BETONI", "ACAO": "REALIZAR_SEGUNDA_VISITA", "RAZAO_SOCIAL": "MILLANEA_INSTITUTO_DE_DEPILACAO_LTDA_-_MILLANEA_DEPILACAO", "ENDERECO": "RUA_MARTIM_FRANCISCO_217_VILA_BUARQUE_SAO_PAULO", "CIDADE": "SAO_PAULO", "LATITUDE": -23.5392538, "LONGITUDE": -46.652061 }, "geometry": { "type": "Point", "coordinates": [ -46.652061, -23.5392538 ] } },
{ "type": "Feature", "properties": { "CNPJ": 10974611000275, "AGENTE": "MICHELLE_CAROLINE_BETONI", "ACAO": "REALIZAR_SEGUNDA_VISITA", "RAZAO_SOCIAL": "STATUS_EMBELEZAMENTO_AUTOMOTIVO_LTDA_-_STATUS_DEFENDER", "ENDERECO": "RUA_MARTIM_FRANCISCO_218_VILA_BUARQUE_SAO_PAULO", "CIDADE": "SAO_PAULO", "LATITUDE": -23.5391088, "LONGITUDE": -46.6523541 }, "geometry": { "type": "Point", "coordinates": [ -46.6523541, -23.5391088 ] } },
{ "type": "Feature", "properties": { "CNPJ": 22615206000169, "AGENTE": "MICHELLE_CAROLINE_BETONI", "ACAO": "REALIZAR_SEGUNDA_VISITA", "RAZAO_SOCIAL": "22.615.206_ROSANGELA_APARECIDA_GUIMARAES_-_ROSANGELA_CABELEIREIROS", "ENDERECO": "RUA_MARTIM_FRANCISCO_225_VILA_BUARQUE_SAO_PAULO", "CIDADE": "SAO_PAULO", "LATITUDE": -23.5392603, "LONGITUDE": -46.6523243 }, "geometry": { "type": "Point", "coordinates": [ -46.6523243, -23.5392603 ] } },
{ "type": "Feature", "properties": { "CNPJ": 43067313000170, "AGENTE": "MICHELLE_CAROLINE_BETONI", "ACAO": "REALIZAR_SEGUNDA_VISITA", "RAZAO_SOCIAL": "LANCHONETE_JANINE_LTDA_-_JANINE_RESTAURANTE", "ENDERECO": "RUA_MARTIM_FRANCISCO_232_VILA_BUARQUE_SAO_PAULO", "CIDADE": "SAO_PAULO", "LATITUDE": -23.5391549, "LONGITUDE": -46.6524359 }, "geometry": { "type": "Point", "coordinates": [ -46.6524359, -23.5391549 ] } },
{ "type": "Feature", "properties": { "CNPJ": 60766995000128, "AGENTE": "MICHELLE_CAROLINE_BETONI", "ACAO": "REALIZAR_SEGUNDA_VISITA", "RAZAO_SOCIAL": "MATTA_CAPOTE_&_CIA_LTDA_-_CASA_DAS_TRES_MENINAS", "ENDERECO": "RUA_MARTIM_FRANCISCO_236_VILA_BUARQUE_SAO_PAULO", "CIDADE": "SAO_PAULO", "LATITUDE": -23.5391945, "LONGITUDE": -46.6524275 }, "geometry": { "type": "Point", "coordinates": [ -46.6524275, -23.5391945 ] } },
{ "type": "Feature", "properties": { "CNPJ": 24129221000122, "AGENTE": "MICHELLE_CAROLINE_BETONI", "ACAO": "REALIZAR_SEGUNDA_VISITA", "RAZAO_SOCIAL": "IVANILDO_MENDONCA_DE_SOUSA_VISTORIAS_LTDA_-_VISTORIA_CAR", "ENDERECO": "RUA_MARTIM_FRANCISCO_247_VILA_BUARQUE_SAO_PAULO", "CIDADE": "SAO_PAULO", "LATITUDE": -23.5393389, "LONGITUDE": -46.6524181 }, "geometry": { "type": "Point", "coordinates": [ -46.6524181, -23.5393389 ] } },
{ "type": "Feature", "properties": { "CNPJ": 61062908000114, "AGENTE": "MICHELLE_CAROLINE_BETONI", "ACAO": "REALIZAR_SEGUNDA_VISITA", "RAZAO_SOCIAL": "CONSERTAE_LTDA_-_CONSERTAE", "ENDERECO": "RUA_MARTIM_FRANCISCO_25_SANTA_CECILIA_SAO_PAULO", "CIDADE": "SAO_PAULO", "LATITUDE": -23.5378227, "LONGITUDE": -46.650956 }, "geometry": { "type": "Point", "coordinates": [ -46.650956, -23.5378227 ] } },
{ "type": "Feature", "properties": { "CNPJ": 7242099000187, "AGENTE": "MICHELLE_CAROLINE_BETONI", "ACAO": "REALIZAR_SEGUNDA_VISITA", "RAZAO_SOCIAL": "BAR_DO_ELINEI_LTDA_-_RESTAURANTE_VILA_BUARQUE", "ENDERECO": "RUA_MARTIM_FRANCISCO_295_VILA_BUARQUE_SAO_PAULO", "CIDADE": "SAO_PAULO", "LATITUDE": -23.5397013, "LONGITUDE": -46.6528223 }, "geometry": { "type": "Point", "coordinates": [ -46.6528223, -23.5397013 ] } },
{ "type": "Feature", "properties": { "CNPJ": 1571754000164, "AGENTE": "MICHELLE_CAROLINE_BETONI", "ACAO": "REALIZAR_SEGUNDA_VISITA", "RAZAO_SOCIAL": "G.G._MITO_COMERCIO_DE_PRODUTOS_ALIMENTICIOS_LTDA_-_GG_MITO", "ENDERECO": "RUA_MARTIM_FRANCISCO_313_VILA_BUARQUE_SAO_PAULO", "CIDADE": "SAO_PAULO", "LATITUDE": -23.5397787, "LONGITUDE": -46.6529458 }, "geometry": { "type": "Point", "coordinates": [ -46.6529458, -23.5397787 ] } },
{ "type": "Feature", "properties": { "CNPJ": 97532545000180, "AGENTE": "MICHELLE_CAROLINE_BETONI", "ACAO": "REALIZAR_SEGUNDA_VISITA", "RAZAO_SOCIAL": "ROMILDO_BERNARDO_SANTOS_42710723549_-_ROMILDO_CABELEIREIROS", "ENDERECO": "RUA_MARTIM_FRANCISCO_322_CONSOLACAO_SAO_PAULO", "CIDADE": "SAO_PAULO", "LATITUDE": -23.5398287, "LONGITUDE": -46.6529936 }, "geometry": { "type": "Point", "coordinates": [ -46.6529936, -23.5398287 ] } },
{ "type": "Feature", "properties": { "CNPJ": 49706899000151, "AGENTE": "MICHELLE_CAROLINE_BETONI", "ACAO": "REALIZAR_SEGUNDA_VISITA", "RAZAO_SOCIAL": "BELLA_MISSE_LTDA_-_BELLA_MISSE", "ENDERECO": "RUA_MARTIM_FRANCISCO_449_VILA_BUARQUE_SAO_PAULO", "CIDADE": "SAO_PAULO", "LATITUDE": -23.5407568, "LONGITUDE": -46.6536814 }, "geometry": { "type": "Point", "coordinates": [ -46.6536814, -23.5407568 ] } },