{
"type": "FeatureCollection",
"name": "NATHALIA_CRISTINA_DOS_SANTOS",
"crs": { "type": "name", "properties": { "name": "urn:ogc:def:crs:OGC:1.3:CRS84" } },
"xy_coordinate_resolution": 1e-15,
"features": [
{ "type": "Feature", "properties": { "CNPJ": 22740330000156, "AGENTE": "NATHALIA_CRISTINA_DOS_SANTOS", "ACAO": "REALIZAR_SEGUNDA_VISITA", "RAZAO_SOCIAL": "ISABEL_DOS_SANTOS_DIAS_RIBEIRO_DOCES_-_DOCES_BEL", "ENDERECO": "AVENIDA_ALEXIOS_JAFET_5_VILA_JARAGUA_SAO_PAULO", "CIDADE": "SAO_PAULO", "LATITUDE": -23.4548633, "LONGITUDE": -46.7492867 }, "geometry": { "type": "Point", "coordinates": [ -46.7492867, -23.4548633 ] } },
{ "type": "Feature", "properties": { "CNPJ": 49656529000157, "AGENTE": "NATHALIA_CRISTINA_DOS_SANTOS", "ACAO": "REALIZAR_SEGUNDA_VISITA", "RAZAO_SOCIAL": "49.656.529_ALINE_SILVA_DO_NASCIMENTO_RIBEIRO_-_STUDIO_LINDAS_PEROLAS", "ENDERECO": "AVENIDA_CANTIDIO_SAMPAIO_7035_JARDIM_BRASILIA_SAO_PAULO", "CIDADE": "SAO_PAULO", "LATITUDE": -23.4392907, "LONGITUDE": -46.7084555 }, "geometry": { "type": "Point", "coordinates": [ -46.7084555, -23.4392907 ] } },
{ "type": "Feature", "properties": { "CNPJ": 12325458000108, "AGENTE": "NATHALIA_CRISTINA_DOS_SANTOS", "ACAO": "REALIZAR_SEGUNDA_VISITA", "RAZAO_SOCIAL": "MARIA_COLORIDA_ROUPAS_E_ACESSORIOS_LTDA_-_MARIA___COLORIDA", "ENDERECO": "AVENIDA_DEPUTADO_CANTIDIO_SAMPAIO_6887_VILA_NOVA_PARADA_SAO_PAULO", "CIDADE": "SAO_PAULO", "LATITUDE": -23.4343864, "LONGITUDE": -46.7194335 }, "geometry": { "type": "Point", "coordinates": [ -46.7194335, -23.4343864 ] } },
{ "type": "Feature", "properties": { "CNPJ": 19404762000181, "AGENTE": "NATHALIA_CRISTINA_DOS_SANTOS", "ACAO": "REALIZAR_SEGUNDA_VISITA", "RAZAO_SOCIAL": "19.404.762_WELINGTON_VERNECK_-_PONT_DO_ACAI", "ENDERECO": "AVENIDA_MINISTRO_PETRONIO_PORTELA_18_MOINHO_VELHO_SAO_PAULO", "CIDADE": "SAO_PAULO", "LATITUDE": -23.4973001, "LONGITUDE": -46.7045813 }, "geometry": { "type": "Point", "coordinates": [ -46.7045813, -23.4973001 ] } },
{ "type": "Feature", "properties": { "CNPJ": 23347882000161, "AGENTE": "NATHALIA_CRISTINA_DOS_SANTOS", "ACAO": "REALIZAR_SEGUNDA_VISITA", "RAZAO_SOCIAL": "BENEDICTO_RUBENS_DOS_SANTOS_MATERIAIS_PARA_CONSTRUCAO_-_GREMAZI", "ENDERECO": "AVENIDA_MINISTRO_PETRONIO_PORTELA_281_MOINHO_VELHO_SAO_PAULO", "CIDADE": "SAO_PAULO", "LATITUDE": -23.4965333, "LONGITUDE": -46.703275 }, "geometry": { "type": "Point", "coordinates": [ -46.703275, -23.4965333 ] } },
{ "type": "Feature", "properties": { "CNPJ": 54102074000168, "AGENTE": "NATHALIA_CRISTINA_DOS_SANTOS", "ACAO": "REALIZAR_SEGUNDA_VISITA", "RAZAO_SOCIAL": "BAZAR_E_PAPELARIA_TAYPAZ_LTDA_-_BAZAR_E_PAPELARIA_TAIPAZ", "ENDERECO": "AVENIDA_RAIMUNDO_PEREIRA_DE_MAGALHAES_12478_JARDIM_MARILU_SAO_PAULO", "CIDADE": "SAO_PAULO", "LATITUDE": -23.4336416, "LONGITUDE": -46.7197416 }, "geometry": { "type": "Point", "coordinates": [ -46.7197416, -23.4336416 ] } },
{ "type": "Feature", "properties": { "CNPJ": 55951427000167, "AGENTE": "NATHALIA_CRISTINA_DOS_SANTOS", "ACAO": "REALIZAR_SEGUNDA_VISITA", "RAZAO_SOCIAL": "CENTRAL_PET_TAIPAS_PET_SHOP_LTDA_-_CENTRAL_PET_TAIPAS", "ENDERECO": "AVENIDA_RAIMUNDO_PEREIRA_DE_MAGALHAES_12530_JARDIM_MARILU_SAO_PAULO", "CIDADE": "SAO_PAULO", "LATITUDE": -23.4330967, "LONGITUDE": -46.7198967 }, "geometry": { "type": "Point", "coordinates": [ -46.7198967, -23.4330967 ] } },
{ "type": "Feature", "properties": { "CNPJ": 45282000000160, "AGENTE": "NATHALIA_CRISTINA_DOS_SANTOS", "ACAO": "REALIZAR_SEGUNDA_VISITA", "RAZAO_SOCIAL": "COLORINDO_TAIPAS_LTDA_-_COLORINDO_TAIPAS", "ENDERECO": "AVENIDA_RAIMUNDO_PEREIRA_DE_MAGALHAES_12675_JARDIM_MARILU_SAO_PAULO", "CIDADE": "SAO_PAULO", "LATITUDE": -23.4323047, "LONGITUDE": -46.7204316 }, "geometry": { "type": "Point", "coordinates": [ -46.7204316, -23.4323047 ] } },
{ "type": "Feature", "properties": { "CNPJ": 48469766000146, "AGENTE": "NATHALIA_CRISTINA_DOS_SANTOS", "ACAO": "REALIZAR_SEGUNDA_VISITA", "RAZAO_SOCIAL": "48.469.766_LETICIA_SENE_SILVA_-_DECOR_MILENIO", "ENDERECO": "ESTRADA_DAS_TAIPAS_754_JARDIM_RINCAO_SAO_PAULO", "CIDADE": "SAO_PAULO", "LATITUDE": -23.4497546, "LONGITUDE": -46.7349823 }, "geometry": { "type": "Point", "coordinates": [ -46.7349823, -23.4497546 ] } },
{ "type": "Feature", "properties": { "CNPJ": 20628117000121, "AGENTE": "NATHALIA_CRISTINA_DOS_SANTOS", "ACAO": "REALIZAR_SEGUNDA_VISITA", "RAZAO_SOCIAL": "EDMILSON_MACIEL_DA_SILVA_65475410453_-_EDMILSON_MACIEL", "ENDERECO": "RUA_ANDRE_CHENIER_35_CONJUNTO_CITY_JARAGUA_SAO_PAULO", "CIDADE": "SAO_PAULO", "LATITUDE": -23.4391367, "LONGITUDE": -46.7372035 }, "geometry": { "type": "Point", "coordinates": [ -46.7372035, -23.4391367 ] } },
{ "type": "Feature", "properties": { "CNPJ": 36319668000143, "AGENTE": "NATHALIA_CRISTINA_DOS_SANTOS", "ACAO": "REALIZAR_SEGUNDA_VISITA", "RAZAO_SOCIAL": "36.319.668_TAYSE_SUELY_DOS_SANTOS_MACEDO_-_CHINELARIA_TAIPAS", "ENDERECO": "RUA_PRAIA_TIPITI-MIRIM_22_JARDIM_MARILU_SAO_PAULO", "CIDADE": "SAO_PAULO", "LATITUDE": -23.4327473, "LONGITUDE": -46.7200217 }, "geometry": { "type": "Point", "coordinates": [ -46.7200217, -23.4327473 ] } },
{ "type": "Feature", "properties": { "CNPJ": 46666518000160, "AGENTE": "NATHALIA_CRISTINA_DOS_SANTOS", "ACAO": "REALIZAR_SEGUNDA_VISITA", "RAZAO_SOCIAL": "CIBELE_DO_CARMO_PRATES_27287189895_-_CELEIRO_BOA_SEMENTE", "ENDERECO": "RUA_PRAIA_TIPITI-MIRIM_23_JARDIM_MARILU_SAO_PAULO", "CIDADE": "SAO_PAULO", "LATITUDE": -23.4328296, "LONGITUDE": -46.719942 }, "geometry": { "type": "Point", "coordinates": [ -46.719942, -23.4328296 ] } },
{ "type": "Feature", "properties": { "CNPJ": 46012766000197, "AGENTE": "NATHALIA_CRISTINA_DOS_SANTOS", "ACAO": "REALIZAR_SEGUNDA_VISITA", "RAZAO_SOCIAL": "MARIA_JOSE_DA_SILVA_NASCIMENTO_73982695449_-_MAY_LOVE_LINGERIE", "ENDERECO": "RUA_PRAIA_TIPITI-MIRIM_25_JARDIM_MARILU_SAO_PAULO", "CIDADE": "SAO_PAULO", "LATITUDE": -23.4327436, "LONGITUDE": -46.719839 }, "geometry": { "type": "Point", "coordinates": [ -46.719839, -23.4327436 ] } },
{ "type": "Feature", "properties": { "CNPJ": 45710184000111, "AGENTE": "NATHALIA_CRISTINA_DOS_SANTOS", "ACAO": "REALIZAR_PRIMEIRA_VISITA_POTENCIAL", "RAZAO_SOCIAL": "LUIZ_ROBERTO_DAMIAO", "ENDERECO": "AVENIDA_BENEDITO_ANDRADE_81_VILA_PEREIRA_BARRETO_SAO_PAULO_BRASIL", "CIDADE": "SAO_PAULO", "LATITUDE": -23.4877229, "LONGITUDE": -46.7200186 }, "geometry": { "type": "Point", "coordinates": [ -46.7200186, -23.4877229 ] } },
{ "type": "Feature", "properties": { "CNPJ": 4491091300011, "AGENTE": "NATHALIA_CRISTINA_DOS_SANTOS", "ACAO": "REALIZAR_PRIMEIRA_VISITA_POTENCIAL", "RAZAO_SOCIAL": "JENIFER_DE_ANDRADE_EVANGELISTA_22642201805", "ENDERECO": "RUA_TENENTE_SILVIO_FLEMING_433_VILA_BONILHA_SAO_PAULO_BRASIL", "CIDADE": "SAO_PAULO", "LATITUDE": -23.4881017, "LONGITUDE": -46.7154264 }, "geometry": { "type": "Point", "coordinates": [ -46.7154264, -23.4881017 ] } },
{ "type": "Feature", "properties": { "CNPJ": 49169754000169, "AGENTE": "NATHALIA_CRISTINA_DOS_SANTOS", "ACAO": "REALIZAR_PRIMEIRA_VISITA_POTENCIAL", "RAZAO_SOCIAL": "49.169.754_CAMILA_VALENTE_JULIO_RIBEIRO", "ENDERECO": "RUA_MAJOR_ARMANDO_VEIGA_CASTELO_114_JARDIM_SAO_JOSE_(ZONA_NORTE)_SAO_PAULO_BRASIL", "CIDADE": "SAO_PAULO", "LATITUDE": -23.4881309, "LONGITUDE": -46.7095649 }, "geometry": { "type": "Point", "coordinates": [ -46.7095649, -23.4881309 ] } },
{ "type": "Feature", "properties": { "CNPJ": 471564630001, "AGENTE": "NATHALIA_CRISTINA_DOS_SANTOS", "ACAO": "REALIZAR_PRIMEIRA_VISITA_POTENCIAL", "RAZAO_SOCIAL": "ET_DRINKS_LTDA", "ENDERECO": "RUA_DOUTOR_MANUEL_GUILHERME_DA_SILVEIRA_188_JARDIM_SAO_JOSE_(ZONA_NORTE)_SAO_PAULO_BRASIL", "CIDADE": "SAO_PAULO", "LATITUDE": -23.4884199, "LONGITUDE": -46.7086677 }, "geometry": { "type": "Point", "coordinates": [ -46.7086677, -23.4884199 ] } },
{ "type": "Feature", "properties": { "CNPJ": 35449376000162, "AGENTE": "NATHALIA_CRISTINA_DOS_SANTOS", "ACAO": "REALIZAR_PRIMEIRA_VISITA_POTENCIAL", "RAZAO_SOCIAL": "FLAVIO_DA_SILVA_VIEIRA", "ENDERECO": "RUA_TENENTE_SILVIO_FLEMING_11_VILA_BONILHA_SAO_PAULO_BRASIL", "CIDADE": "SAO_PAULO", "LATITUDE": -23.4885618, "LONGITUDE": -46.7195399 }, "geometry": { "type": "Point", "coordinates": [ -46.7195399, -23.4885618 ] } },
{ "type": "Feature", "properties": { "CNPJ": 3971932400011, "AGENTE": "NATHALIA_CRISTINA_DOS_SANTOS", "ACAO": "REALIZAR_PRIMEIRA_VISITA_POTENCIAL", "RAZAO_SOCIAL": "CESAR_ALEXANDRE_CHURCHILL", "ENDERECO": "RUA_FRANCISCO_BRAGA_53_VILA_BONILHA_SAO_PAULO_BRASIL", "CIDADE": "SAO_PAULO", "LATITUDE": -23.4891252, "LONGITUDE": -46.7169258 }, "geometry": { "type": "Point", "coordinates": [ -46.7169258, -23.4891252 ] } },
{ "type": "Feature", "properties": { "CNPJ": 41230796000156, "AGENTE": "NATHALIA_CRISTINA_DOS_SANTOS", "ACAO": "REALIZAR_PRIMEIRA_VISITA_POTENCIAL", "RAZAO_SOCIAL": "RICARDO_APARECIDO_PELECKAS_DE_ALMEIDA", "ENDERECO": "RUA_CARLOS_ALBERTO_MORETTI_267_VILA_CAVATON_SAO_PAULO_BRASIL", "CIDADE": "SAO_PAULO", "LATITUDE": -23.4892286, "LONGITUDE": -46.7031608 }, "geometry": { "type": "Point", "coordinates": [ -46.7031608, -23.4892286 ] } },
{ "type": "Feature", "properties": { "CNPJ": 29375422000123, "AGENTE": "NATHALIA_CRISTINA_DOS_SANTOS", "ACAO": "REALIZAR_PRIMEIRA_VISITA_POTENCIAL", "RAZAO_SOCIAL": "BRUNO_SOUZA_CESCHINI", "ENDERECO": "RUA_LUIS_DE_ANDRADE_197_VILA_PEREIRA_BARRETO_SAO_PAULO_BRASIL", "CIDADE": "SAO_PAULO", "LATITUDE": -23.4894055, "LONGITUDE": -46.719012 }, "geometry": { "type": "Point", "coordinates": [ -46.719012, -23.4894055 ] } },
{ "type": "Feature", "properties": { "CNPJ": 38091970000112, "AGENTE": "NATHALIA_CRISTINA_DOS_SANTOS", "ACAO": "REALIZAR_PRIMEIRA_VISITA_POTENCIAL", "RAZAO_SOCIAL": "FGT_SERVICOS_GRAFICOS_LTDA", "ENDERECO": "RUA_PEDRO_PAULO_38_VILA_BONILHA_SAO_PAULO_BRASIL", "CIDADE": "SAO_PAULO", "LATITUDE": -23.4895651, "LONGITUDE": -46.7129117 }, "geometry": { "type": "Point", "coordinates": [ -46.7129117, -23.4895651 ] } },
{ "type": "Feature", "properties": { "CNPJ": 13489036000122, "AGENTE": "NATHALIA_CRISTINA_DOS_SANTOS", "ACAO": "REALIZAR_PRIMEIRA_VISITA_POTENCIAL", "RAZAO_SOCIAL": "AM_DE_MORAIS_PRODUCOES_E_EVENTOS", "ENDERECO": "RUA_MINAS_GERAIS_(VL_FORMOSA)_158_FERRAZOPOLIS_SAO_BERNARDO_DO_CAMPO_BRASIL", "CIDADE": "SAO_BERNARDO_DO_CAMPO", "LATITUDE": -23.4895687, "LONGITUDE": -46.7106676 }, "geometry": { "type": "Point", "coordinates": [ -46.7106676, -23.4895687 ] } },
{ "type": "Feature", "properties": { "CNPJ": 56215064000164, "AGENTE": "NATHALIA_CRISTINA_DOS_SANTOS", "ACAO": "REALIZAR_PRIMEIRA_VISITA_POTENCIAL", "RAZAO_SOCIAL": "CICLO_MAZA_PECAS_E_SERVICOS_LTDA", "ENDERECO": "RUA_RIO_VERDE_1748_VILA_GENIOLI_SAO_PAULO_BRASIL", "CIDADE": "SAO_PAULO", "LATITUDE": -23.4895687, "LONGITUDE": -46.7106676 }, "geometry": { "type": "Point", "coordinates": [ -46.7106676, -23.4895687 ] } },
{ "type": "Feature", "properties": { "CNPJ": 29288376000125, "AGENTE": "NATHALIA_CRISTINA_DOS_SANTOS", "ACAO": "REALIZAR_PRIMEIRA_VISITA_POTENCIAL", "RAZAO_SOCIAL": "JENNIFER_TANILE_DA_SILVA", "ENDERECO": "RUA_TELE_74_VILA_PICININ_SAO_PAULO_BRASIL", "CIDADE": "SAO_PAULO", "LATITUDE": -23.4898273, "LONGITUDE": -46.7084406 }, "geometry": { "type": "Point", "coordinates": [ -46.7084406, -23.4898273 ] } },
{ "type": "Feature", "properties": { "CNPJ": 46986301000137, "AGENTE": "NATHALIA_CRISTINA_DOS_SANTOS", "ACAO": "REALIZAR_PRIMEIRA_VISITA_POTENCIAL", "RAZAO_SOCIAL": "MARIZETE_APARECIDA_ZINGARO", "ENDERECO": "RUA_BALDASSARE_ESTENSE_72_VILA_BONILHA_SAO_PAULO_BRASIL", "CIDADE": "SAO_PAULO", "LATITUDE": -23.4903471, "LONGITUDE": -46.7152177 }, "geometry": { "type": "Point", "coordinates": [ -46.7152177, -23.4903471 ] } },
{ "type": "Feature", "properties": { "CNPJ": 26408629000169, "AGENTE": "NATHALIA_CRISTINA_DOS_SANTOS", "ACAO": "REALIZAR_PRIMEIRA_VISITA_POTENCIAL", "RAZAO_SOCIAL": "ROSEANE_DOS_SANTOS_OLIVEIRA", "ENDERECO": "RUA_CARLOS_ALBERTO_MORETTI_139_VILA_CAVATON_SAO_PAULO_BRASIL", "CIDADE": "SAO_PAULO", "LATITUDE": -23.4903659, "LONGITUDE": -46.7037837 }, "geometry": { "type": "Point", "coordinates": [ -46.7037837, -23.4903659 ] } },
{ "type": "Feature", "properties": { "CNPJ": 18795485000112, "AGENTE": "NATHALIA_CRISTINA_DOS_SANTOS", "ACAO": "REALIZAR_PRIMEIRA_VISITA_POTENCIAL", "RAZAO_SOCIAL": "MMRISK_GERENCIAMENTO_DE_RISCOS_LTDA", "ENDERECO": "RUA_RIO_VERDE_2059_PIRITUBA_SAO_PAULO_BRASIL", "CIDADE": "SAO_PAULO", "LATITUDE": -23.4903892, "LONGITUDE": -46.7135418 }, "geometry": { "type": "Point", "coordinates": [ -46.7135418, -23.4903892 ] } },
{ "type": "Feature", "properties": { "CNPJ": 46311394000108, "AGENTE": "NATHALIA_CRISTINA_DOS_SANTOS", "ACAO": "REALIZAR_PRIMEIRA_VISITA_POTENCIAL", "RAZAO_SOCIAL": "ARTE_ARTESANAL_MARCENARIA_LTDA", "ENDERECO": "RUA_CARLOS_GALHARDO_84_VILA_CAVATON_SAO_PAULO_BRASIL", "CIDADE": "SAO_PAULO", "LATITUDE": -23.490514, "LONGITUDE": -46.7050301 }, "geometry": { "type": "Point", "coordinates": [ -46.7050301, -23.490514 ] } },
{ "type": "Feature", "properties": { "CNPJ": 39376872000194, "AGENTE": "NATHALIA_CRISTINA_DOS_SANTOS", "ACAO": "REALIZAR_PRIMEIRA_VISITA_POTENCIAL", "RAZAO_SOCIAL": "TATIANE_GARCIA_ALVES_MOGLIA", "ENDERECO": "RUA_CANNER_51_VILA_PEREIRA_CERCA_SAO_PAULO_BRASIL", "CIDADE": "SAO_PAULO", "LATITUDE": -23.4907034, "LONGITUDE": -46.7109721 }, "geometry": { "type": "Point", "coordinates": [ -46.7109721, -23.4907034 ] } },
{ "type": "Feature", "properties": { "CNPJ": 55522665000157, "AGENTE": "NATHALIA_CRISTINA_DOS_SANTOS", "ACAO": "REALIZAR_PRIMEIRA_VISITA_POTENCIAL", "RAZAO_SOCIAL": "ISSAN_SANTANA_TRANSPORTES_LTDA", "ENDERECO": "PRACA_DOM_PEDRO_FULCO_MORVIDI_62_VILA_PEREIRA_BARRETO_SAO_PAULO_BRASIL", "CIDADE": "SAO_PAULO", "LATITUDE": -23.4908421, "LONGITUDE": -46.7195072 }, "geometry": { "type": "Point", "coordinates": [ -46.7195072, -23.4908421 ] } },
{ "type": "Feature", "properties": { "CNPJ": 35243258000101, "AGENTE": "NATHALIA_CRISTINA_DOS_SANTOS", "ACAO": "REALIZAR_PRIMEIRA_VISITA_POTENCIAL", "RAZAO_SOCIAL": "FABIO_LEANDRO_FEBRAIO", "ENDERECO": "RUA_CAETANO_DE_ARAUJO_89_VILA_PEREIRA_CERCA_SAO_PAULO_BRASIL", "CIDADE": "SAO_PAULO", "LATITUDE": -23.4914416, "LONGITUDE": -46.7106087 }, "geometry": { "type": "Point", "coordinates": [ -46.7106087, -23.4914416 ] } },
{ "type": "Feature", "properties": { "CNPJ": 45369777000166, "AGENTE": "NATHALIA_CRISTINA_DOS_SANTOS", "ACAO": "REALIZAR_PRIMEIRA_VISITA_POTENCIAL", "RAZAO_SOCIAL": "ZECK_IMPORTS_COMERCIO_DE_ELETRONICOS_LTDA", "ENDERECO": "RUA_ANTONIO_TEIXEIRA_BRAGA_204_VILA_PALMEIRAS_SAO_PAULO_BRASIL", "CIDADE": "SAO_PAULO", "LATITUDE": -23.4916733, "LONGITUDE": -46.7121781 }, "geometry": { "type": "Point", "coordinates": [ -46.7121781, -23.4916733 ] } },
{ "type": "Feature", "properties": { "CNPJ": 55846724000142, "AGENTE": "NATHALIA_CRISTINA_DOS_SANTOS", "ACAO": "REALIZAR_PRIMEIRA_VISITA_POTENCIAL", "RAZAO_SOCIAL": "55.846.724_RAFAEL_RODRIGUES_DE_SOUZA_NETO", "ENDERECO": "RUA_CELSO_VIEIRA_229_VILA_PEREIRA_BARRETO_SAO_PAULO_BRASIL", "CIDADE": "SAO_PAULO", "LATITUDE": -23.4922073, "LONGITUDE": -46.7171728 }, "geometry": { "type": "Point", "coordinates": [ -46.7171728, -23.4922073 ] } },
{ "type": "Feature", "properties": { "CNPJ": 54261195000152, "AGENTE": "NATHALIA_CRISTINA_DOS_SANTOS", "ACAO": "REALIZAR_PRIMEIRA_VISITA_POTENCIAL", "RAZAO_SOCIAL": "54.261.195_WILLIAN_DIAS_LOURENCO", "ENDERECO": "RUA_ARMANDO_RAMOS_FILHO_239_MOINHO_VELHO_SAO_PAULO_BRASIL", "CIDADE": "SAO_PAULO", "LATITUDE": -23.492306, "LONGITUDE": -46.705279 }, "geometry": { "type": "Point", "coordinates": [ -46.705279, -23.492306 ] } },
{ "type": "Feature", "properties": { "CNPJ": 53057169000144, "AGENTE": "NATHALIA_CRISTINA_DOS_SANTOS", "ACAO": "REALIZAR_PRIMEIRA_VISITA_POTENCIAL", "RAZAO_SOCIAL": "ALLIANZ_CONNECT_INTERMEDIACAO_DE_NEGOCIOS_LTDA", "ENDERECO": "RUA_DIOGO_GONCALVES_48_VILA_PEREIRA_CERCA_SAO_PAULO_BRASIL", "CIDADE": "SAO_PAULO", "LATITUDE": -23.4923956, "LONGITUDE": -46.7108218 }, "geometry": { "type": "Point", "coordinates": [ -46.7108218, -23.4923956 ] } },
{ "type": "Feature", "properties": { "CNPJ": 56252731000189, "AGENTE": "NATHALIA_CRISTINA_DOS_SANTOS", "ACAO": "REALIZAR_PRIMEIRA_VISITA_POTENCIAL", "RAZAO_SOCIAL": "56.252.731_DANIEL_BENEDITO_SOARES_DE_OLIVEIRA_DOS_SANTOS", "ENDERECO": "RUA_OSCAR_DIAS_PAIAO_241_JARDIM_BELA_VISTA_(ZONA_NORTE)_SAO_PAULO_BRASIL", "CIDADE": "SAO_PAULO", "LATITUDE": -23.4925024, "LONGITUDE": -46.706336 }, "geometry": { "type": "Point", "coordinates": [ -46.706336, -23.4925024 ] } },
{ "type": "Feature", "properties": { "CNPJ": 36458660000168, "AGENTE": "NATHALIA_CRISTINA_DOS_SANTOS", "ACAO": "REALIZAR_PRIMEIRA_VISITA_POTENCIAL", "RAZAO_SOCIAL": "OLIVALDO_BENTO_DE_OLIVEIRA_JUNIOR_TECNOLOGIA_DA_INFORMACAO_LTDA", "ENDERECO": "RUA_JOAO_CORDEIRO_654_MOINHO_VELHO_SAO_PAULO_BRASIL", "CIDADE": "SAO_PAULO", "LATITUDE": -23.4925715, "LONGITUDE": -46.7027885 }, "geometry": { "type": "Point", "coordinates": [ -46.7027885, -23.4925715 ] } },
{ "type": "Feature", "properties": { "CNPJ": 4400456000019, "AGENTE": "NATHALIA_CRISTINA_DOS_SANTOS", "ACAO": "REALIZAR_PRIMEIRA_VISITA_POTENCIAL", "RAZAO_SOCIAL": "ADRIANA_BARBOSA_NUNES_SONTACHI", "ENDERECO": "RUA_VALDEMAR_ADELINO_DA_SILVA_250_MOINHO_VELHO_SAO_PAULO_BRASIL", "CIDADE": "SAO_PAULO", "LATITUDE": -23.4927272, "LONGITUDE": -46.7059052 }, "geometry": { "type": "Point", "coordinates": [ -46.7059052, -23.4927272 ] } },
{ "type": "Feature", "properties": { "CNPJ": 42531101000139, "AGENTE": "NATHALIA_CRISTINA_DOS_SANTOS", "ACAO": "REALIZAR_PRIMEIRA_VISITA_POTENCIAL", "RAZAO_SOCIAL": "DONATI_E_SILVA_TRANSPORTES_LTDA", "ENDERECO": "RUA_CARAPUTINGA_877_VILA_AMERICA_SAO_PAULO_BRASIL", "CIDADE": "SAO_PAULO", "LATITUDE": -23.4931779, "LONGITUDE": -46.7036404 }, "geometry": { "type": "Point", "coordinates": [ -46.7036404, -23.4931779 ] } },
{ "type": "Feature", "properties": { "CNPJ": 44365589000105, "AGENTE": "NATHALIA_CRISTINA_DOS_SANTOS", "ACAO": "REALIZAR_PRIMEIRA_VISITA_POTENCIAL", "RAZAO_SOCIAL": "ANTONIO_ROLIM_DE_ALBUQUERQUE_FILHO_05780552878", "ENDERECO": "RUA_VALDEMAR_ADELINO_DA_SILVA_68_MOINHO_VELHO_SAO_PAULO_BRASIL", "CIDADE": "SAO_PAULO", "LATITUDE": -23.4936777, "LONGITUDE": -46.7073247 }, "geometry": { "type": "Point", "coordinates": [ -46.7073247, -23.4936777 ] } },
{ "type": "Feature", "properties": { "CNPJ": 5414493500017, "AGENTE": "NATHALIA_CRISTINA_DOS_SANTOS", "ACAO": "REALIZAR_PRIMEIRA_VISITA_POTENCIAL", "RAZAO_SOCIAL": "54.144.935_VANESSA_NOGUEIRA_DIOGO", "ENDERECO": "RUA_FRANCISCO_GOMES_DA_COSTA_57_VILA_PEREIRA_BARRETO_SAO_PAULO_BRASIL", "CIDADE": "SAO_PAULO", "LATITUDE": -23.4940135, "LONGITUDE": -46.7169928 }, "geometry": { "type": "Point", "coordinates": [ -46.7169928, -23.4940135 ] } },
{ "type": "Feature", "properties": { "CNPJ": 23058861000126, "AGENTE": "NATHALIA_CRISTINA_DOS_SANTOS", "ACAO": "REALIZAR_PRIMEIRA_VISITA_POTENCIAL", "RAZAO_SOCIAL": "LIGIA_APARECIDA_ALVES", "ENDERECO": "RUA_FRANCISCO_GOMES_DA_COSTA_217_VILA_PEREIRA_BARRETO_SAO_PAULO_BRASIL", "CIDADE": "SAO_PAULO", "LATITUDE": -23.4949017, "LONGITUDE": -46.7181907 }, "geometry": { "type": "Point", "coordinates": [ -46.7181907, -23.4949017 ] } },
{ "type": "Feature", "properties": { "CNPJ": 55995218000115, "AGENTE": "NATHALIA_CRISTINA_DOS_SANTOS", "ACAO": "REALIZAR_PRIMEIRA_VISITA_POTENCIAL", "RAZAO_SOCIAL": "55.995.218_MARCEL_RODRIGO_GABRIEL", "ENDERECO": "RUA_BALTAZAR_DA_SILVEIRA_642_VILA_PEREIRA_CERCA_SAO_PAULO_BRASIL", "CIDADE": "SAO_PAULO", "LATITUDE": -23.4954114, "LONGITUDE": -46.7123765 }, "geometry": { "type": "Point", "coordinates": [ -46.7123765, -23.4954114 ] } },
{ "type": "Feature", "properties": { "CNPJ": 44471384000104, "AGENTE": "NATHALIA_CRISTINA_DOS_SANTOS", "ACAO": "REALIZAR_PRIMEIRA_VISITA_POTENCIAL", "RAZAO_SOCIAL": "JULIA_VIEIRA_GARGANO", "ENDERECO": "RUA_DOUTOR_HENRIQUE_DE_CASAIS_145_VILA_PEREIRA_CERCA_SAO_PAULO_BRASIL", "CIDADE": "SAO_PAULO", "LATITUDE": -23.4956844, "LONGITUDE": -46.7151263 }, "geometry": { "type": "Point", "coordinates": [ -46.7151263, -23.4956844 ] } },
{ "type": "Feature", "properties": { "CNPJ": 354283970001, "AGENTE": "NATHALIA_CRISTINA_DOS_SANTOS", "ACAO": "REALIZAR_PRIMEIRA_VISITA_POTENCIAL", "RAZAO_SOCIAL": "SELMA_FELIX_SILVA", "ENDERECO": "RUA_AGUAS_CLARAS_98_VILA_PEREIRA_CERCA_SAO_PAULO_BRASIL", "CIDADE": "SAO_PAULO", "LATITUDE": -23.4959486, "LONGITUDE": -46.7109936 }, "geometry": { "type": "Point", "coordinates": [ -46.7109936, -23.4959486 ] } },
{ "type": "Feature", "properties": { "CNPJ": 56386057000125, "AGENTE": "NATHALIA_CRISTINA_DOS_SANTOS", "ACAO": "REALIZAR_PRIMEIRA_VISITA_POTENCIAL", "RAZAO_SOCIAL": "56.386.057_DANIEL_VIEIRA_DA_SILVA", "ENDERECO": "RUA_DOUTOR_HEITOR_NASCIMENTO_216_NOSSA_SENHORA_DO_O_SAO_PAULO_BRASIL", "CIDADE": "SAO_PAULO", "LATITUDE": -23.4962304, "LONGITUDE": -46.7060821 }, "geometry": { "type": "Point", "coordinates": [ -46.7060821, -23.4962304 ] } },
{ "type": "Feature", "properties": { "CNPJ": 32455047000136, "AGENTE": "NATHALIA_CRISTINA_DOS_SANTOS", "ACAO": "REALIZAR_PRIMEIRA_VISITA_POTENCIAL", "RAZAO_SOCIAL": "CONECTA_MEDICAL_VENDA_E_REPRESENTACAO_COMERCIAL_LTDA", "ENDERECO": "AVENIDA_PAULA_FERREIRA_1707_VILA_PIRITUBA_SAO_PAULO_BRASIL", "CIDADE": "SAO_PAULO", "LATITUDE": -23.4966378, "LONGITUDE": -46.7128475 }, "geometry": { "type": "Point", "coordinates": [ -46.7128475, -23.4966378 ] } },
{ "type": "Feature", "properties": { "CNPJ": 52943560000183, "AGENTE": "NATHALIA_CRISTINA_DOS_SANTOS", "ACAO": "REALIZAR_PRIMEIRA_VISITA_POTENCIAL", "RAZAO_SOCIAL": "AUTO_ESCOLA_BONILHA_LTDA", "ENDERECO": "AVENIDA_PAULA_FERREIRA_1562_PIRITUBA_SAO_PAULO_BRASIL", "CIDADE": "SAO_PAULO", "LATITUDE": -23.4972322, "LONGITUDE": -46.7114492 }, "geometry": { "type": "Point", "coordinates": [ -46.7114492, -23.4972322 ] } },
{ "type": "Feature", "properties": { "CNPJ": 50006581000147, "AGENTE": "NATHALIA_CRISTINA_DOS_SANTOS", "ACAO": "REALIZAR_PRIMEIRA_VISITA_POTENCIAL", "RAZAO_SOCIAL": "MARCIA_ROSANA_ANTONIO_PAGINTON", "ENDERECO": "RUA_PROFESSOR_JOAO_MACHADO_837_NOSSA_SENHORA_DO_O_SAO_PAULO_BRASIL", "CIDADE": "SAO_PAULO", "LATITUDE": -23.4972994, "LONGITUDE": -46.7060192 }, "geometry": { "type": "Point", "coordinates": [ -46.7060192, -23.4972994 ] } },
{ "type": "Feature", "properties": { "CNPJ": 110470190001, "AGENTE": "NATHALIA_CRISTINA_DOS_SANTOS", "ACAO": "REALIZAR_PRIMEIRA_VISITA_POTENCIAL", "RAZAO_SOCIAL": "J.B._RODRIGUES_DA_SILVA", "ENDERECO": "AVENIDA_PAULA_FERREIRA_1579_VILA_PIRITUBA_SAO_PAULO_BRASIL", "CIDADE": "SAO_PAULO", "LATITUDE": -23.4973459, "LONGITUDE": -46.7117788 }, "geometry": { "type": "Point", "coordinates": [ -46.7117788, -23.4973459 ] } },
{ "type": "Feature", "properties": { "CNPJ": 48012247000154, "AGENTE": "NATHALIA_CRISTINA_DOS_SANTOS", "ACAO": "REALIZAR_PRIMEIRA_VISITA_POTENCIAL", "RAZAO_SOCIAL": "LIMIART_COMERCIO_DE_MOVEIS_PLANEJADOS_LTDA", "ENDERECO": "AVENIDA_PAULA_FERREIRA_1579_VILA_PIRITUBA_SAO_PAULO_BRASIL", "CIDADE": "SAO_PAULO", "LATITUDE": -23.4973459, "LONGITUDE": -46.7117788 }, "geometry": { "type": "Point", "coordinates": [ -46.7117788, -23.4973459 ] } },
{ "type": "Feature", "properties": { "CNPJ": 37678715000108, "AGENTE": "NATHALIA_CRISTINA_DOS_SANTOS", "ACAO": "REALIZAR_PRIMEIRA_VISITA_POTENCIAL", "RAZAO_SOCIAL": "M.A_DOS_SANTOS_PIZZARIA", "ENDERECO": "AVENIDA_MUTINGA_2333_JARDIM_SANTO_ELIAS_SAO_PAULO_BRASIL", "CIDADE": "SAO_PAULO", "LATITUDE": -23.4974575, "LONGITUDE": -46.705875 }, "geometry": { "type": "Point", "coordinates": [ -46.705875, -23.4974575 ] } },
{ "type": "Feature", "properties": { "CNPJ": 53584145000143, "AGENTE": "NATHALIA_CRISTINA_DOS_SANTOS", "ACAO": "REALIZAR_PRIMEIRA_VISITA_POTENCIAL", "RAZAO_SOCIAL": "MAGDA_DE_CAMARGO_DA_SILVA", "ENDERECO": "RUA_DOUTOR_PEDRO_JABUR_226_VILA_PEREIRA_CERCA_SAO_PAULO_BRASIL", "CIDADE": "SAO_PAULO", "LATITUDE": -23.4978553, "LONGITUDE": -46.7159819 }, "geometry": { "type": "Point", "coordinates": [ -46.7159819, -23.4978553 ] } },
{ "type": "Feature", "properties": { "CNPJ": 32650469000162, "AGENTE": "NATHALIA_CRISTINA_DOS_SANTOS", "ACAO": "REALIZAR_PRIMEIRA_VISITA_POTENCIAL", "RAZAO_SOCIAL": "P_B_DOS_SANTOS", "ENDERECO": "RUA_PADRE_JUSTINO_LOMBARDI_331_VILA_PEREIRA_CERCA_SAO_PAULO_BRASIL", "CIDADE": "SAO_PAULO", "LATITUDE": -23.4979968, "LONGITUDE": -46.7076261 }, "geometry": { "type": "Point", "coordinates": [ -46.7076261, -23.4979968 ] } },
{ "type": "Feature", "properties": { "CNPJ": 40526397000174, "AGENTE": "NATHALIA_CRISTINA_DOS_SANTOS", "ACAO": "REALIZAR_PRIMEIRA_VISITA_POTENCIAL", "RAZAO_SOCIAL": "RODRIGO_DA_SILVA_FERNANDES", "ENDERECO": "RUA_DONATO_165_VILA_BONILHA_SAO_PAULO_BRASIL", "CIDADE": "SAO_PAULO", "LATITUDE": -23.498617, "LONGITUDE": -46.7124772 }, "geometry": { "type": "Point", "coordinates": [ -46.7124772, -23.498617 ] } },
{ "type": "Feature", "properties": { "CNPJ": 50397924000141, "AGENTE": "NATHALIA_CRISTINA_DOS_SANTOS", "ACAO": "REALIZAR_PRIMEIRA_VISITA_POTENCIAL", "RAZAO_SOCIAL": "50.397.924_SYLVIO_MARTINS_DOS_SANTOS", "ENDERECO": "RUA_SEBASTIAO_DA_COSTA_42_VILA_BONILHA_SAO_PAULO_BRASIL", "CIDADE": "SAO_PAULO", "LATITUDE": -23.4991081, "LONGITUDE": -46.7134523 }, "geometry": { "type": "Point", "coordinates": [ -46.7134523, -23.4991081 ] } },
{ "type": "Feature", "properties": { "CNPJ": 58142184000104, "AGENTE": "NATHALIA_CRISTINA_DOS_SANTOS", "ACAO": "REALIZAR_PRIMEIRA_VISITA_POTENCIAL", "RAZAO_SOCIAL": "PAULA_MARIA_ANTUNES", "ENDERECO": "RUA_SANTA_ISABEL_DO_RIO_NEGRO_27_JARDIM_IRIS_SAO_PAULO_BRASIL", "CIDADE": "SAO_PAULO", "LATITUDE": -23.5000275, "LONGITUDE": -46.7176747 }, "geometry": { "type": "Point", "coordinates": [ -46.7176747, -23.5000275 ] } },
{ "type": "Feature", "properties": { "CNPJ": 32455978000134, "AGENTE": "NATHALIA_CRISTINA_DOS_SANTOS", "ACAO": "REALIZAR_PRIMEIRA_VISITA_POTENCIAL", "RAZAO_SOCIAL": "KARINA_PAULA_TRIGO_TRUDES", "ENDERECO": "RUA_VISCONDE_CAVALCANTI_164_VILA_PEREIRA_CERCA_SAO_PAULO_BRASIL", "CIDADE": "SAO_PAULO", "LATITUDE": -23.5000862, "LONGITUDE": -46.7075784 }, "geometry": { "type": "Point", "coordinates": [ -46.7075784, -23.5000862 ] } },
{ "type": "Feature", "properties": { "CNPJ": 40577441000175, "AGENTE": "NATHALIA_CRISTINA_DOS_SANTOS", "ACAO": "REALIZAR_PRIMEIRA_VISITA_POTENCIAL", "RAZAO_SOCIAL": "40.577.441_VANESSA_DIAS_GOMES", "ENDERECO": "AVENIDA_APARECIDA_DO_RIO_NEGRO_334_JARDIM_IRIS_SAO_PAULO_BRASIL", "CIDADE": "SAO_PAULO", "LATITUDE": -23.5003397, "LONGITUDE": -46.7195481 }, "geometry": { "type": "Point", "coordinates": [ -46.7195481, -23.5003397 ] } },
{ "type": "Feature", "properties": { "CNPJ": 2142146800012, "AGENTE": "NATHALIA_CRISTINA_DOS_SANTOS", "ACAO": "REALIZAR_PRIMEIRA_VISITA_POTENCIAL", "RAZAO_SOCIAL": "ACOS_SA_LTDA", "ENDERECO": "AVENIDA_APARECIDA_DO_RIO_NEGRO_334_JARDIM_IRIS_SAO_PAULO_BRASIL", "CIDADE": "SAO_PAULO", "LATITUDE": -23.5003397, "LONGITUDE": -46.7195481 }, "geometry": { "type": "Point", "coordinates": [ -46.7195481, -23.5003397 ] } },
{ "type": "Feature", "properties": { "CNPJ": 5400945800013, "AGENTE": "NATHALIA_CRISTINA_DOS_SANTOS", "ACAO": "REALIZAR_PRIMEIRA_VISITA_POTENCIAL", "RAZAO_SOCIAL": "REALC_PINTURAS_&_SERVICOS_LTDA", "ENDERECO": "AVENIDA_APARECIDA_DO_RIO_NEGRO_316_JARDIM_IRIS_SAO_PAULO_BRASIL", "CIDADE": "SAO_PAULO", "LATITUDE": -23.5003641, "LONGITUDE": -46.7191552 }, "geometry": { "type": "Point", "coordinates": [ -46.7191552, -23.5003641 ] } },
{ "type": "Feature", "properties": { "CNPJ": 35515528000188, "AGENTE": "NATHALIA_CRISTINA_DOS_SANTOS", "ACAO": "REALIZAR_PRIMEIRA_VISITA_POTENCIAL", "RAZAO_SOCIAL": "PIMENTELS_LTDA", "ENDERECO": "AVENIDA_APARECIDA_DO_RIO_NEGRO_368_JARDIM_IRIS_SAO_PAULO_BRASIL", "CIDADE": "SAO_PAULO", "LATITUDE": -23.5004077, "LONGITUDE": -46.71972239 }, "geometry": { "type": "Point", "coordinates": [ -46.71972239, -23.5004077 ] } },
{ "type": "Feature", "properties": { "CNPJ": 52300009000111, "AGENTE": "NATHALIA_CRISTINA_DOS_SANTOS", "ACAO": "REALIZAR_PRIMEIRA_VISITA_POTENCIAL", "RAZAO_SOCIAL": "MATHEUS_SILVA_CARVALHO_APOIO_ADM_LTDA", "ENDERECO": "AVENIDA_APARECIDA_DO_RIO_NEGRO_368_JARDIM_IRIS_SAO_PAULO_BRASIL", "CIDADE": "SAO_PAULO", "LATITUDE": -23.5004077, "LONGITUDE": -46.71972239 }, "geometry": { "type": "Point", "coordinates": [ -46.71972239, -23.5004077 ] } },
{ "type": "Feature", "properties": { "CNPJ": 33464882000103, "AGENTE": "NATHALIA_CRISTINA_DOS_SANTOS", "ACAO": "REALIZAR_PRIMEIRA_VISITA_POTENCIAL", "RAZAO_SOCIAL": "FSM_AUTOMOVEIS_E_MOTOS_LTDA", "ENDERECO": "RUA_ANESIA_MARIA_20_PIQUERI_SAO_PAULO_BRASIL", "CIDADE": "SAO_PAULO", "LATITUDE": -23.5004941, "LONGITUDE": -46.7109292 }, "geometry": { "type": "Point", "coordinates": [ -46.7109292, -23.5004941 ] } },
{ "type": "Feature", "properties": { "CNPJ": 55118542000155, "AGENTE": "NATHALIA_CRISTINA_DOS_SANTOS", "ACAO": "REALIZAR_PRIMEIRA_VISITA_POTENCIAL", "RAZAO_SOCIAL": "ELEVATE_CONSULTING_LTDA", "ENDERECO": "AVENIDA_APARECIDA_DO_RIO_NEGRO_400_JARDIM_IRIS_SAO_PAULO_BRASIL", "CIDADE": "SAO_PAULO", "LATITUDE": -23.5006184, "LONGITUDE": -46.7199048 }, "geometry": { "type": "Point", "coordinates": [ -46.7199048, -23.5006184 ] } },
{ "type": "Feature", "properties": { "CNPJ": 3035069900018, "AGENTE": "NATHALIA_CRISTINA_DOS_SANTOS", "ACAO": "REALIZAR_PRIMEIRA_VISITA_POTENCIAL", "RAZAO_SOCIAL": "ARMANDO_ALBIERO", "ENDERECO": "RUA_AMADEU_DE_QUEIROS_128_NOSSA_SENHORA_DO_O_SAO_PAULO_BRASIL", "CIDADE": "SAO_PAULO", "LATITUDE": -23.5010996, "LONGITUDE": -46.7046755 }, "geometry": { "type": "Point", "coordinates": [ -46.7046755, -23.5010996 ] } },
{ "type": "Feature", "properties": { "CNPJ": 56140121000193, "AGENTE": "NATHALIA_CRISTINA_DOS_SANTOS", "ACAO": "REALIZAR_PRIMEIRA_VISITA_POTENCIAL", "RAZAO_SOCIAL": "INSTITUTO_PAULISTA_DE_AUDIOLOGIA_JESSICA_TOLEDO_LTDA", "ENDERECO": "AVENIDA_APARECIDA_DO_RIO_NEGRO_240_JARDIM_IRIS_SAO_PAULO_BRASIL", "CIDADE": "SAO_PAULO", "LATITUDE": -23.5011795, "LONGITUDE": -46.717972 }, "geometry": { "type": "Point", "coordinates": [ -46.717972, -23.5011795 ] } },
{ "type": "Feature", "properties": { "CNPJ": 51896518000196, "AGENTE": "NATHALIA_CRISTINA_DOS_SANTOS", "ACAO": "REALIZAR_PRIMEIRA_VISITA_POTENCIAL", "RAZAO_SOCIAL": "CILENE_TOMAZ_DE_ALMEIDA_LTDA", "ENDERECO": "AVENIDA_APARECIDA_DO_RIO_NEGRO_240_JARDIM_IRIS_SAO_PAULO_BRASIL", "CIDADE": "SAO_PAULO", "LATITUDE": -23.5011795, "LONGITUDE": -46.717972 }, "geometry": { "type": "Point", "coordinates": [ -46.717972, -23.5011795 ] } },
{ "type": "Feature", "properties": { "CNPJ": 44334467000143, "AGENTE": "NATHALIA_CRISTINA_DOS_SANTOS", "ACAO": "REALIZAR_PRIMEIRA_VISITA_POTENCIAL", "RAZAO_SOCIAL": "ROBERTA_ALVES_DA_CONCEICAO_NASCIMENTO", "ENDERECO": "AVENIDA_APARECIDA_DO_RIO_NEGRO_240_JARDIM_IRIS_SAO_PAULO_BRASIL", "CIDADE": "SAO_PAULO", "LATITUDE": -23.5011795, "LONGITUDE": -46.717972 }, "geometry": { "type": "Point", "coordinates": [ -46.717972, -23.5011795 ] } },
{ "type": "Feature", "properties": { "CNPJ": 2603614600018, "AGENTE": "NATHALIA_CRISTINA_DOS_SANTOS", "ACAO": "REALIZAR_PRIMEIRA_VISITA_POTENCIAL", "RAZAO_SOCIAL": "MARCIA_CRISTINA_PEREIRA_DE_SOUZA", "ENDERECO": "RUA_JOSE_DA_SILVA_MARTHA_239_PIQUERI_SAO_PAULO_BRASIL", "CIDADE": "SAO_PAULO", "LATITUDE": -23.5017583, "LONGITUDE": -46.714014 }, "geometry": { "type": "Point", "coordinates": [ -46.714014, -23.5017583 ] } },
{ "type": "Feature", "properties": { "CNPJ": 18097197000194, "AGENTE": "NATHALIA_CRISTINA_DOS_SANTOS", "ACAO": "REALIZAR_PRIMEIRA_VISITA_POTENCIAL", "RAZAO_SOCIAL": "SM_SERVICOS_E_ADMINISTRACAO_LTDA", "ENDERECO": "RUA_CORONEL_BENTO_BICUDO_382_PIQUERI_SAO_PAULO_BRASIL", "CIDADE": "SAO_PAULO", "LATITUDE": -23.5021865, "LONGITUDE": -46.7072543 }, "geometry": { "type": "Point", "coordinates": [ -46.7072543, -23.5021865 ] } },
{ "type": "Feature", "properties": { "CNPJ": 467765660001, "AGENTE": "NATHALIA_CRISTINA_DOS_SANTOS", "ACAO": "REALIZAR_PRIMEIRA_VISITA_POTENCIAL", "RAZAO_SOCIAL": "ANDRE_LUIZ_MARTINS_FERNANDES_LTDA", "ENDERECO": "AVENIDA_APARECIDA_DO_RIO_NEGRO_46_JARDIM_IRIS_SAO_PAULO_BRASIL", "CIDADE": "SAO_PAULO", "LATITUDE": -23.5026052, "LONGITUDE": -46.7183646 }, "geometry": { "type": "Point", "coordinates": [ -46.7183646, -23.5026052 ] } },
{ "type": "Feature", "properties": { "CNPJ": 3601686200015, "AGENTE": "NATHALIA_CRISTINA_DOS_SANTOS", "ACAO": "REALIZAR_PRIMEIRA_VISITA_POTENCIAL", "RAZAO_SOCIAL": "LUCIANO_GUARINO", "ENDERECO": "RUA_LUIZ_SIMOES_308_PIQUERI_SAO_PAULO_BRASIL", "CIDADE": "SAO_PAULO", "LATITUDE": -23.5032531, "LONGITUDE": -46.7140196 }, "geometry": { "type": "Point", "coordinates": [ -46.7140196, -23.5032531 ] } },
{ "type": "Feature", "properties": { "CNPJ": 46495786000166, "AGENTE": "NATHALIA_CRISTINA_DOS_SANTOS", "ACAO": "REALIZAR_PRIMEIRA_VISITA_POTENCIAL", "RAZAO_SOCIAL": "CATIA_CRISTINA_DE_MACEDO", "ENDERECO": "AVENIDA_RAIMUNDO_PEREIRA_DE_MAGALHAES_-_DE_1301/1302_A_2599/2600_2219_JARDIM_IRIS_SAO_PAULO_BRASIL", "CIDADE": "SAO_PAULO", "LATITUDE": -23.5032935, "LONGITUDE": -46.719754 }, "geometry": { "type": "Point", "coordinates": [ -46.719754, -23.5032935 ] } },
{ "type": "Feature", "properties": { "CNPJ": 36241301000154, "AGENTE": "NATHALIA_CRISTINA_DOS_SANTOS", "ACAO": "REALIZAR_PRIMEIRA_VISITA_POTENCIAL", "RAZAO_SOCIAL": "REINALDO_SANTOS_OLIVEIRA", "ENDERECO": "AVENIDA_RAIMUNDO_PEREIRA_DE_MAGALHAES_-_DE_1301/1302_A_2599/2600_2239_JARDIM_IRIS_SAO_PAULO_BRASIL", "CIDADE": "SAO_PAULO", "LATITUDE": -23.5032935, "LONGITUDE": -46.719754 }, "geometry": { "type": "Point", "coordinates": [ -46.719754, -23.5032935 ] } },
{ "type": "Feature", "properties": { "CNPJ": 28197496000154, "AGENTE": "NATHALIA_CRISTINA_DOS_SANTOS", "ACAO": "REALIZAR_PRIMEIRA_VISITA_POTENCIAL", "RAZAO_SOCIAL": "WLION_COMERCIO_E_SOLUCOES_LIMITADA", "ENDERECO": "AVENIDA_RAIMUNDO_PEREIRA_DE_MAGALHAES_-_DE_2601/2602_A_3163/3164_2616_JARDIM_IRIS_SAO_PAULO_BRASIL", "CIDADE": "SAO_PAULO", "LATITUDE": -23.5032935, "LONGITUDE": -46.719754 }, "geometry": { "type": "Point", "coordinates": [ -46.719754, -23.5032935 ] } },
{ "type": "Feature", "properties": { "CNPJ": 3786690300016, "AGENTE": "NATHALIA_CRISTINA_DOS_SANTOS", "ACAO": "REALIZAR_PRIMEIRA_VISITA_POTENCIAL", "RAZAO_SOCIAL": "PEDRO_HENRIQUE_BORGES_DE_PAULA_SEBASTIAO_DESENVOLVIMENTO_DE_SOFTWARE_LTDA", "ENDERECO": "RUA_NOEMIA_115_PIQUERI_SAO_PAULO_BRASIL", "CIDADE": "SAO_PAULO", "LATITUDE": -23.5034371, "LONGITUDE": -46.7127217 }, "geometry": { "type": "Point", "coordinates": [ -46.7127217, -23.5034371 ] } },
{ "type": "Feature", "properties": { "CNPJ": 26471837000102, "AGENTE": "NATHALIA_CRISTINA_DOS_SANTOS", "ACAO": "REALIZAR_PRIMEIRA_VISITA_POTENCIAL", "RAZAO_SOCIAL": "VIVENDA_VISTA_VERDE_RESTAURANTE_LTDA", "ENDERECO": "RUA_LUIZ_SIMOES_207_PIQUERI_SAO_PAULO_BRASIL", "CIDADE": "SAO_PAULO", "LATITUDE": -23.5037157, "LONGITUDE": -46.7131205 }, "geometry": { "type": "Point", "coordinates": [ -46.7131205, -23.5037157 ] } },
{ "type": "Feature", "properties": { "CNPJ": 32054047000124, "AGENTE": "NATHALIA_CRISTINA_DOS_SANTOS", "ACAO": "REALIZAR_PRIMEIRA_VISITA_POTENCIAL", "RAZAO_SOCIAL": "MUSSA_ABDULAI_MALAM_DABO", "ENDERECO": "RUA_MANUEL_FAGUNDES_DE_SOUZA_356_PIQUERI_SAO_PAULO_BRASIL", "CIDADE": "SAO_PAULO", "LATITUDE": -23.5037293, "LONGITUDE": -46.7142923 }, "geometry": { "type": "Point", "coordinates": [ -46.7142923, -23.5037293 ] } },
{ "type": "Feature", "properties": { "CNPJ": 2680920000123, "AGENTE": "NATHALIA_CRISTINA_DOS_SANTOS", "ACAO": "REALIZAR_PRIMEIRA_VISITA_POTENCIAL", "RAZAO_SOCIAL": "BANDEIRA_PAULISTA_LUMINOSOS_LTDA", "ENDERECO": "RUA_CORONEL_BENTO_BICUDO_1141_PIQUERI_SAO_PAULO_BRASIL", "CIDADE": "SAO_PAULO", "LATITUDE": -23.5043842, "LONGITUDE": -46.7077032 }, "geometry": { "type": "Point", "coordinates": [ -46.7077032, -23.5043842 ] } },
{ "type": "Feature", "properties": { "CNPJ": 30558242000166, "AGENTE": "NATHALIA_CRISTINA_DOS_SANTOS", "ACAO": "REALIZAR_PRIMEIRA_VISITA_POTENCIAL", "RAZAO_SOCIAL": "GUSTAVO_TAVARES_BARONI", "ENDERECO": "AVENIDA_RAIMUNDO_PEREIRA_DE_MAGALHAES_-_DE_1301/1302_A_2599/2600_1720_JARDIM_IRIS_SAO_PAULO_BRASIL", "CIDADE": "SAO_PAULO", "LATITUDE": -23.5044975, "LONGITUDE": -46.717556 }, "geometry": { "type": "Point", "coordinates": [ -46.717556, -23.5044975 ] } },
{ "type": "Feature", "properties": { "CNPJ": 5725807200015, "AGENTE": "NATHALIA_CRISTINA_DOS_SANTOS", "ACAO": "REALIZAR_PRIMEIRA_VISITA_POTENCIAL", "RAZAO_SOCIAL": "57.258.072_VIVIANE_PAPI_PAREDES_DA_SILVA", "ENDERECO": "AVENIDA_RAIMUNDO_PEREIRA_DE_MAGALHAES_1720_JARDIM_IRIS_SAO_PAULO_BRASIL", "CIDADE": "SAO_PAULO", "LATITUDE": -23.5045293, "LONGITUDE": -46.7159039 }, "geometry": { "type": "Point", "coordinates": [ -46.7159039, -23.5045293 ] } },
{ "type": "Feature", "properties": { "CNPJ": 39311433000101, "AGENTE": "NATHALIA_CRISTINA_DOS_SANTOS", "ACAO": "REALIZAR_PRIMEIRA_VISITA_POTENCIAL", "RAZAO_SOCIAL": "DONA_PURPURA_LTDA", "ENDERECO": "AVENIDA_RAIMUNDO_PEREIRA_DE_MAGALHAES_1720_JARDIM_IRIS_SAO_PAULO_BRASIL", "CIDADE": "SAO_PAULO", "LATITUDE": -23.5045293, "LONGITUDE": -46.7159039 }, "geometry": { "type": "Point", "coordinates": [ -46.7159039, -23.5045293 ] } },
{ "type": "Feature", "properties": { "CNPJ": 22458013000141, "AGENTE": "NATHALIA_CRISTINA_DOS_SANTOS", "ACAO": "REALIZAR_PRIMEIRA_VISITA_POTENCIAL", "RAZAO_SOCIAL": "MALUAH_PRODUCOES_LTDA", "ENDERECO": "AVENIDA_RAIMUNDO_PEREIRA_DE_MAGALHAES_1720_JARDIM_IRIS_SAO_PAULO_BRASIL", "CIDADE": "SAO_PAULO", "LATITUDE": -23.5045293, "LONGITUDE": -46.7159039 }, "geometry": { "type": "Point", "coordinates": [ -46.7159039, -23.5045293 ] } },
{ "type": "Feature", "properties": { "CNPJ": 35261538000134, "AGENTE": "NATHALIA_CRISTINA_DOS_SANTOS", "ACAO": "REALIZAR_PRIMEIRA_VISITA_POTENCIAL", "RAZAO_SOCIAL": "TIAGO_RIBEIRO_DA_SILVA", "ENDERECO": "RUA_MARTINHO_PAULINO_DA_SILVA_192_VILA_ARCADIA_SAO_PAULO_BRASIL", "CIDADE": "SAO_PAULO", "LATITUDE": -23.5048591, "LONGITUDE": -46.7039451 }, "geometry": { "type": "Point", "coordinates": [ -46.7039451, -23.5048591 ] } },
{ "type": "Feature", "properties": { "CNPJ": 50033670000182, "AGENTE": "NATHALIA_CRISTINA_DOS_SANTOS", "ACAO": "REALIZAR_PRIMEIRA_VISITA_POTENCIAL", "RAZAO_SOCIAL": "ANDREIA_DE_SOUZA", "ENDERECO": "RUA_SOUSA_FILHO_607_VILA_SANTA_DELFINA_SAO_PAULO_BRASIL", "CIDADE": "SAO_PAULO", "LATITUDE": -23.5049026, "LONGITUDE": -46.7048618 }, "geometry": { "type": "Point", "coordinates": [ -46.7048618, -23.5049026 ] } },
{ "type": "Feature", "properties": { "CNPJ": 49216919000106, "AGENTE": "NATHALIA_CRISTINA_DOS_SANTOS", "ACAO": "REALIZAR_PRIMEIRA_VISITA_POTENCIAL", "RAZAO_SOCIAL": "GDLS_SERVICOS_ADMINISTRATIVOS_E_EVENTOS_LTDA", "ENDERECO": "RUA_CEL_BENTO_BICUDO_1028_PIQUERI_SAO_PAULO_BRASIL", "CIDADE": "SAO_PAULO", "LATITUDE": -23.5053278, "LONGITUDE": -46.7066356 }, "geometry": { "type": "Point", "coordinates": [ -46.7066356, -23.5053278 ] } },
{ "type": "Feature", "properties": { "CNPJ": 36122100000138, "AGENTE": "NATHALIA_CRISTINA_DOS_SANTOS", "ACAO": "REALIZAR_PRIMEIRA_VISITA_POTENCIAL", "RAZAO_SOCIAL": "ABS_REPRESENTACAO_COMERCIAL_LTDA", "ENDERECO": "RUA_CORONEL_BENTO_BICUDO_1028_PIQUERI_SAO_PAULO_BRASIL", "CIDADE": "SAO_PAULO", "LATITUDE": -23.5053278, "LONGITUDE": -46.7066356 }, "geometry": { "type": "Point", "coordinates": [ -46.7066356, -23.5053278 ] } },
{ "type": "Feature", "properties": { "CNPJ": 24220373000136, "AGENTE": "NATHALIA_CRISTINA_DOS_SANTOS", "ACAO": "REALIZAR_PRIMEIRA_VISITA_POTENCIAL", "RAZAO_SOCIAL": "SPCOLLOR_IMP_DISTRI_E_COMERCIO_DE_TINTAS_PARA_IMPRESSORAS_E_ARTIGOS_PARA_ESCRITORIOS", "ENDERECO": "RUA_SOUSA_FILHO_659_VILA_SANTA_DELFINA_SAO_PAULO_BRASIL", "CIDADE": "SAO_PAULO", "LATITUDE": -23.5055936, "LONGITUDE": -46.7047789 }, "geometry": { "type": "Point", "coordinates": [ -46.7047789, -23.5055936 ] } },
{ "type": "Feature", "properties": { "CNPJ": 52575250000153, "AGENTE": "NATHALIA_CRISTINA_DOS_SANTOS", "ACAO": "REALIZAR_PRIMEIRA_VISITA_POTENCIAL", "RAZAO_SOCIAL": "CJM_SOLUCOES_MONTAGENS_LTDA", "ENDERECO": "RUA_PEDRO_CUBAS_86_PIQUERI_SAO_PAULO_BRASIL", "CIDADE": "SAO_PAULO", "LATITUDE": -23.5056524, "LONGITUDE": -46.7109511 }, "geometry": { "type": "Point", "coordinates": [ -46.7109511, -23.5056524 ] } }
]
}
