{
"type": "FeatureCollection",
"name": "NATHALIA_CRISTINA_DOS_SANTOS",
"crs": { "type": "name", "properties": { "name": "urn:ogc:def:crs:OGC:1.3:CRS84" } },
"xy_coordinate_resolution": 1e-15,
"features": [
{ "type": "Feature", "properties": { "CNPJ": 22740330000156, "AGENTE": "NATHALIA_CRISTINA_DOS_SANTOS", "ACAO": "REALIZAR_SEGUNDA_VISITA", "RAZAO_SOCIAL": "ISABEL_DOS_SANTOS_DIAS_RIBEIRO_DOCES_-_DOCES_BEL", "ENDERECO": "AVENIDA_ALEXIOS_JAFET_5_VILA_JARAGUA_SAO_PAULO", "CIDADE": "SAO_PAULO", "LATITUDE": -23.4548633, "LONGITUDE": -46.7492867 }, "geometry": { "type": "Point", "coordinates": [ -46.7492867, -23.4548633 ] } },
{ "type": "Feature", "properties": { "CNPJ": 49656529000157, "AGENTE": "NATHALIA_CRISTINA_DOS_SANTOS", "ACAO": "REALIZAR_SEGUNDA_VISITA", "RAZAO_SOCIAL": "49.656.529_ALINE_SILVA_DO_NASCIMENTO_RIBEIRO_-_STUDIO_LINDAS_PEROLAS", "ENDERECO": "AVENIDA_CANTIDIO_SAMPAIO_7035_JARDIM_BRASILIA_SAO_PAULO", "CIDADE": "SAO_PAULO", "LATITUDE": -23.4392907, "LONGITUDE": -46.7084555 }, "geometry": { "type": "Point", "coordinates": [ -46.7084555, -23.4392907 ] } },
{ "type": "Feature", "properties": { "CNPJ": 12325458000108, "AGENTE": "NATHALIA_CRISTINA_DOS_SANTOS", "ACAO": "REALIZAR_SEGUNDA_VISITA", "RAZAO_SOCIAL": "MARIA_COLORIDA_ROUPAS_E_ACESSORIOS_LTDA_-_MARIA___COLORIDA", "ENDERECO": "AVENIDA_DEPUTADO_CANTIDIO_SAMPAIO_6887_VILA_NOVA_PARADA_SAO_PAULO", "CIDADE": "SAO_PAULO", "LATITUDE": -23.4343864, "LONGITUDE": -46.7194335 }, "geometry": { "type": "Point", "coordinates": [ -46.7194335, -23.4343864 ] } },
{ "type": "Feature", "properties": { "CNPJ": 19404762000181, "AGENTE": "NATHALIA_CRISTINA_DOS_SANTOS", "ACAO": "REALIZAR_SEGUNDA_VISITA", "RAZAO_SOCIAL": "19.404.762_WELINGTON_VERNECK_-_PONT_DO_ACAI", "ENDERECO": "AVENIDA_MINISTRO_PETRONIO_PORTELA_18_MOINHO_VELHO_SAO_PAULO", "CIDADE": "SAO_PAULO", "LATITUDE": -23.4973001, "LONGITUDE": -46.7045813 }, "geometry": { "type": "Point", "coordinates": [ -46.7045813, -23.4973001 ] } },
{ "type": "Feature", "properties": { "CNPJ": 23347882000161, "AGENTE": "NATHALIA_CRISTINA_DOS_SANTOS", "ACAO": "REALIZAR_SEGUNDA_VISITA", "RAZAO_SOCIAL": "BENEDICTO_RUBENS_DOS_SANTOS_MATERIAIS_PARA_CONSTRUCAO_-_GREMAZI", "ENDERECO": "AVENIDA_MINISTRO_PETRONIO_PORTELA_281_MOINHO_VELHO_SAO_PAULO", "CIDADE": "SAO_PAULO", "LATITUDE": -23.4965333, "LONGITUDE": -46.703275 }, "geometry": { "type": "Point", "coordinates": [ -46.703275, -23.4965333 ] } },
{ "type": "Feature", "properties": { "CNPJ": 54102074000168, "AGENTE": "NATHALIA_CRISTINA_DOS_SANTOS", "ACAO": "REALIZAR_SEGUNDA_VISITA", "RAZAO_SOCIAL": "BAZAR_E_PAPELARIA_TAYPAZ_LTDA_-_BAZAR_E_PAPELARIA_TAIPAZ", "ENDERECO": "AVENIDA_RAIMUNDO_PEREIRA_DE_MAGALHAES_12478_JARDIM_MARILU_SAO_PAULO", "CIDADE": "SAO_PAULO", "LATITUDE": -23.4336416, "LONGITUDE": -46.7197416 }, "geometry": { "type": "Point", "coordinates": [ -46.7197416, -23.4336416 ] } },
{ "type": "Feature", "properties": { "CNPJ": 55951427000167, "AGENTE": "NATHALIA_CRISTINA_DOS_SANTOS", "ACAO": "REALIZAR_SEGUNDA_VISITA", "RAZAO_SOCIAL": "CENTRAL_PET_TAIPAS_PET_SHOP_LTDA_-_CENTRAL_PET_TAIPAS", "ENDERECO": "AVENIDA_RAIMUNDO_PEREIRA_DE_MAGALHAES_12530_JARDIM_MARILU_SAO_PAULO", "CIDADE": "SAO_PAULO", "LATITUDE": -23.4330967, "LONGITUDE": -46.7198967 }, "geometry": { "type": "Point", "coordinates": [ -46.7198967, -23.4330967 ] } },
{ "type": "Feature", "properties": { "CNPJ": 45282000000160, "AGENTE": "NATHALIA_CRISTINA_DOS_SANTOS", "ACAO": "REALIZAR_SEGUNDA_VISITA", "RAZAO_SOCIAL": "COLORINDO_TAIPAS_LTDA_-_COLORINDO_TAIPAS", "ENDERECO": "AVENIDA_RAIMUNDO_PEREIRA_DE_MAGALHAES_12675_JARDIM_MARILU_SAO_PAULO", "CIDADE": "SAO_PAULO", "LATITUDE": -23.4323047, "LONGITUDE": -46.7204316 }, "geometry": { "type": "Point", "coordinates": [ -46.7204316, -23.4323047 ] } },
{ "type": "Feature", "properties": { "CNPJ": 48469766000146, "AGENTE": "NATHALIA_CRISTINA_DOS_SANTOS", "ACAO": "REALIZAR_SEGUNDA_VISITA", "RAZAO_SOCIAL": "48.469.766_LETICIA_SENE_SILVA_-_DECOR_MILENIO", "ENDERECO": "ESTRADA_DAS_TAIPAS_754_JARDIM_RINCAO_SAO_PAULO", "CIDADE": "SAO_PAULO", "LATITUDE": -23.4497546, "LONGITUDE": -46.7349823 }, "geometry": { "type": "Point", "coordinates": [ -46.7349823, -23.4497546 ] } },
{ "type": "Feature", "properties": { "CNPJ": 20628117000121, "AGENTE": "NATHALIA_CRISTINA_DOS_SANTOS", "ACAO": "REALIZAR_SEGUNDA_VISITA", "RAZAO_SOCIAL": "EDMILSON_MACIEL_DA_SILVA_65475410453_-_EDMILSON_MACIEL", "ENDERECO": "RUA_ANDRE_CHENIER_35_CONJUNTO_CITY_JARAGUA_SAO_PAULO", "CIDADE": "SAO_PAULO", "LATITUDE": -23.4391367, "LONGITUDE": -46.7372035 }, "geometry": { "type": "Point", "coordinates": [ -46.7372035, -23.4391367 ] } },
{ "type": "Feature", "properties": { "CNPJ": 36319668000143, "AGENTE": "NATHALIA_CRISTINA_DOS_SANTOS", "ACAO": "REALIZAR_SEGUNDA_VISITA", "RAZAO_SOCIAL": "36.319.668_TAYSE_SUELY_DOS_SANTOS_MACEDO_-_CHINELARIA_TAIPAS", "ENDERECO": "RUA_PRAIA_TIPITI-MIRIM_22_JARDIM_MARILU_SAO_PAULO", "CIDADE": "SAO_PAULO", "LATITUDE": -23.4327473, "LONGITUDE": -46.7200217 }, "geometry": { "type": "Point", "coordinates": [ -46.7200217, -23.4327473 ] } },
{ "type": "Feature", "properties": { "CNPJ": 46666518000160, "AGENTE": "NATHALIA_CRISTINA_DOS_SANTOS", "ACAO": "REALIZAR_SEGUNDA_VISITA", "RAZAO_SOCIAL": "CIBELE_DO_CARMO_PRATES_27287189895_-_CELEIRO_BOA_SEMENTE", "ENDERECO": "RUA_PRAIA_TIPITI-MIRIM_23_JARDIM_MARILU_SAO_PAULO", "CIDADE": "SAO_PAULO", "LATITUDE": -23.4328296, "LONGITUDE": -46.719942 }, "geometry": { "type": "Point", "coordinates": [ -46.719942, -23.4328296 ] } },
{ "type": "Feature", "properties": { "CNPJ": 46012766000197, "AGENTE": "NATHALIA_CRISTINA_DOS_SANTOS", "ACAO": "REALIZAR_SEGUNDA_VISITA", "RAZAO_SOCIAL": "MARIA_JOSE_DA_SILVA_NASCIMENTO_73982695449_-_MAY_LOVE_LINGERIE", "ENDERECO": "RUA_PRAIA_TIPITI-MIRIM_25_JARDIM_MARILU_SAO_PAULO", "CIDADE": "SAO_PAULO", "LATITUDE": -23.4327436, "LONGITUDE": -46.719839 }, "geometry": { "type": "Point", "coordinates": [ -46.719839, -23.4327436 ] } }
]
}
