{
"type": "FeatureCollection",
"name": "NOEMIA_DOMINGUES",
"crs": { "type": "name", "properties": { "name": "urn:ogc:def:crs:OGC:1.3:CRS84" } },
"xy_coordinate_resolution": 1e-15,
"features": [
{ "type": "Feature", "properties": { "CNPJ": 38321927000104, "AGENTE": "NOEMIA_DOMINGUES", "ACAO": "REALIZAR_SEGUNDA_VISITA", "RAZAO_SOCIAL": "ARMARINHOS_MOURA", "ENDERECO": "AVENIDA_PAULO_GUILGUER_REIMBERG_1350_JARDIM_SAO_JUDAS_TADEU_SAO_PAULO_BRASIL", "CIDADE": "SAO_PAULO", "LATITUDE": -23.7741569, "LONGITUDE": -46.7055849 }, "geometry": { "type": "Point", "coordinates": [ -46.7055849, -23.7741569 ] } },
{ "type": "Feature", "properties": { "CNPJ": 11568578000165, "AGENTE": "NOEMIA_DOMINGUES", "ACAO": "REALIZAR_SEGUNDA_VISITA", "RAZAO_SOCIAL": "GENTILEZA_TRANSPORTES", "ENDERECO": "RUA_CONSTELACAO_DO_ESCORPIAO_98_JARDIM_CAMPINAS_SAO_PAULO_BRASIL", "CIDADE": "SAO_PAULO", "LATITUDE": -23.7684866, "LONGITUDE": -46.7066541 }, "geometry": { "type": "Point", "coordinates": [ -46.7066541, -23.7684866 ] } },
{ "type": "Feature", "properties": { "CNPJ": 47446793000130, "AGENTE": "NOEMIA_DOMINGUES", "ACAO": "REALIZAR_SEGUNDA_VISITA", "RAZAO_SOCIAL": "JC_CELL", "ENDERECO": "RUA_RAIMUNDA_PEREIRA_DE_AKENXAR_7_JARDIM_VARGINHA_SAO_PAULO_BRASIL", "CIDADE": "SAO_PAULO", "LATITUDE": -23.7844081, "LONGITUDE": -46.6832078 }, "geometry": { "type": "Point", "coordinates": [ -46.6832078, -23.7844081 ] } },
{ "type": "Feature", "properties": { "CNPJ": 46147143000121, "AGENTE": "NOEMIA_DOMINGUES", "ACAO": "REALIZAR_SEGUNDA_VISITA", "RAZAO_SOCIAL": "AGNALDO_ELETRICISTA_E_ENERGIA_SOLAR", "ENDERECO": "RUA_DOUTOR_LUIS_AGOTE_22_JARDIM_NORONHA_SAO_PAULO_BRASIL", "CIDADE": "SAO_PAULO", "LATITUDE": -23.7702929, "LONGITUDE": -46.674655 }, "geometry": { "type": "Point", "coordinates": [ -46.674655, -23.7702929 ] } },
{ "type": "Feature", "properties": { "CNPJ": 12648413000166, "AGENTE": "NOEMIA_DOMINGUES", "ACAO": "REALIZAR_SEGUNDA_VISITA", "RAZAO_SOCIAL": "THEGIRLS", "ENDERECO": "TRAVESSA__EVOLUCAO_DO_PORTO_59_JARDIM_NORONHA_SAO_PAULO_BRASIL", "CIDADE": "SAO_PAULO", "LATITUDE": -23.7723127, "LONGITUDE": -46.6743663 }, "geometry": { "type": "Point", "coordinates": [ -46.6743663, -23.7723127 ] } },
{ "type": "Feature", "properties": { "CNPJ": 44269024000116, "AGENTE": "NOEMIA_DOMINGUES", "ACAO": "REALIZAR_SEGUNDA_VISITA", "RAZAO_SOCIAL": "MON_PETIT", "ENDERECO": "RUA_DAS_PEROBAS_VERDES_11_JARDIM_NORONHA_SAO_PAULO_BRASIL", "CIDADE": "SAO_PAULO", "LATITUDE": -23.77318, "LONGITUDE": -46.6750766 }, "geometry": { "type": "Point", "coordinates": [ -46.6750766, -23.77318 ] } },
{ "type": "Feature", "properties": { "CNPJ": 51978669000193, "AGENTE": "NOEMIA_DOMINGUES", "ACAO": "REALIZAR_SEGUNDA_VISITA", "RAZAO_SOCIAL": "POLLA_CONSTRUCAO", "ENDERECO": "RUA_MAJOR_LUCIO_DIAS_RAMOS_50_JARDIM_NORONHA_SAO_PAULO_BRASIL", "CIDADE": "SAO_PAULO", "LATITUDE": -23.7702427, "LONGITUDE": -46.6805483 }, "geometry": { "type": "Point", "coordinates": [ -46.6805483, -23.7702427 ] } },
{ "type": "Feature", "properties": { "CNPJ": 30145780000129, "AGENTE": "NOEMIA_DOMINGUES", "ACAO": "REALIZAR_SEGUNDA_VISITA", "RAZAO_SOCIAL": "ALESSANDRO_DA_SILVA_COSTA", "ENDERECO": "RUA_GENERAL_CARLOS_DE_PAULA_CHAVES_88_JARDIM_TRES_CORACOES_SAO_PAULO_BRASIL", "CIDADE": "SAO_PAULO", "LATITUDE": -23.7681526, "LONGITUDE": -46.6832326 }, "geometry": { "type": "Point", "coordinates": [ -46.6832326, -23.7681526 ] } },
{ "type": "Feature", "properties": { "CNPJ": 40353481000133, "AGENTE": "NOEMIA_DOMINGUES", "ACAO": "REALIZAR_SEGUNDA_VISITA", "RAZAO_SOCIAL": "BAZAR_E_PAPELARIA_NOVAIS", "ENDERECO": "RUA_GENERAL_RENATO_VARANDAS_DE_AZEVEDO_346_JARDIM_TRES_CORACOES_SAO_PAULO_BRASIL", "CIDADE": "SAO_PAULO", "LATITUDE": -23.7700254, "LONGITUDE": -46.6852715 }, "geometry": { "type": "Point", "coordinates": [ -46.6852715, -23.7700254 ] } },
{ "type": "Feature", "properties": { "CNPJ": 22982586000170, "AGENTE": "NOEMIA_DOMINGUES", "ACAO": "REALIZAR_SEGUNDA_VISITA", "RAZAO_SOCIAL": "LOJA_CUSTOMANIA", "ENDERECO": "RUA_BENEDITA_MARTINS_RAMOS_115_JARDIM_TRES_CORACOES_SAO_PAULO_BRASIL", "CIDADE": "SAO_PAULO", "LATITUDE": -23.7673973, "LONGITUDE": -46.6846111 }, "geometry": { "type": "Point", "coordinates": [ -46.6846111, -23.7673973 ] } },
{ "type": "Feature", "properties": { "CNPJ": 45402512000112, "AGENTE": "NOEMIA_DOMINGUES", "ACAO": "REALIZAR_SEGUNDA_VISITA", "RAZAO_SOCIAL": "DAVI_FRANCISCO", "ENDERECO": "RUA_OLIMPO_SOARES_DE_CARVALHO_772_GRAJAU_SAO_PAULO_BRASIL", "CIDADE": "SAO_PAULO", "LATITUDE": -23.7467646, "LONGITUDE": -46.6844197 }, "geometry": { "type": "Point", "coordinates": [ -46.6844197, -23.7467646 ] } },
{ "type": "Feature", "properties": { "CNPJ": 45623804000185, "AGENTE": "NOEMIA_DOMINGUES", "ACAO": "REALIZAR_SEGUNDA_VISITA", "RAZAO_SOCIAL": "SHEKINAH_CENTRO_ESTETICO", "ENDERECO": "RUA_SAO_LUIS_260_JARDIM_MARANHAO_EMBU_DAS_ARTES_BRASIL", "CIDADE": "EMBU_DAS_ARTES", "LATITUDE": -23.6496071, "LONGITUDE": -46.8560925 }, "geometry": { "type": "Point", "coordinates": [ -46.8560925, -23.6496071 ] } },
{ "type": "Feature", "properties": { "CNPJ": 5469129000167, "AGENTE": "NOEMIA_DOMINGUES", "ACAO": "REALIZAR_SEGUNDA_VISITA", "RAZAO_SOCIAL": "RETIFICA_EMBU", "ENDERECO": "RUA_CASSIO_M_BOY_25_VILA_CERCADO_GRANDE_EMBU_DAS_ARTES_BRASIL", "CIDADE": "EMBU_DAS_ARTES", "LATITUDE": -23.6468874, "LONGITUDE": -46.8467817 }, "geometry": { "type": "Point", "coordinates": [ -46.8467817, -23.6468874 ] } },
{ "type": "Feature", "properties": { "CNPJ": 4694510000167, "AGENTE": "NOEMIA_DOMINGUES", "ACAO": "REALIZAR_SEGUNDA_VISITA", "RAZAO_SOCIAL": "MARANHAO_PAPELARIA", "ENDERECO": "AVENIDA_JOAO_BATISTA_MEDINA_89_CENTRO_EMBU_DAS_ARTES_BRASIL", "CIDADE": "EMBU_DAS_ARTES", "LATITUDE": -23.6499956, "LONGITUDE": -46.8541245 }, "geometry": { "type": "Point", "coordinates": [ -46.8541245, -23.6499956 ] } },
{ "type": "Feature", "properties": { "CNPJ": 24542396000167, "AGENTE": "NOEMIA_DOMINGUES", "ACAO": "REALIZAR_SEGUNDA_VISITA", "RAZAO_SOCIAL": "RR_CARTUCHO_E_INFORMATICA", "ENDERECO": "AVENIDA_JOAO_BATISTA_MEDINA_102_JARDIM_MARANHAO_EMBU_DAS_ARTES_BRASIL", "CIDADE": "EMBU_DAS_ARTES", "LATITUDE": -23.6499597, "LONGITUDE": -46.8541534 }, "geometry": { "type": "Point", "coordinates": [ -46.8541534, -23.6499597 ] } },
{ "type": "Feature", "properties": { "CNPJ": 20531934000167, "AGENTE": "NOEMIA_DOMINGUES", "ACAO": "REALIZAR_SEGUNDA_VISITA", "RAZAO_SOCIAL": "BAR_E_LANCHONETE__BAHIA", "ENDERECO": "AVENIDA_JOAO_BATISTA_MEDINA_134_CENTRO_EMBU_DAS_ARTES_BRASIL", "CIDADE": "EMBU_DAS_ARTES", "LATITUDE": -23.6498791, "LONGITUDE": -46.8543986 }, "geometry": { "type": "Point", "coordinates": [ -46.8543986, -23.6498791 ] } },
{ "type": "Feature", "properties": { "CNPJ": 12132276000102, "AGENTE": "NOEMIA_DOMINGUES", "ACAO": "REALIZAR_SEGUNDA_VISITA", "RAZAO_SOCIAL": "PDPE_ASSISTENCIA", "ENDERECO": "AVENIDA_JOAO_BATISTA_MEDINA_211_CENTRO_EMBU_DAS_ARTES_BRASIL", "CIDADE": "EMBU_DAS_ARTES", "LATITUDE": -23.6502247, "LONGITUDE": -46.8554205 }, "geometry": { "type": "Point", "coordinates": [ -46.8554205, -23.6502247 ] } },
{ "type": "Feature", "properties": { "CNPJ": 37956457000184, "AGENTE": "NOEMIA_DOMINGUES", "ACAO": "REALIZAR_SEGUNDA_VISITA", "RAZAO_SOCIAL": "EMPORIO_GRAOS_E_SABORES", "ENDERECO": "AVENIDA_JOAO_BATISTA_MEDINA_163_JARDIM_MARANHAO_EMBU_DAS_ARTES_BRASIL", "CIDADE": "EMBU_DAS_ARTES", "LATITUDE": -23.6502049, "LONGITUDE": -46.8548347 }, "geometry": { "type": "Point", "coordinates": [ -46.8548347, -23.6502049 ] } },
{ "type": "Feature", "properties": { "CNPJ": 21755239000141, "AGENTE": "NOEMIA_DOMINGUES", "ACAO": "REALIZAR_SEGUNDA_VISITA", "RAZAO_SOCIAL": "MARTINHO_BAR_E_RESTAURANTE", "ENDERECO": "RUA_CANDIDO_PORTINARI_226_VILA_CERCADO_GRANDE_EMBU_DAS_ARTES_BRASIL", "CIDADE": "EMBU_DAS_ARTES", "LATITUDE": -23.6526225, "LONGITUDE": -46.8517671 }, "geometry": { "type": "Point", "coordinates": [ -46.8517671, -23.6526225 ] } },
{ "type": "Feature", "properties": { "CNPJ": 18428066000142, "AGENTE": "NOEMIA_DOMINGUES", "ACAO": "REALIZAR_SEGUNDA_VISITA", "RAZAO_SOCIAL": "CHAVEIRO_DO_GORDO", "ENDERECO": "RUA_CANDIDO_226_VILA_CERCADO_GRANDE_EMBU_DAS_ARTES_BRASIL", "CIDADE": "EMBU_DAS_ARTES", "LATITUDE": -23.6470309, "LONGITUDE": -46.8466106 }, "geometry": { "type": "Point", "coordinates": [ -46.8466106, -23.6470309 ] } },
{ "type": "Feature", "properties": { "CNPJ": 29448402000135, "AGENTE": "NOEMIA_DOMINGUES", "ACAO": "REALIZAR_SEGUNDA_VISITA", "RAZAO_SOCIAL": "THOMISON_ALLAN_OLIVEIRA_SCROCCO", "ENDERECO": "RUACANDIDOPORTINARI_143_CERCADOGRANDE_EMBUDASARTES", "CIDADE": "EMBU_DAS_ARTES", "LATITUDE": -23.6471123, "LONGITUDE": -46.8471328 }, "geometry": { "type": "Point", "coordinates": [ -46.8471328, -23.6471123 ] } },
{ "type": "Feature", "properties": { "CNPJ": 48877155000137, "AGENTE": "NOEMIA_DOMINGUES", "ACAO": "REALIZAR_SEGUNDA_VISITA", "RAZAO_SOCIAL": "M&Y_SERVICOS_E_COMERCIO_LTDA", "ENDERECO": "RUAPAULODOVALE_263_CENTRO_EMBUDASARTES", "CIDADE": "EMBU_DAS_ARTES", "LATITUDE": -23.6471899, "LONGITUDE": -46.8493378 }, "geometry": { "type": "Point", "coordinates": [ -46.8493378, -23.6471899 ] } },
{ "type": "Feature", "properties": { "CNPJ": 72805369000182, "AGENTE": "NOEMIA_DOMINGUES", "ACAO": "REALIZAR_SEGUNDA_VISITA", "RAZAO_SOCIAL": "FARMACIA_HOMEOPATICA_RAIZA_LTDA", "ENDERECO": "RUAPAULODOVALE_289_CENTRO_EMBUDASARTES", "CIDADE": "EMBU_DAS_ARTES", "LATITUDE": -23.6472411, "LONGITUDE": -46.8491025 }, "geometry": { "type": "Point", "coordinates": [ -46.8491025, -23.6472411 ] } },
{ "type": "Feature", "properties": { "CNPJ": 43038116000122, "AGENTE": "NOEMIA_DOMINGUES", "ACAO": "REALIZAR_SEGUNDA_VISITA", "RAZAO_SOCIAL": "DROGARIA_E_PERFUMARIA_CERCADO_GRANDE_LTDA", "ENDERECO": "RUACANDIDOPORTINARI_81_CERCADOGRANDE_EMBUDASARTES", "CIDADE": "EMBU_DAS_ARTES", "LATITUDE": -23.6472748, "LONGITUDE": -46.8476265 }, "geometry": { "type": "Point", "coordinates": [ -46.8476265, -23.6472748 ] } },
{ "type": "Feature", "properties": { "CNPJ": 21090682000140, "AGENTE": "NOEMIA_DOMINGUES", "ACAO": "REALIZAR_SEGUNDA_VISITA", "RAZAO_SOCIAL": "FELIPE_DAS_NEVES_VETTILO_MULTIMARCAS", "ENDERECO": "AVENIDAELIASYAZBEK_1933_TINGIDOR_EMBUDASARTES", "CIDADE": "EMBU_DAS_ARTES", "LATITUDE": -23.6482868, "LONGITUDE": -46.8474912 }, "geometry": { "type": "Point", "coordinates": [ -46.8474912, -23.6482868 ] } },
{ "type": "Feature", "properties": { "CNPJ": 52746820000120, "AGENTE": "NOEMIA_DOMINGUES", "ACAO": "REALIZAR_SEGUNDA_VISITA", "RAZAO_SOCIAL": "SANTA_FE_DO_EMBU_LANCHONETE_E_RESTAURANTE_LTDA", "ENDERECO": "AVENIDAELIASYAZBEK_1836_TINGIDOR_EMBUDASARTES", "CIDADE": "EMBU_DAS_ARTES", "LATITUDE": -23.6484518, "LONGITUDE": -46.8484983 }, "geometry": { "type": "Point", "coordinates": [ -46.8484983, -23.6484518 ] } },
{ "type": "Feature", "properties": { "CNPJ": 74322595000138, "AGENTE": "NOEMIA_DOMINGUES", "ACAO": "REALIZAR_SEGUNDA_VISITA", "RAZAO_SOCIAL": "AUTO_MOTO_ESCOLA_MARKA_S/S_LTDA", "ENDERECO": "AVENIDAELIASYAZBEK_1871_TINGIDOR_EMBUDASARTES", "CIDADE": "EMBU_DAS_ARTES", "LATITUDE": -23.6484615, "LONGITUDE": -46.8481466 }, "geometry": { "type": "Point", "coordinates": [ -46.8481466, -23.6484615 ] } },
{ "type": "Feature", "properties": { "CNPJ": 66796129000166, "AGENTE": "NOEMIA_DOMINGUES", "ACAO": "REALIZAR_SEGUNDA_VISITA", "RAZAO_SOCIAL": "VICENTINI_LANCHONETE_LIMITADA", "ENDERECO": "AVENIDAELIASYAZBEK_1933_TINGIDOR_EMBUDASARTES", "CIDADE": "EMBU_DAS_ARTES", "LATITUDE": -23.6485077, "LONGITUDE": -46.8474632 }, "geometry": { "type": "Point", "coordinates": [ -46.8474632, -23.6485077 ] } },
{ "type": "Feature", "properties": { "CNPJ": 12577879000118, "AGENTE": "NOEMIA_DOMINGUES", "ACAO": "REALIZAR_SEGUNDA_VISITA", "RAZAO_SOCIAL": "ART-FUTURA_COMERCIO_DE_MOVEIS_LTDA", "ENDERECO": "AVENIDAELIASYAZBEK_1900_TINGIDOR_EMBUDASARTES", "CIDADE": "EMBU_DAS_ARTES", "LATITUDE": -23.6486657, "LONGITUDE": -46.8479375 }, "geometry": { "type": "Point", "coordinates": [ -46.8479375, -23.6486657 ] } },
{ "type": "Feature", "properties": { "CNPJ": 3668466000158, "AGENTE": "NOEMIA_DOMINGUES", "ACAO": "REALIZAR_SEGUNDA_VISITA", "RAZAO_SOCIAL": "ALB_COMERCIO_DE_ARMACOES_DE_OCULOS_LTDA", "ENDERECO": "AVENIDAELIASYAZBEK_1529_TINGIDOR_EMBUDASARTES", "CIDADE": "EMBU_DAS_ARTES", "LATITUDE": -23.6486695, "LONGITUDE": -46.8486554 }, "geometry": { "type": "Point", "coordinates": [ -46.8486554, -23.6486695 ] } },
{ "type": "Feature", "properties": { "CNPJ": 22115715000122, "AGENTE": "NOEMIA_DOMINGUES", "ACAO": "REALIZAR_SEGUNDA_VISITA", "RAZAO_SOCIAL": "PAOLA_203_FESTAS_E_EVENTOS_LTDA", "ENDERECO": "AVENIDAJOAOBATISTAMEDINA_80_CENTRO_EMBUDASARTES", "CIDADE": "EMBU_DAS_ARTES", "LATITUDE": -23.6497894, "LONGITUDE": -46.8539833 }, "geometry": { "type": "Point", "coordinates": [ -46.8539833, -23.6497894 ] } },
{ "type": "Feature", "properties": { "CNPJ": 10421104000123, "AGENTE": "NOEMIA_DOMINGUES", "ACAO": "REALIZAR_SEGUNDA_VISITA", "RAZAO_SOCIAL": "KIBELE_CAPEL_MARTINS_-_ARTESANATOS", "ENDERECO": "RUANOSSASENHORADOROSARIO_37_CENTRO_EMBUDASARTES", "CIDADE": "EMBU_DAS_ARTES", "LATITUDE": -23.6502228, "LONGITUDE": -46.8517613 }, "geometry": { "type": "Point", "coordinates": [ -46.8517613, -23.6502228 ] } },
{ "type": "Feature", "properties": { "CNPJ": 6322647000116, "AGENTE": "NOEMIA_DOMINGUES", "ACAO": "REALIZAR_SEGUNDA_VISITA", "RAZAO_SOCIAL": "MOVELARIA_BRASIL_LTDA", "ENDERECO": "RUANOSSASENHORADOROSARIO_57_CENTRO_EMBUDASARTES", "CIDADE": "EMBU_DAS_ARTES", "LATITUDE": -23.6504967, "LONGITUDE": -46.8518417 }, "geometry": { "type": "Point", "coordinates": [ -46.8518417, -23.6504967 ] } },
{ "type": "Feature", "properties": { "CNPJ": 49847258000117, "AGENTE": "NOEMIA_DOMINGUES", "ACAO": "REALIZAR_SEGUNDA_VISITA", "RAZAO_SOCIAL": "RESTAURANTE_E_PIZZARIA_FAMILIA_FULO_DE_EMBU_DAS_ARTES_LTDA", "ENDERECO": "RUADAMATRIZ_72_CENTRO_EMBUDASARTES", "CIDADE": "EMBU_DAS_ARTES", "LATITUDE": -23.6507007, "LONGITUDE": -46.8534633 }, "geometry": { "type": "Point", "coordinates": [ -46.8534633, -23.6507007 ] } },
{ "type": "Feature", "properties": { "CNPJ": 38095321000190, "AGENTE": "NOEMIA_DOMINGUES", "ACAO": "REALIZAR_SEGUNDA_VISITA", "RAZAO_SOCIAL": "HAUS_BURGERS_HAMBURGUERIA_LTDA", "ENDERECO": "RUADAMATRIZ_75_CENTRO_EMBUDASARTES", "CIDADE": "EMBU_DAS_ARTES", "LATITUDE": -23.6508165, "LONGITUDE": -46.8534573 }, "geometry": { "type": "Point", "coordinates": [ -46.8534573, -23.6508165 ] } },
{ "type": "Feature", "properties": { "CNPJ": 37584322000135, "AGENTE": "NOEMIA_DOMINGUES", "ACAO": "REALIZAR_SEGUNDA_VISITA", "RAZAO_SOCIAL": "O_GARIMPO_RESTAURANTE_E_EVENTOS_LTDA", "ENDERECO": "RUADAMATRIZ_136_CENTRO_EMBUDASARTES", "CIDADE": "EMBU_DAS_ARTES", "LATITUDE": -23.6511383, "LONGITUDE": -46.854085 }, "geometry": { "type": "Point", "coordinates": [ -46.854085, -23.6511383 ] } },
{ "type": "Feature", "properties": { "CNPJ": 44426884000116, "AGENTE": "NOEMIA_DOMINGUES", "ACAO": "REALIZAR_SEGUNDA_VISITA", "RAZAO_SOCIAL": "BATERIAS_&_OLEO_MORUMBI_IV_LTDA", "ENDERECO": "AVENIDAELIASYAZBEK_2250_TINGIDOR_EMBUDASARTES", "CIDADE": "EMBU_DAS_ARTES", "LATITUDE": -23.6540734, "LONGITUDE": -46.8516423 }, "geometry": { "type": "Point", "coordinates": [ -46.8516423, -23.6540734 ] } },
{ "type": "Feature", "properties": { "CNPJ": 34046190000108, "AGENTE": "NOEMIA_DOMINGUES", "ACAO": "REALIZAR_SEGUNDA_VISITA", "RAZAO_SOCIAL": "CIRURGICA_PAIXAO_COMERCIO_E_LOCACAO_DE_MATERIAIS_ORTOPEDICOS_LTDA", "ENDERECO": "AVENIDAELIASYAZBEK_2080_TINGIDOR_EMBUDASARTES", "CIDADE": "EMBU_DAS_ARTES", "LATITUDE": -23.652816, "LONGITUDE": -46.8518395 }, "geometry": { "type": "Point", "coordinates": [ -46.8518395, -23.652816 ] } },
{ "type": "Feature", "properties": { "CNPJ": 31448382000144, "AGENTE": "NOEMIA_DOMINGUES", "ACAO": "REALIZAR_SEGUNDA_VISITA", "RAZAO_SOCIAL": "JOAO_SANCHES_TOMAZOLI_47633793805_-_OGIM_SEROQUE", "ENDERECO": "RUAROSAMENDES_911_JARDIMPENHA_SAOPAULO", "CIDADE": "SAO_PAULO", "LATITUDE": -23.50712, "LONGITUDE": -46.4928833 }, "geometry": { "type": "Point", "coordinates": [ -46.4928833, -23.50712 ] } },
{ "type": "Feature", "properties": { "CNPJ": 60855836000108, "AGENTE": "NOEMIA_DOMINGUES", "ACAO": "REALIZAR_SEGUNDA_VISITA", "RAZAO_SOCIAL": "60.855.836_DIOGO_APARECIDO_DE_ARAUJO_-_LINS_BARBER_CLUB", "ENDERECO": "RUAROSAMENDES_869_JARDIMPENHA_SAOPAULO", "CIDADE": "SAO_PAULO", "LATITUDE": -23.5071656, "LONGITUDE": -46.4934488 }, "geometry": { "type": "Point", "coordinates": [ -46.4934488, -23.5071656 ] } },
{ "type": "Feature", "properties": { "CNPJ": 50817495000114, "AGENTE": "NOEMIA_DOMINGUES", "ACAO": "REALIZAR_SEGUNDA_VISITA", "RAZAO_SOCIAL": "LETS_BE_VEGAN_LTDA_-_DR.NATURALE", "ENDERECO": "RUAROSAMENDES_846_JARDIMPENHA_SAOPAULO", "CIDADE": "SAO_PAULO", "LATITUDE": -23.5071835, "LONGITUDE": -46.4936611 }, "geometry": { "type": "Point", "coordinates": [ -46.4936611, -23.5071835 ] } },
{ "type": "Feature", "properties": { "CNPJ": 28632038000104, "AGENTE": "NOEMIA_DOMINGUES", "ACAO": "REALIZAR_SEGUNDA_VISITA", "RAZAO_SOCIAL": "TATIANA_DA_SILVA_JACOUD_34999181886_-_GABY_VARIEDADES", "ENDERECO": "RUAROSAMENDES_827_JARDIMPENHA_SAOPAULO", "CIDADE": "SAO_PAULO", "LATITUDE": -23.507188, "LONGITUDE": -46.4936515 }, "geometry": { "type": "Point", "coordinates": [ -46.4936515, -23.507188 ] } },
{ "type": "Feature", "properties": { "CNPJ": 61491676000110, "AGENTE": "NOEMIA_DOMINGUES", "ACAO": "REALIZAR_SEGUNDA_VISITA", "RAZAO_SOCIAL": "DROGARIA_PONTE_RAZA_LTDA_-_DRO_PONTE_RASA", "ENDERECO": "RUAROSAMENDES_906_JARDIMPENHA_SAOPAULO", "CIDADE": "SAO_PAULO", "LATITUDE": -23.507225, "LONGITUDE": -46.4928962 }, "geometry": { "type": "Point", "coordinates": [ -46.4928962, -23.507225 ] } },
{ "type": "Feature", "properties": { "CNPJ": 40954185000198, "AGENTE": "NOEMIA_DOMINGUES", "ACAO": "REALIZAR_SEGUNDA_VISITA", "RAZAO_SOCIAL": "OTICAS_ATARA_LTDA_-_OTICAS_ATARA", "ENDERECO": "RUAROSAMENDES_840_JARDIMPENHA_SAOPAULO", "CIDADE": "SAO_PAULO", "LATITUDE": -23.507342, "LONGITUDE": -46.4936388 }, "geometry": { "type": "Point", "coordinates": [ -46.4936388, -23.507342 ] } },
{ "type": "Feature", "properties": { "CNPJ": 5902238000126, "AGENTE": "NOEMIA_DOMINGUES", "ACAO": "REALIZAR_SEGUNDA_VISITA", "RAZAO_SOCIAL": "FERNANDO_MARQUES_DOS_SANTOS_BOMBONIERE_-_BOMBONIERI_3_IRMAOS", "ENDERECO": "RUAROSAMENDES_813_JARDIMPENHA_SAOPAULO", "CIDADE": "SAO_PAULO", "LATITUDE": -23.5074108, "LONGITUDE": -46.4939469 }, "geometry": { "type": "Point", "coordinates": [ -46.4939469, -23.5074108 ] } },
{ "type": "Feature", "properties": { "CNPJ": 29653422000148, "AGENTE": "NOEMIA_DOMINGUES", "ACAO": "REALIZAR_SEGUNDA_VISITA", "RAZAO_SOCIAL": "29.653.422_DILZA_HELENA_RUFINO_-_DI_BRECHO", "ENDERECO": "RUAFRANCISCODESOUSAQUEIROZ_335_VILARIOBRANCO_SAOPAULO", "CIDADE": "SAO_PAULO", "LATITUDE": -23.5079166, "LONGITUDE": -46.4934183 }, "geometry": { "type": "Point", "coordinates": [ -46.4934183, -23.5079166 ] } },
{ "type": "Feature", "properties": { "CNPJ": 3132307000134, "AGENTE": "NOEMIA_DOMINGUES", "ACAO": "REALIZAR_SEGUNDA_VISITA", "RAZAO_SOCIAL": "MAZINI_MAIA_MOVEIS_LTDA_-_MAZINI_MOVEIS", "ENDERECO": "AVENIDASAOMIGUEL_4179_VILARIOBRANCO_SAOPAULO", "CIDADE": "SAO_PAULO", "LATITUDE": -23.5079182, "LONGITUDE": -46.4930909 }, "geometry": { "type": "Point", "coordinates": [ -46.4930909, -23.5079182 ] } },
{ "type": "Feature", "properties": { "CNPJ": 22830060000174, "AGENTE": "NOEMIA_DOMINGUES", "ACAO": "REALIZAR_SEGUNDA_VISITA", "RAZAO_SOCIAL": "22.830.060_MARIANA_FELIX_DE_CASTRO_-_ALCATRAO_BURGUER", "ENDERECO": "AVENIDASAOMIGUEL_4185_VILARIOBRANCO_SAOPAULO", "CIDADE": "SAO_PAULO", "LATITUDE": -23.5079364, "LONGITUDE": -46.4929515 }, "geometry": { "type": "Point", "coordinates": [ -46.4929515, -23.5079364 ] } },
{ "type": "Feature", "properties": { "CNPJ": 3342551000202, "AGENTE": "NOEMIA_DOMINGUES", "ACAO": "REALIZAR_SEGUNDA_VISITA", "RAZAO_SOCIAL": "J_G_DO_NASCIMENTO_EMBALAGENS_-_DISTRIBUIDORA_PAULISTA", "ENDERECO": "RUADOUTORJOVIANOPACHECOBEAGUIRRE_274_JARDIMBOMREFUGIO_SAOPAULO", "CIDADE": "SAO_PAULO", "LATITUDE": -23.6338222, "LONGITUDE": -46.7770332 }, "geometry": { "type": "Point", "coordinates": [ -46.7770332, -23.6338222 ] } },
{ "type": "Feature", "properties": { "CNPJ": 96604806000168, "AGENTE": "NOEMIA_DOMINGUES", "ACAO": "REALIZAR_SEGUNDA_VISITA", "RAZAO_SOCIAL": "LANCHONETE_TARCISIOVAZ_LTDA_-_RECANTO_DA_BAHIA", "ENDERECO": "AVENIDADONABELMIRAMARIN_461_PARQUEBRASIL_SAOPAULO", "CIDADE": "SAO_PAULO", "LATITUDE": -23.7353308, "LONGITUDE": -46.6952667 }, "geometry": { "type": "Point", "coordinates": [ -46.6952667, -23.7353308 ] } },
{ "type": "Feature", "properties": { "CNPJ": 20277327000112, "AGENTE": "NOEMIA_DOMINGUES", "ACAO": "REALIZAR_SEGUNDA_VISITA", "RAZAO_SOCIAL": "WELLINGTON_VALE_DA_SILVA_38003874840_-_MONSTER_TEC_GAMES", "ENDERECO": "AVENIDADONABELMIRAMARIN_525_PARQUEBRASIL_SAOPAULO", "CIDADE": "SAO_PAULO", "LATITUDE": -23.73578, "LONGITUDE": -46.694552 }, "geometry": { "type": "Point", "coordinates": [ -46.694552, -23.73578 ] } },
{ "type": "Feature", "properties": { "CNPJ": 4275791000113, "AGENTE": "NOEMIA_DOMINGUES", "ACAO": "REALIZAR_SEGUNDA_VISITA", "RAZAO_SOCIAL": "GOLD_VITA_COMERCIO_DE_PRODUTOS_NATURAIS_LTDA_-_GOLD_VITA", "ENDERECO": "RUAPROFESSOROSCARBARRETOFILHO_79_PARQUEAMERICA_SAOPAULO", "CIDADE": "SAO_PAULO", "LATITUDE": -23.7364093, "LONGITUDE": -46.6931727 }, "geometry": { "type": "Point", "coordinates": [ -46.6931727, -23.7364093 ] } },
{ "type": "Feature", "properties": { "CNPJ": 45893938000116, "AGENTE": "NOEMIA_DOMINGUES", "ACAO": "REALIZAR_SEGUNDA_VISITA", "RAZAO_SOCIAL": "JAILDES_DIAS_DAMASCENO_30001601830_-_JAY_ESPACO__DE_BELEZA", "ENDERECO": "RUABRASILIAPERABRIZOLA_33_PARQUEAMERICA_SAOPAULO", "CIDADE": "SAO_PAULO", "LATITUDE": -23.7364256, "LONGITUDE": -46.6926572 }, "geometry": { "type": "Point", "coordinates": [ -46.6926572, -23.7364256 ] } },
{ "type": "Feature", "properties": { "CNPJ": 31991843000120, "AGENTE": "NOEMIA_DOMINGUES", "ACAO": "REALIZAR_SEGUNDA_VISITA", "RAZAO_SOCIAL": "31.991.843_NILDA_CRUZ_DE_JESUS_-_CANTO_NORDESTINO", "ENDERECO": "RUADOMENICOCIMAROSA_44_PARQUEBRASIL_SAOPAULO", "CIDADE": "SAO_PAULO", "LATITUDE": -23.736638, "LONGITUDE": -46.6945045 }, "geometry": { "type": "Point", "coordinates": [ -46.6945045, -23.736638 ] } },
{ "type": "Feature", "properties": { "CNPJ": 59382925000197, "AGENTE": "NOEMIA_DOMINGUES", "ACAO": "REALIZAR_SEGUNDA_VISITA", "RAZAO_SOCIAL": "59.382.925_THAYNA_BERIGOS_-_THAYNA_BERIGOS", "ENDERECO": "RUANELSONGEBARA_36_PARQUEAMERICA_SAOPAULO", "CIDADE": "SAO_PAULO", "LATITUDE": -23.736796, "LONGITUDE": -46.6929885 }, "geometry": { "type": "Point", "coordinates": [ -46.6929885, -23.736796 ] } },
{ "type": "Feature", "properties": { "CNPJ": 35317374000110, "AGENTE": "NOEMIA_DOMINGUES", "ACAO": "REALIZAR_SEGUNDA_VISITA", "RAZAO_SOCIAL": "35.317.374_EMANUEL_LEVI_FERREIRA_SILVA_-_LEVI_BARBER_SHOP", "ENDERECO": "RUANELSONGEBARA_36_PARQUEAMERICA_SAOPAULO", "CIDADE": "SAO_PAULO", "LATITUDE": -23.7368099, "LONGITUDE": -46.6930083 }, "geometry": { "type": "Point", "coordinates": [ -46.6930083, -23.7368099 ] } },
{ "type": "Feature", "properties": { "CNPJ": 37733638000141, "AGENTE": "NOEMIA_DOMINGUES", "ACAO": "REALIZAR_SEGUNDA_VISITA", "RAZAO_SOCIAL": "KELY_GLEDYS_MENDONCA_MORALEJO_LTDA_-_MAIORES_ESTETICA", "ENDERECO": "AVENIDAGRANDESAOPAULO_98_PARQUEBRASIL_SAOPAULO", "CIDADE": "SAO_PAULO", "LATITUDE": -23.7368549, "LONGITUDE": -46.6953598 }, "geometry": { "type": "Point", "coordinates": [ -46.6953598, -23.7368549 ] } },
{ "type": "Feature", "properties": { "CNPJ": 14422941000128, "AGENTE": "NOEMIA_DOMINGUES", "ACAO": "REALIZAR_SEGUNDA_VISITA", "RAZAO_SOCIAL": "ROSINEIDE_LEMOS_GOMES_DE_CARVALHO_16507520837_-_JKN_COPIAS", "ENDERECO": "RUANELSONGEBARA_50_PARQUEAMERICA_SAOPAULO", "CIDADE": "SAO_PAULO", "LATITUDE": -23.7369381, "LONGITUDE": -46.6929425 }, "geometry": { "type": "Point", "coordinates": [ -46.6929425, -23.7369381 ] } },
{ "type": "Feature", "properties": { "CNPJ": 45626116000179, "AGENTE": "NOEMIA_DOMINGUES", "ACAO": "REALIZAR_SEGUNDA_VISITA", "RAZAO_SOCIAL": "BAZAR_E_PAPELARIA_HATORI_LTDA_-_LOJA_HATORI", "ENDERECO": "AVENIDADONABELMIRAMARIN_783_PARQUEAMERICA_SAOPAULO", "CIDADE": "SAO_PAULO", "LATITUDE": -23.737423, "LONGITUDE": -46.6929077 }, "geometry": { "type": "Point", "coordinates": [ -46.6929077, -23.737423 ] } },
{ "type": "Feature", "properties": { "CNPJ": 12515566000135, "AGENTE": "NOEMIA_DOMINGUES", "ACAO": "REALIZAR_SEGUNDA_VISITA", "RAZAO_SOCIAL": "KLEBER_A._DA_SILVA_MECANICA_-_ROTEIRO_166_GARAGE", "ENDERECO": "RUADOMENICOCIMAROSA_166_PARQUEBRASIL_SAOPAULO", "CIDADE": "SAO_PAULO", "LATITUDE": -23.7374825, "LONGITUDE": -46.6953638 }, "geometry": { "type": "Point", "coordinates": [ -46.6953638, -23.7374825 ] } },
{ "type": "Feature", "properties": { "CNPJ": 36364563000106, "AGENTE": "NOEMIA_DOMINGUES", "ACAO": "REALIZAR_SEGUNDA_VISITA", "RAZAO_SOCIAL": "SIMONE_DE_JESUS_NASCIMENTO_27670659823_-_SIMPLES_PODOLOGIA", "ENDERECO": "RUANICOLAUPAGANINI_181_PARQUEBRASIL_SAOPAULO", "CIDADE": "SAO_PAULO", "LATITUDE": -23.7377931, "LONGITUDE": -46.6969173 }, "geometry": { "type": "Point", "coordinates": [ -46.6969173, -23.7377931 ] } },
{ "type": "Feature", "properties": { "CNPJ": 19140456000185, "AGENTE": "NOEMIA_DOMINGUES", "ACAO": "REALIZAR_SEGUNDA_VISITA", "RAZAO_SOCIAL": "FS_MATERIAL_DE_CONSTRUCAO_LTDA_-_FS_DEPOSITO", "ENDERECO": "AVENIDAGRANDESAOPAULO_2_PARQUEBRASIL_SAOPAULO", "CIDADE": "SAO_PAULO", "LATITUDE": -23.7381056, "LONGITUDE": -46.6963481 }, "geometry": { "type": "Point", "coordinates": [ -46.6963481, -23.7381056 ] } },
{ "type": "Feature", "properties": { "CNPJ": 20019110000102, "AGENTE": "NOEMIA_DOMINGUES", "ACAO": "REALIZAR_SEGUNDA_VISITA", "RAZAO_SOCIAL": "MARCELO_BARBOSA_MOVEIS_PLANEJADOS_-_DOCE_LAR_PLANEJADOS", "ENDERECO": "RUAARTURSARAIVABARBOZA_2_PARQUEAMERICA_SAOPAULO", "CIDADE": "SAO_PAULO", "LATITUDE": -23.7382396, "LONGITUDE": -46.6916731 }, "geometry": { "type": "Point", "coordinates": [ -46.6916731, -23.7382396 ] } },
{ "type": "Feature", "properties": { "CNPJ": 47640502000140, "AGENTE": "NOEMIA_DOMINGUES", "ACAO": "REALIZAR_SEGUNDA_VISITA", "RAZAO_SOCIAL": "PDM_PARCEIROS_DA_MANUTENCAO_LTDA_-_PDM_PRESTACAO__DE_SERVICOS", "ENDERECO": "RUAAFONSOBERNARDOMONTA_145_PARQUEAMERICA_SAOPAULO", "CIDADE": "SAO_PAULO", "LATITUDE": -23.7384299, "LONGITUDE": -46.6877523 }, "geometry": { "type": "Point", "coordinates": [ -46.6877523, -23.7384299 ] } },
{ "type": "Feature", "properties": { "CNPJ": 42670508000147, "AGENTE": "NOEMIA_DOMINGUES", "ACAO": "REALIZAR_SEGUNDA_VISITA", "RAZAO_SOCIAL": "JAQUELINE_PEREIRA_DOS_SANTOS_41585438863_-_JAQUELINE__PEREIRA", "ENDERECO": "RUAHONORIOPRADO_6_JARDIMSANTABARBARA_SAOPAULO", "CIDADE": "SAO_PAULO", "LATITUDE": -23.7392354, "LONGITUDE": -46.685729 }, "geometry": { "type": "Point", "coordinates": [ -46.685729, -23.7392354 ] } },
{ "type": "Feature", "properties": { "CNPJ": 38448364000101, "AGENTE": "NOEMIA_DOMINGUES", "ACAO": "REALIZAR_SEGUNDA_VISITA", "RAZAO_SOCIAL": "MARCIONE_OLIVEIRA_ANDRADE_42861022892_-_CENTRO_AUTOMOTIVO_ANDRADE", "ENDERECO": "AVENIDAPIETRONARDINI_299_PARQUEBRASIL_SAOPAULO", "CIDADE": "SAO_PAULO", "LATITUDE": -23.7394397, "LONGITUDE": -46.6978941 }, "geometry": { "type": "Point", "coordinates": [ -46.6978941, -23.7394397 ] } },
{ "type": "Feature", "properties": { "CNPJ": 43562862000110, "AGENTE": "NOEMIA_DOMINGUES", "ACAO": "REALIZAR_SEGUNDA_VISITA", "RAZAO_SOCIAL": "V._DA_SILVA_FERREIRA_CENTRO_AUTOMOTIVO_-_RIO_CAR_CENTRO_AUTOMOTIVO", "ENDERECO": "AVENIDAGRANDESAOPAULO_429_PARQUEBRASIL_SAOPAULO", "CIDADE": "SAO_PAULO", "LATITUDE": -23.7395451, "LONGITUDE": -46.6974429 }, "geometry": { "type": "Point", "coordinates": [ -46.6974429, -23.7395451 ] } },
{ "type": "Feature", "properties": { "CNPJ": 28853006000120, "AGENTE": "NOEMIA_DOMINGUES", "ACAO": "REALIZAR_SEGUNDA_VISITA", "RAZAO_SOCIAL": "28.853.006_MAX_WELL_SANTOS_SOUSA_-_MAX_WELL_(_LOJA_SOUZA)", "ENDERECO": "RUAJEQUIRITUBA_2282_JARDIMMALIAII_SAOPAULO", "CIDADE": "SAO_PAULO", "LATITUDE": -23.7403542, "LONGITUDE": -46.685685 }, "geometry": { "type": "Point", "coordinates": [ -46.685685, -23.7403542 ] } },
{ "type": "Feature", "properties": { "CNPJ": 41923911000178, "AGENTE": "NOEMIA_DOMINGUES", "ACAO": "REALIZAR_SEGUNDA_VISITA", "RAZAO_SOCIAL": "TABACARIA_E_ADEGA_GOMES_LTDA_-_ADEGA_GOMES", "ENDERECO": "AVENIDAPIETRONARDINI_121_PARQUEBRASIL_SAOPAULO", "CIDADE": "SAO_PAULO", "LATITUDE": -23.740427, "LONGITUDE": -46.6965344 }, "geometry": { "type": "Point", "coordinates": [ -46.6965344, -23.740427 ] } },
{ "type": "Feature", "properties": { "CNPJ": 37502320000150, "AGENTE": "NOEMIA_DOMINGUES", "ACAO": "REALIZAR_SEGUNDA_VISITA", "RAZAO_SOCIAL": "FLAVIO_CORREIA_29516863825_-_E__NOIS_NO_PAI", "ENDERECO": "RUAJEQUIRITUBA_2346_JARDIMMALIAII_SAOPAULO", "CIDADE": "SAO_PAULO", "LATITUDE": -23.7407929, "LONGITUDE": -46.6854583 }, "geometry": { "type": "Point", "coordinates": [ -46.6854583, -23.7407929 ] } },
{ "type": "Feature", "properties": { "CNPJ": 34693347000189, "AGENTE": "NOEMIA_DOMINGUES", "ACAO": "REALIZAR_SEGUNDA_VISITA", "RAZAO_SOCIAL": "MJ_FIBER_TELECOM_LTDA_-_MJ_FIBER", "ENDERECO": "RUAJOAQUIMANTONIOALVES_45_PARQUEPLANALTO_SAOPAULO", "CIDADE": "SAO_PAULO", "LATITUDE": -23.7408024, "LONGITUDE": -46.6909813 }, "geometry": { "type": "Point", "coordinates": [ -46.6909813, -23.7408024 ] } },
{ "type": "Feature", "properties": { "CNPJ": 3813114000149, "AGENTE": "NOEMIA_DOMINGUES", "ACAO": "REALIZAR_SEGUNDA_VISITA", "RAZAO_SOCIAL": "B.A.C.DE_OLIVEIRA_MATERIAIS_-_ELETRO_LOBO", "ENDERECO": "RUAMIRAFLORES_25_PARQUEGRAJAU_SAOPAULO", "CIDADE": "SAO_PAULO", "LATITUDE": -23.7410392, "LONGITUDE": -46.683134 }, "geometry": { "type": "Point", "coordinates": [ -46.683134, -23.7410392 ] } },
{ "type": "Feature", "properties": { "CNPJ": 42853185000127, "AGENTE": "NOEMIA_DOMINGUES", "ACAO": "REALIZAR_SEGUNDA_VISITA", "RAZAO_SOCIAL": "MAXIMINO_BOUTIQUE_LTDA_-_ESPACO__MULHER", "ENDERECO": "RUAJEQUIRITUBA_2432_JARDIMSANTABARBARA_SAOPAULO", "CIDADE": "SAO_PAULO", "LATITUDE": -23.7411486, "LONGITUDE": -46.6844758 }, "geometry": { "type": "Point", "coordinates": [ -46.6844758, -23.7411486 ] } },
{ "type": "Feature", "properties": { "CNPJ": 47567796000122, "AGENTE": "NOEMIA_DOMINGUES", "ACAO": "REALIZAR_SEGUNDA_VISITA", "RAZAO_SOCIAL": "O_REI_DOS_SALGADOS_LTDA_-_O_REI_DOS_SALGADOS", "ENDERECO": "AVENIDADONABELMIRAMARIN_1226_PARQUEAMERICA_SAOPAULO", "CIDADE": "SAO_PAULO", "LATITUDE": -23.7412612, "LONGITUDE": -46.691739 }, "geometry": { "type": "Point", "coordinates": [ -46.691739, -23.7412612 ] } },
{ "type": "Feature", "properties": { "CNPJ": 31443592000140, "AGENTE": "NOEMIA_DOMINGUES", "ACAO": "REALIZAR_SEGUNDA_VISITA", "RAZAO_SOCIAL": "JUCILEIDE_SANTANA_DOS_SANTOS_-_EDE_UTILIDADES", "ENDERECO": "RUAJEQUIRITUBA_2472_JARDIMSANTABARBARA_SAOPAULO", "CIDADE": "SAO_PAULO", "LATITUDE": -23.7412617, "LONGITUDE": -46.6839833 }, "geometry": { "type": "Point", "coordinates": [ -46.6839833, -23.7412617 ] } },
{ "type": "Feature", "properties": { "CNPJ": 1366159000197, "AGENTE": "NOEMIA_DOMINGUES", "ACAO": "REALIZAR_SEGUNDA_VISITA", "RAZAO_SOCIAL": "JRA_SANTOS_CAR_FUNILARIA_E_PINTURA_LTDA_-_JR_A_CAR", "ENDERECO": "RUAEUGENIOGUIDUGLI_1414_PARQUEGRAJAU_SAOPAULO", "CIDADE": "SAO_PAULO", "LATITUDE": -23.7436649, "LONGITUDE": -46.6841481 }, "geometry": { "type": "Point", "coordinates": [ -46.6841481, -23.7436649 ] } },
{ "type": "Feature", "properties": { "CNPJ": 11118365000131, "AGENTE": "NOEMIA_DOMINGUES", "ACAO": "REALIZAR_SEGUNDA_VISITA", "RAZAO_SOCIAL": "MERKA_PAO_E_MERCEARIA_LTDA_-_MERCADO_PAO__E_MERCEARIA", "ENDERECO": "RUAEUGENIOGUIDUGLI_225_PARQUEGRAJAU_SAOPAULO", "CIDADE": "SAO_PAULO", "LATITUDE": -23.7445412, "LONGITUDE": -46.6839075 }, "geometry": { "type": "Point", "coordinates": [ -46.6839075, -23.7445412 ] } },
{ "type": "Feature", "properties": { "CNPJ": 17543169000190, "AGENTE": "NOEMIA_DOMINGUES", "ACAO": "REALIZAR_SEGUNDA_VISITA", "RAZAO_SOCIAL": "GABRIEL_LOPES_DA_SILVA_-_ADEGA_-_ADEGA_DA_PRACA", "ENDERECO": "RUAJARBASDEBARROSGALVAO_89_PARQUEGRAJAU_SAOPAULO", "CIDADE": "SAO_PAULO", "LATITUDE": -23.7448622, "LONGITUDE": -46.6841784 }, "geometry": { "type": "Point", "coordinates": [ -46.6841784, -23.7448622 ] } },
{ "type": "Feature", "properties": { "CNPJ": 8236138000104, "AGENTE": "NOEMIA_DOMINGUES", "ACAO": "REALIZAR_SEGUNDA_VISITA", "RAZAO_SOCIAL": "FREIOS_BATORE_RECONDICIONADORA_DE_PECAS_LTDA_-_FREIOS_BATORE", "ENDERECO": "RUAJOAOMARIODEJESUS_14_PARQUEGRAJAU_SAOPAULO", "CIDADE": "SAO_PAULO", "LATITUDE": -23.7450091, "LONGITUDE": -46.6839846 }, "geometry": { "type": "Point", "coordinates": [ -46.6839846, -23.7450091 ] } },
{ "type": "Feature", "properties": { "CNPJ": 9376388000102, "AGENTE": "NOEMIA_DOMINGUES", "ACAO": "REALIZAR_SEGUNDA_VISITA", "RAZAO_SOCIAL": "V._BRAZ_MERCEARIA_-_V_BRAZ_MERCEARIA", "ENDERECO": "AVENIDAANTONIOCARLOSBENJAMINDOSSANTOS_596_PARQUEGRAJAU_SAOPAULO", "CIDADE": "SAO_PAULO", "LATITUDE": -23.7465192, "LONGITUDE": -46.6955166 }, "geometry": { "type": "Point", "coordinates": [ -46.6955166, -23.7465192 ] } },
{ "type": "Feature", "properties": { "CNPJ": 10465449000189, "AGENTE": "NOEMIA_DOMINGUES", "ACAO": "REALIZAR_SEGUNDA_VISITA", "RAZAO_SOCIAL": "10.465.449_LEIRIANE_ARAUJO_COSTA_-_PET_SHOP_VIDA_ANIMAL", "ENDERECO": "AVENIDADONABELMIRAMARIN_2037_PARQUEAMERICA_SAOPAULO", "CIDADE": "SAO_PAULO", "LATITUDE": -23.746575, "LONGITUDE": -46.6879633 }, "geometry": { "type": "Point", "coordinates": [ -46.6879633, -23.746575 ] } },
{ "type": "Feature", "properties": { "CNPJ": 29236020000148, "AGENTE": "NOEMIA_DOMINGUES", "ACAO": "REALIZAR_SEGUNDA_VISITA", "RAZAO_SOCIAL": "MERCADO_ICARO_LTDA_-_MERCADO_ICARO", "ENDERECO": "RUAJOSEBEZERRAFILHO_1090_PARQUEGRAJAU_SAOPAULO", "CIDADE": "SAO_PAULO", "LATITUDE": -23.7472415, "LONGITUDE": -46.6869701 }, "geometry": { "type": "Point", "coordinates": [ -46.6869701, -23.7472415 ] } },
{ "type": "Feature", "properties": { "CNPJ": 50105412000164, "AGENTE": "NOEMIA_DOMINGUES", "ACAO": "REALIZAR_SEGUNDA_VISITA", "RAZAO_SOCIAL": "VIPER_TEC_TELECOM_LTDA_-_VIPET_TEC", "ENDERECO": "RUAJOSEBEZERRAFILHO_1165_PARQUEGRAJAU_SAOPAULO", "CIDADE": "SAO_PAULO", "LATITUDE": -23.7473636, "LONGITUDE": -46.6862844 }, "geometry": { "type": "Point", "coordinates": [ -46.6862844, -23.7473636 ] } },
{ "type": "Feature", "properties": { "CNPJ": 6022310000193, "AGENTE": "NOEMIA_DOMINGUES", "ACAO": "REALIZAR_SEGUNDA_VISITA", "RAZAO_SOCIAL": "DELTA_ACADEMIA_LTDA_-_DELTA_ACADEMIA", "ENDERECO": "AVENIDADONABELMIRAMARIN_2169_PARQUEAMERICA_SAOPAULO", "CIDADE": "SAO_PAULO", "LATITUDE": -23.7476588, "LONGITUDE": -46.6875442 }, "geometry": { "type": "Point", "coordinates": [ -46.6875442, -23.7476588 ] } },
{ "type": "Feature", "properties": { "CNPJ": 20297130000145, "AGENTE": "NOEMIA_DOMINGUES", "ACAO": "REALIZAR_SEGUNDA_VISITA", "RAZAO_SOCIAL": "EVANDRO_MACHADO_SANTANA_-_E_&_G_MECANICA_AUTOMOTIVA", "ENDERECO": "AVENIDADONABELMIRAMARIN_2171_PARQUEBRASIL_SAOPAULO", "CIDADE": "SAO_PAULO", "LATITUDE": -23.7483407, "LONGITUDE": -46.6875027 }, "geometry": { "type": "Point", "coordinates": [ -46.6875027, -23.7483407 ] } },
{ "type": "Feature", "properties": { "CNPJ": 15103395000125, "AGENTE": "NOEMIA_DOMINGUES", "ACAO": "REALIZAR_SEGUNDA_VISITA", "RAZAO_SOCIAL": "COMERCIO_DE_RADIADORES_PINHEIRO_LTDA_-_RADIADORES_PINHEIRO", "ENDERECO": "RUAOLIMPIOSOARESDECARVALHO_252_PARQUEGRAJAU_SAOPAULO", "CIDADE": "SAO_PAULO", "LATITUDE": -23.7494211, "LONGITUDE": -46.6860086 }, "geometry": { "type": "Point", "coordinates": [ -46.6860086, -23.7494211 ] } },
{ "type": "Feature", "properties": { "CNPJ": 50560486000190, "AGENTE": "NOEMIA_DOMINGUES", "ACAO": "REALIZAR_SEGUNDA_VISITA", "RAZAO_SOCIAL": "50.560.486_LUCAS_SODRE_BALBINO_-_START_PINTURAS", "ENDERECO": "RUAOLIMPIOSOARESDECARVALHO_456_PARQUEGRAJAU_SAOPAULO", "CIDADE": "SAO_PAULO", "LATITUDE": -23.7497736, "LONGITUDE": -46.6866646 }, "geometry": { "type": "Point", "coordinates": [ -46.6866646, -23.7497736 ] } },
{ "type": "Feature", "properties": { "CNPJ": 27644604000127, "AGENTE": "NOEMIA_DOMINGUES", "ACAO": "REALIZAR_SEGUNDA_VISITA", "RAZAO_SOCIAL": "GRAJAU_VISTORIA_VEICULAR_LTDA_-_PRIMEIRA_VISAO__VISTORIA", "ENDERECO": "AVENIDADONABELMIRAMARIN_2541_PARQUEBRASIL_SAOPAULO", "CIDADE": "SAO_PAULO", "LATITUDE": -23.7509657, "LONGITUDE": -46.6879995 }, "geometry": { "type": "Point", "coordinates": [ -46.6879995, -23.7509657 ] } },
{ "type": "Feature", "properties": { "CNPJ": 51867930000188, "AGENTE": "NOEMIA_DOMINGUES", "ACAO": "REALIZAR_SEGUNDA_VISITA", "RAZAO_SOCIAL": "J.C_ESQUADRIAS_DE_ALUMINIO_AQUARAO_LTDA_-_AQUARAO_ESQUADRIAS", "ENDERECO": "AVENIDADONABELMIRAMARIN_2602_PARQUEBRASIL_SAOPAULO", "CIDADE": "SAO_PAULO", "LATITUDE": -23.7515533, "LONGITUDE": -46.688312 }, "geometry": { "type": "Point", "coordinates": [ -46.688312, -23.7515533 ] } },
{ "type": "Feature", "properties": { "CNPJ": 46974181000158, "AGENTE": "NOEMIA_DOMINGUES", "ACAO": "REALIZAR_SEGUNDA_VISITA", "RAZAO_SOCIAL": "MARIA_ISABEL_CALISTO_DA_SILVA_03573112560_-_MARIA_ISABEL", "ENDERECO": "AVENIDADONABELMIRAMARIN_3610_PARQUEBRASIL_SAOPAULO", "CIDADE": "SAO_PAULO", "LATITUDE": -23.75183, "LONGITUDE": -46.68424 }, "geometry": { "type": "Point", "coordinates": [ -46.68424, -23.75183 ] } },
{ "type": "Feature", "properties": { "CNPJ": 2929572000185, "AGENTE": "NOEMIA_DOMINGUES", "ACAO": "REALIZAR_SEGUNDA_VISITA", "RAZAO_SOCIAL": "CENTER_CRISTAL_COMERCIO_DE_MATERIAIS_PARA_CONSTRUCAO_LTDA_-_CENTER_CRISTAL", "ENDERECO": "AVENIDADONABELMIRAMARIN_3891_PARQUEBRASIL_SAOPAULO", "CIDADE": "SAO_PAULO", "LATITUDE": -23.7529786, "LONGITUDE": -46.68165 }, "geometry": { "type": "Point", "coordinates": [ -46.68165, -23.7529786 ] } },
{ "type": "Feature", "properties": { "CNPJ": 32765829000171, "AGENTE": "NOEMIA_DOMINGUES", "ACAO": "REALIZAR_SEGUNDA_VISITA", "RAZAO_SOCIAL": "J.N._VIEIRAS_COMERCIO_DE_GENEROS_ALIMENTICIOS_LTDA_-_FEIJAO__DE_CORDA", "ENDERECO": "RUAANTONIOCOMENALE_363_PARQUECOCAIA_SAOPAULO", "CIDADE": "SAO_PAULO", "LATITUDE": -23.7529868, "LONGITUDE": -46.6809854 }, "geometry": { "type": "Point", "coordinates": [ -46.6809854, -23.7529868 ] } },
{ "type": "Feature", "properties": { "CNPJ": 2342501000181, "AGENTE": "NOEMIA_DOMINGUES", "ACAO": "REALIZAR_SEGUNDA_VISITA", "RAZAO_SOCIAL": "AUTO_MOTO_ESCOLA_COCAIA_SC_LTDA_-_AUTO_MOTO_ESCOLA_LEO_&_GELO", "ENDERECO": "RUAANTONIOCOMENALE_264_CONJUNTOHABITACIONALBRIGADEIROFARIALIMA_SAOPAULO", "CIDADE": "SAO_PAULO", "LATITUDE": -23.7532127, "LONGITUDE": -46.6812827 }, "geometry": { "type": "Point", "coordinates": [ -46.6812827, -23.7532127 ] } },
{ "type": "Feature", "properties": { "CNPJ": 57721522000108, "AGENTE": "NOEMIA_DOMINGUES", "ACAO": "REALIZAR_SEGUNDA_VISITA", "RAZAO_SOCIAL": "57.721.522_MARCELO_SOARES_DOS_SANTOS_-_MK_CELL", "ENDERECO": "AVENIDADONABELMIRAMARIN_3420_PARQUEBRASIL_SAOPAULO", "CIDADE": "SAO_PAULO", "LATITUDE": -23.7532382, "LONGITUDE": -46.6817886 }, "geometry": { "type": "Point", "coordinates": [ -46.6817886, -23.7532382 ] } },
{ "type": "Feature", "properties": { "CNPJ": 40119946000196, "AGENTE": "NOEMIA_DOMINGUES", "ACAO": "REALIZAR_SEGUNDA_VISITA", "RAZAO_SOCIAL": "ALEKSANDRO_DA_SILVA_16571731860_-_LIA_TECIDOS_E_AVIAMENTOS", "ENDERECO": "AVENIDADONABELMIRAMARIN_3610_PARQUEBRASIL_SAOPAULO", "CIDADE": "SAO_PAULO", "LATITUDE": -23.753425, "LONGITUDE": -46.6815167 }, "geometry": { "type": "Point", "coordinates": [ -46.6815167, -23.753425 ] } },
{ "type": "Feature", "properties": { "CNPJ": 27233745000157, "AGENTE": "NOEMIA_DOMINGUES", "ACAO": "REALIZAR_SEGUNDA_VISITA", "RAZAO_SOCIAL": "C_D_PEDROSA_-_PETS_FAMILY", "ENDERECO": "AVENIDADONABELMIRAMARIN_3618_PARQUEBRASIL_SAOPAULO", "CIDADE": "SAO_PAULO", "LATITUDE": -23.7536288, "LONGITUDE": -46.6811587 }, "geometry": { "type": "Point", "coordinates": [ -46.6811587, -23.7536288 ] } },
{ "type": "Feature", "properties": { "CNPJ": 26036019000181, "AGENTE": "NOEMIA_DOMINGUES", "ACAO": "REALIZAR_SEGUNDA_VISITA", "RAZAO_SOCIAL": "CARLOS_HENRIQUE_PACHECO_DA_SILVA_-_AGENCIA_DE_VIAGENS__VAI_VOAR", "ENDERECO": "AVENIDADONABELMIRAMARIN_3560_PARQUEBRASIL_SAOPAULO", "CIDADE": "SAO_PAULO", "LATITUDE": -23.7536961, "LONGITUDE": -46.6808435 }, "geometry": { "type": "Point", "coordinates": [ -46.6808435, -23.7536961 ] } },
{ "type": "Feature", "properties": { "CNPJ": 57779212000136, "AGENTE": "NOEMIA_DOMINGUES", "ACAO": "REALIZAR_SEGUNDA_VISITA", "RAZAO_SOCIAL": "57.779.212_ELAINE_VIEIRA_DA_SILVA_-_ADEGA_VARANDINHA", "ENDERECO": "RUAPORTELADACERDEIRA_316_PARQUECOCAIA_SAOPAULO", "CIDADE": "SAO_PAULO", "LATITUDE": -23.7537004, "LONGITUDE": -46.6797416 }, "geometry": { "type": "Point", "coordinates": [ -46.6797416, -23.7537004 ] } },
{ "type": "Feature", "properties": { "CNPJ": 7777755000146, "AGENTE": "NOEMIA_DOMINGUES", "ACAO": "REALIZAR_SEGUNDA_VISITA", "RAZAO_SOCIAL": "ELIANA_FACILDA_CORREA_AUTOPECAS_-_MECANICA_CARLOS_PINA", "ENDERECO": "RUAJOSEJULIOMENDES_3_PARQUECOCAIA_SAOPAULO", "CIDADE": "SAO_PAULO", "LATITUDE": -23.753735, "LONGITUDE": -46.6803167 }, "geometry": { "type": "Point", "coordinates": [ -46.6803167, -23.753735 ] } },
{ "type": "Feature", "properties": { "CNPJ": 7687136000160, "AGENTE": "NOEMIA_DOMINGUES", "ACAO": "REALIZAR_SEGUNDA_VISITA", "RAZAO_SOCIAL": "LANCHONETE_REHEM_TRES_LTDA_-_LANCHONETE_RHEN", "ENDERECO": "AVENIDADONABELMIRAMARIN_3591_PARQUEBRASIL_SAOPAULO", "CIDADE": "SAO_PAULO", "LATITUDE": -23.7537859, "LONGITUDE": -46.680463 }, "geometry": { "type": "Point", "coordinates": [ -46.680463, -23.7537859 ] } },
{ "type": "Feature", "properties": { "CNPJ": 37643554000117, "AGENTE": "NOEMIA_DOMINGUES", "ACAO": "REALIZAR_SEGUNDA_VISITA", "RAZAO_SOCIAL": "MINIMERCADO_ANABELE_LTDA_-_MINIMERCADO_ANABELE", "ENDERECO": "RUAPORTELADACERDEIRA_88_PARQUECOCAIA_SAOPAULO", "CIDADE": "SAO_PAULO", "LATITUDE": -23.7541562, "LONGITUDE": -46.6796193 }, "geometry": { "type": "Point", "coordinates": [ -46.6796193, -23.7541562 ] } },
{ "type": "Feature", "properties": { "CNPJ": 18464899000169, "AGENTE": "NOEMIA_DOMINGUES", "ACAO": "REALIZAR_SEGUNDA_VISITA", "RAZAO_SOCIAL": "LUCIANE_F._DA_SILVA_LTDA_-_VIP_STORE", "ENDERECO": "RUAPORTELADACERDEIRA_340_PARQUECOCAIA_SAOPAULO", "CIDADE": "SAO_PAULO", "LATITUDE": -23.7541959, "LONGITUDE": -46.6797681 }, "geometry": { "type": "Point", "coordinates": [ -46.6797681, -23.7541959 ] } },
{ "type": "Feature", "properties": { "CNPJ": 41054294000111, "AGENTE": "NOEMIA_DOMINGUES", "ACAO": "REALIZAR_SEGUNDA_VISITA", "RAZAO_SOCIAL": "LEANDRO_BASTOS_NOGUEIRA_31983684805_-_PADARIA_CASA_DOS_PAES", "ENDERECO": "RUASANTACLARAD'OESTE_40_CONJUNTOHABITACIONALBRIGADEIROFARIALIMA_SAOPAULO", "CIDADE": "SAO_PAULO", "LATITUDE": -23.7543605, "LONGITUDE": -46.6807196 }, "geometry": { "type": "Point", "coordinates": [ -46.6807196, -23.7543605 ] } },
{ "type": "Feature", "properties": { "CNPJ": 60786004000179, "AGENTE": "NOEMIA_DOMINGUES", "ACAO": "REALIZAR_SEGUNDA_VISITA", "RAZAO_SOCIAL": "60.786.004_JOSEFA_LUCINEIDE_FERREIRA_DOS_SANTOS_-_PARADA_OBRIGATORIA", "ENDERECO": "AVENIDADONABELMIRAMARIN_3642_PARQUEBRASIL_SAOPAULO", "CIDADE": "SAO_PAULO", "LATITUDE": -23.7544435, "LONGITUDE": -46.680125 }, "geometry": { "type": "Point", "coordinates": [ -46.680125, -23.7544435 ] } },
{ "type": "Feature", "properties": { "CNPJ": 48432813000187, "AGENTE": "NOEMIA_DOMINGUES", "ACAO": "REALIZAR_SEGUNDA_VISITA", "RAZAO_SOCIAL": "48.432.813_WELLINGTON_SOUSA_ALVES_DE_ARAUJO_-_MULT_SMART", "ENDERECO": "AVENIDADONABELMIRAMARIN_3684_PARQUEBRASIL_SAOPAULO", "CIDADE": "SAO_PAULO", "LATITUDE": -23.7547064, "LONGITUDE": -46.6799325 }, "geometry": { "type": "Point", "coordinates": [ -46.6799325, -23.7547064 ] } },
{ "type": "Feature", "properties": { "CNPJ": 47686032000156, "AGENTE": "NOEMIA_DOMINGUES", "ACAO": "REALIZAR_SEGUNDA_VISITA", "RAZAO_SOCIAL": "47.686.032_ANDRESSA_NOVAES_DE_ARAUJO_-_IMPERIO_BURGER", "ENDERECO": "RUAOKINAWA_72_PARQUECOCAIA_SAOPAULO", "CIDADE": "SAO_PAULO", "LATITUDE": -23.75517, "LONGITUDE": -46.6796567 }, "geometry": { "type": "Point", "coordinates": [ -46.6796567, -23.75517 ] } },
{ "type": "Feature", "properties": { "CNPJ": 59213249000128, "AGENTE": "NOEMIA_DOMINGUES", "ACAO": "REALIZAR_SEGUNDA_VISITA", "RAZAO_SOCIAL": "JOSE_ALVES_NOGUEIRA_HIDRAULICA_-_MUNDIAL_ELETRICA", "ENDERECO": "AVENIDADONABELMIRAMARIN_4810_PARQUEBRASIL_SAOPAULO", "CIDADE": "SAO_PAULO", "LATITUDE": -23.7562239, "LONGITUDE": -46.6708444 }, "geometry": { "type": "Point", "coordinates": [ -46.6708444, -23.7562239 ] } },
{ "type": "Feature", "properties": { "CNPJ": 51529003000158, "AGENTE": "NOEMIA_DOMINGUES", "ACAO": "REALIZAR_SEGUNDA_VISITA", "RAZAO_SOCIAL": "CENTER_CARNES_E_ALIMENTOS_LTDA_-_CENTER_CARNES_ELIANA", "ENDERECO": "AVENIDADONABELMIRAMARIN_6002_PARQUEBRASIL_SAOPAULO", "CIDADE": "SAO_PAULO", "LATITUDE": -23.7566118, "LONGITUDE": -46.6677724 }, "geometry": { "type": "Point", "coordinates": [ -46.6677724, -23.7566118 ] } },
{ "type": "Feature", "properties": { "CNPJ": 51426255000151, "AGENTE": "NOEMIA_DOMINGUES", "ACAO": "REALIZAR_SEGUNDA_VISITA", "RAZAO_SOCIAL": "51.426.255_PEDRO_THIAGO_PEREIRA_DOS_SANTOS_-_DOM_HORTI_FRUTI", "ENDERECO": "AVENIDACARLOSBARBOSASANTOS_488_JARDIMLUCELIA_SAOPAULO", "CIDADE": "SAO_PAULO", "LATITUDE": -23.7605527, "LONGITUDE": -46.668581 }, "geometry": { "type": "Point", "coordinates": [ -46.668581, -23.7605527 ] } },
{ "type": "Feature", "properties": { "CNPJ": 40097932000119, "AGENTE": "NOEMIA_DOMINGUES", "ACAO": "REALIZAR_SEGUNDA_VISITA", "RAZAO_SOCIAL": "CAIO_SANTOS_COMERCIO_DE_BEBIDAS_LTDA_-_AGUA_NORONHA", "ENDERECO": "RUAMANUELHIDALGO_46_JARDIMNORONHA_SAOPAULO", "CIDADE": "SAO_PAULO", "LATITUDE": -23.7697557, "LONGITUDE": -46.6752281 }, "geometry": { "type": "Point", "coordinates": [ -46.6752281, -23.7697557 ] } },
{ "type": "Feature", "properties": { "CNPJ": 46644277000158, "AGENTE": "NOEMIA_DOMINGUES", "ACAO": "REALIZAR_SEGUNDA_VISITA", "RAZAO_SOCIAL": "CAROLINE_REGIANE_DA_SILVA_44329316803_-_TIA_MARTA_DOCES", "ENDERECO": "RUAMIGUELSALCEDO_20_JARDIMNORONHA_SAOPAULO", "CIDADE": "SAO_PAULO", "LATITUDE": -23.7712436, "LONGITUDE": -46.6747642 }, "geometry": { "type": "Point", "coordinates": [ -46.6747642, -23.7712436 ] } },
{ "type": "Feature", "properties": { "CNPJ": 17255045000100, "AGENTE": "NOEMIA_DOMINGUES", "ACAO": "REALIZAR_SEGUNDA_VISITA", "RAZAO_SOCIAL": "F.F._BARRETO_MERCADO_E_PADARIA_LTDA_-_MER_ADO_BARRETO", "ENDERECO": "RUAMIGUELSALCEDO_45_JARDIMNORONHA_SAOPAULO", "CIDADE": "SAO_PAULO", "LATITUDE": -23.772, "LONGITUDE": -46.6727593 }, "geometry": { "type": "Point", "coordinates": [ -46.6727593, -23.772 ] } },
{ "type": "Feature", "properties": { "CNPJ": 52708124000120, "AGENTE": "NOEMIA_DOMINGUES", "ACAO": "REALIZAR_SEGUNDA_VISITA", "RAZAO_SOCIAL": "52.708.124_ALEX_BORGES_PEREIRA_-_ZS_DETAILER", "ENDERECO": "RUAMIGUELSALCEDO_369_JARDIMNORONHA_SAOPAULO", "CIDADE": "SAO_PAULO", "LATITUDE": -23.7722023, "LONGITUDE": -46.6727592 }, "geometry": { "type": "Point", "coordinates": [ -46.6727592, -23.7722023 ] } },
{ "type": "Feature", "properties": { "CNPJ": 30924718000135, "AGENTE": "NOEMIA_DOMINGUES", "ACAO": "REALIZAR_SEGUNDA_VISITA", "RAZAO_SOCIAL": "SUPREMACIA_DAS_CARNES_LTDA_-_SUPREMACIA_DA_CARNE", "ENDERECO": "RUAMIGUELSALCEDO_192_JARDIMNORONHA_SAOPAULO", "CIDADE": "SAO_PAULO", "LATITUDE": -23.7731126, "LONGITUDE": -46.6710753 }, "geometry": { "type": "Point", "coordinates": [ -46.6710753, -23.7731126 ] } },
{ "type": "Feature", "properties": { "CNPJ": 58133751000166, "AGENTE": "NOEMIA_DOMINGUES", "ACAO": "REALIZAR_SEGUNDA_VISITA", "RAZAO_SOCIAL": "58.133.751_KARINA_ANDRADE_DOS_SANTOS_-_TOLDOS_WK", "ENDERECO": "AVENIDASANTISTA_27_PARELHEIROS_SAOPAULO", "CIDADE": "SAO_PAULO", "LATITUDE": -23.8250101, "LONGITUDE": -46.7026165 }, "geometry": { "type": "Point", "coordinates": [ -46.7026165, -23.8250101 ] } },
{ "type": "Feature", "properties": { "CNPJ": 11768095000104, "AGENTE": "NOEMIA_DOMINGUES", "ACAO": "REALIZAR_PRIMEIRA_VISITA", "RAZAO_SOCIAL": "AUTOMOTIVO_AZ_LTDA", "ENDERECO": "ESTRADAKIZAEMONTAKEUTI_48_JARDIMCASTILHO_EMBUDASARTES", "CIDADE": "EMBU_DAS_ARTES", "LATITUDE": -23.6438377, "LONGITUDE": -46.8081084 }, "geometry": { "type": "Point", "coordinates": [ -46.8081084, -23.6438377 ] } },
{ "type": "Feature", "properties": { "CNPJ": 65765356000161, "AGENTE": "NOEMIA_DOMINGUES", "ACAO": "REALIZAR_PRIMEIRA_VISITA", "RAZAO_SOCIAL": "ALEJANDRO_ARMELLIN", "ENDERECO": "RUAPAULODOVALE_253_CENTRO_EMBUDASARTES", "CIDADE": "EMBU_DAS_ARTES", "LATITUDE": -23.6473574, "LONGITUDE": -46.8491842 }, "geometry": { "type": "Point", "coordinates": [ -46.8491842, -23.6473574 ] } },
{ "type": "Feature", "properties": { "CNPJ": 10881015000160, "AGENTE": "NOEMIA_DOMINGUES", "ACAO": "REALIZAR_PRIMEIRA_VISITA", "RAZAO_SOCIAL": "TRINITY_MULTI_MARCAS_LTDA", "ENDERECO": "AVENIDAELIASYAZBEK_1836_TINGIDOR_EMBUDASARTES", "CIDADE": "EMBU_DAS_ARTES", "LATITUDE": -23.6485797, "LONGITUDE": -46.8485679 }, "geometry": { "type": "Point", "coordinates": [ -46.8485679, -23.6485797 ] } },
{ "type": "Feature", "properties": { "CNPJ": 5477565000188, "AGENTE": "NOEMIA_DOMINGUES", "ACAO": "REALIZAR_PRIMEIRA_VISITA", "RAZAO_SOCIAL": "CISEL_MAQUINAS_LTDA", "ENDERECO": "AVENIDAELIASYAZBEK_1890_TINGIDOR_EMBUDASARTES", "CIDADE": "EMBU_DAS_ARTES", "LATITUDE": -23.6486133, "LONGITUDE": -46.8480373 }, "geometry": { "type": "Point", "coordinates": [ -46.8480373, -23.6486133 ] } },
{ "type": "Feature", "properties": { "CNPJ": 446297000113, "AGENTE": "NOEMIA_DOMINGUES", "ACAO": "REALIZAR_PRIMEIRA_VISITA", "RAZAO_SOCIAL": "POINT'CAR_COMERCIAL_LTDA", "ENDERECO": "AVENIDAELIASYAZBEK_1933_TINGIDOR_EMBUDASARTES", "CIDADE": "EMBU_DAS_ARTES", "LATITUDE": -23.6490242, "LONGITUDE": -46.8476746 }, "geometry": { "type": "Point", "coordinates": [ -46.8476746, -23.6490242 ] } },
{ "type": "Feature", "properties": { "CNPJ": 14161781000100, "AGENTE": "NOEMIA_DOMINGUES", "ACAO": "REALIZAR_PRIMEIRA_VISITA", "RAZAO_SOCIAL": "PEGASUS_NETWORK_INFORMATICA_LTDA", "ENDERECO": "AVENIDAJOAOBATISTAMEDINA_137_CENTRO_EMBUDASARTES", "CIDADE": "EMBU_DAS_ARTES", "LATITUDE": -23.6500487, "LONGITUDE": -46.854463 }, "geometry": { "type": "Point", "coordinates": [ -46.854463, -23.6500487 ] } },
{ "type": "Feature", "properties": { "CNPJ": 51232594000105, "AGENTE": "NOEMIA_DOMINGUES", "ACAO": "REALIZAR_PRIMEIRA_VISITA", "RAZAO_SOCIAL": "AUTOMOTIVO_AZ_GARAGE_97_LTDA", "ENDERECO": "RUAAUGUSTODEALMEIDABATISTA_100_JARDIMDOCOLEGIO_EMBUDASARTES", "CIDADE": "EMBU_DAS_ARTES", "LATITUDE": -23.6570658, "LONGITUDE": -46.8149105 }, "geometry": { "type": "Point", "coordinates": [ -46.8149105, -23.6570658 ] } },
{ "type": "Feature", "properties": { "CNPJ": 48244490000106, "AGENTE": "NOEMIA_DOMINGUES", "ACAO": "REALIZAR_PRIMEIRA_VISITA", "RAZAO_SOCIAL": "LONG_BEACH_ARENA_LTDA", "ENDERECO": "RUAPRIMEIRODEMAIO_192_PARQUEFRANCISCORIZZO_EMBUDASARTES", "CIDADE": "EMBU_DAS_ARTES", "LATITUDE": -23.6580432, "LONGITUDE": -46.8540779 }, "geometry": { "type": "Point", "coordinates": [ -46.8540779, -23.6580432 ] } },
{ "type": "Feature", "properties": { "CNPJ": 31353102000114, "AGENTE": "NOEMIA_DOMINGUES", "ACAO": "REALIZAR_PRIMEIRA_VISITA", "RAZAO_SOCIAL": "CRIS_CAR_COMERCIO_DE_PECAS_AUTOMOTIVAS_LTDA", "ENDERECO": "AVENIDAELIASYAZBEK_2336_TINGIDOR_EMBUDASARTES", "CIDADE": "EMBU_DAS_ARTES", "LATITUDE": -23.6558509, "LONGITUDE": -46.8515768 }, "geometry": { "type": "Point", "coordinates": [ -46.8515768, -23.6558509 ] } },
{ "type": "Feature", "properties": { "CNPJ": 17062731000164, "AGENTE": "NOEMIA_DOMINGUES", "ACAO": "REALIZAR_PRIMEIRA_VISITA", "RAZAO_SOCIAL": "V_B_DA_SILVA_CELL_LTDA", "ENDERECO": "ESTRADAKIZAEMONTAKEUTI_3289_JARDIMCASTILHO_EMBUDASARTES", "CIDADE": "EMBU_DAS_ARTES", "LATITUDE": -23.6427719, "LONGITUDE": -46.8057607 }, "geometry": { "type": "Point", "coordinates": [ -46.8057607, -23.6427719 ] } },
{ "type": "Feature", "properties": { "CNPJ": 4079838000769, "AGENTE": "NOEMIA_DOMINGUES", "ACAO": "REALIZAR_PRIMEIRA_VISITA", "RAZAO_SOCIAL": "WEST_BOI_-_CARNES_&_DERIVADOS_LTDA", "ENDERECO": "ESTRADAKIZAEMONTAKEUTI_3301_JARDIMCASTILHO_EMBUDASARTES", "CIDADE": "EMBU_DAS_ARTES", "LATITUDE": -23.6428091, "LONGITUDE": -46.8059598 }, "geometry": { "type": "Point", "coordinates": [ -46.8059598, -23.6428091 ] } },
{ "type": "Feature", "properties": { "CNPJ": 60025045000142, "AGENTE": "NOEMIA_DOMINGUES", "ACAO": "REALIZAR_PRIMEIRA_VISITA", "RAZAO_SOCIAL": "DROGARIA_MORIAH_PIRAJUSSARA_LTDA", "ENDERECO": "ESTRADAKIZAEMONTAKEUTI_3267_JARDIMCASTILHO_EMBUDASARTES", "CIDADE": "EMBU_DAS_ARTES", "LATITUDE": -23.642685, "LONGITUDE": -46.8056208 }, "geometry": { "type": "Point", "coordinates": [ -46.8056208, -23.642685 ] } }
]
}
