{
"type": "FeatureCollection",
"name": "NOEMIA_DOMINGUES",
"crs": { "type": "name", "properties": { "name": "urn:ogc:def:crs:OGC:1.3:CRS84" } },
"xy_coordinate_resolution": 1e-15,
"features": [
{ "type": "Feature", "properties": { "CNPJ": 3342551000202, "AGENTE": "NOEMIA_DOMINGUES", "ACAO": "REALIZAR_SEGUNDA_VISITA", "RAZAO_SOCIAL": "J_G_DO_NASCIMENTO_EMBALAGENS_-_DISTRIBUIDORA_PAULISTA", "ENDERECO": "RUADOUTORJOVIANOPACHECOBEAGUIRRE_274_JARDIMBOMREFUGIO_SAOPAULO", "CIDADE": "SAO_PAULO", "LATITUDE": -23.6338222, "LONGITUDE": -46.7770332, "LINK": "#N/D" }, "geometry": { "type": "Point", "coordinates": [ -46.7770332, -23.6338222 ] } },
{ "type": "Feature", "properties": { "CNPJ": 9376388000102, "AGENTE": "NOEMIA_DOMINGUES", "ACAO": "REALIZAR_SEGUNDA_VISITA", "RAZAO_SOCIAL": "V._BRAZ_MERCEARIA_-_V_BRAZ_MERCEARIA", "ENDERECO": "AVENIDAANTONIOCARLOSBENJAMINDOSSANTOS_596_PARQUEGRAJAU_SAOPAULO", "CIDADE": "SAO_PAULO", "LATITUDE": -23.7465192, "LONGITUDE": -46.6955166, "LINK": "#N/D" }, "geometry": { "type": "Point", "coordinates": [ -46.6955166, -23.7465192 ] } },
{ "type": "Feature", "properties": { "CNPJ": 22830060000174, "AGENTE": "NOEMIA_DOMINGUES", "ACAO": "REALIZAR_SEGUNDA_VISITA", "RAZAO_SOCIAL": "22.830.060_MARIANA_FELIX_DE_CASTRO_-_ALCATRAO_BURGUER", "ENDERECO": "AVENIDASAOMIGUEL_4185_VILARIOBRANCO_SAOPAULO", "CIDADE": "SAO_PAULO", "LATITUDE": -23.5079364, "LONGITUDE": -46.4929515, "LINK": "#N/D" }, "geometry": { "type": "Point", "coordinates": [ -46.4929515, -23.5079364 ] } },
{ "type": "Feature", "properties": { "CNPJ": 31448382000144, "AGENTE": "NOEMIA_DOMINGUES", "ACAO": "REALIZAR_SEGUNDA_VISITA", "RAZAO_SOCIAL": "JOAO_SANCHES_TOMAZOLI_47633793805_-_OGIM_SEROQUE", "ENDERECO": "RUAROSAMENDES_911_JARDIMPENHA_SAOPAULO", "CIDADE": "SAO_PAULO", "LATITUDE": -23.50712, "LONGITUDE": -46.4928833, "LINK": "#N/D" }, "geometry": { "type": "Point", "coordinates": [ -46.4928833, -23.50712 ] } },
{ "type": "Feature", "properties": { "CNPJ": 60855836000108, "AGENTE": "NOEMIA_DOMINGUES", "ACAO": "REALIZAR_SEGUNDA_VISITA", "RAZAO_SOCIAL": "60.855.836_DIOGO_APARECIDO_DE_ARAUJO_-_LINS_BARBER_CLUB", "ENDERECO": "RUAROSAMENDES_869_JARDIMPENHA_SAOPAULO", "CIDADE": "SAO_PAULO", "LATITUDE": -23.5071656, "LONGITUDE": -46.4934488, "LINK": "#N/D" }, "geometry": { "type": "Point", "coordinates": [ -46.4934488, -23.5071656 ] } },
{ "type": "Feature", "properties": { "CNPJ": 50817495000114, "AGENTE": "NOEMIA_DOMINGUES", "ACAO": "REALIZAR_SEGUNDA_VISITA", "RAZAO_SOCIAL": "LETS_BE_VEGAN_LTDA_-_DR.NATURALE", "ENDERECO": "RUAROSAMENDES_846_JARDIMPENHA_SAOPAULO", "CIDADE": "SAO_PAULO", "LATITUDE": -23.5071835, "LONGITUDE": -46.4936611, "LINK": "#N/D" }, "geometry": { "type": "Point", "coordinates": [ -46.4936611, -23.5071835 ] } },
{ "type": "Feature", "properties": { "CNPJ": 28632038000104, "AGENTE": "NOEMIA_DOMINGUES", "ACAO": "REALIZAR_SEGUNDA_VISITA", "RAZAO_SOCIAL": "TATIANA_DA_SILVA_JACOUD_34999181886_-_GABY_VARIEDADES", "ENDERECO": "RUAROSAMENDES_827_JARDIMPENHA_SAOPAULO", "CIDADE": "SAO_PAULO", "LATITUDE": -23.507188, "LONGITUDE": -46.4936515, "LINK": "#N/D" }, "geometry": { "type": "Point", "coordinates": [ -46.4936515, -23.507188 ] } },
{ "type": "Feature", "properties": { "CNPJ": 61491676000110, "AGENTE": "NOEMIA_DOMINGUES", "ACAO": "REALIZAR_SEGUNDA_VISITA", "RAZAO_SOCIAL": "DROGARIA_PONTE_RAZA_LTDA_-_DRO_PONTE_RASA", "ENDERECO": "RUAROSAMENDES_906_JARDIMPENHA_SAOPAULO", "CIDADE": "SAO_PAULO", "LATITUDE": -23.507225, "LONGITUDE": -46.4928962, "LINK": "#N/D" }, "geometry": { "type": "Point", "coordinates": [ -46.4928962, -23.507225 ] } },
{ "type": "Feature", "properties": { "CNPJ": 40954185000198, "AGENTE": "NOEMIA_DOMINGUES", "ACAO": "REALIZAR_SEGUNDA_VISITA", "RAZAO_SOCIAL": "OTICAS_ATARA_LTDA_-_OTICAS_ATARA", "ENDERECO": "RUAROSAMENDES_840_JARDIMPENHA_SAOPAULO", "CIDADE": "SAO_PAULO", "LATITUDE": -23.507342, "LONGITUDE": -46.4936388, "LINK": "#N/D" }, "geometry": { "type": "Point", "coordinates": [ -46.4936388, -23.507342 ] } },
{ "type": "Feature", "properties": { "CNPJ": 5902238000126, "AGENTE": "NOEMIA_DOMINGUES", "ACAO": "REALIZAR_SEGUNDA_VISITA", "RAZAO_SOCIAL": "FERNANDO_MARQUES_DOS_SANTOS_BOMBONIERE_-_BOMBONIERI_3_IRMAOS", "ENDERECO": "RUAROSAMENDES_813_JARDIMPENHA_SAOPAULO", "CIDADE": "SAO_PAULO", "LATITUDE": -23.5074108, "LONGITUDE": -46.4939469, "LINK": "#N/D" }, "geometry": { "type": "Point", "coordinates": [ -46.4939469, -23.5074108 ] } },
{ "type": "Feature", "properties": { "CNPJ": 29653422000148, "AGENTE": "NOEMIA_DOMINGUES", "ACAO": "REALIZAR_SEGUNDA_VISITA", "RAZAO_SOCIAL": "29.653.422_DILZA_HELENA_RUFINO_-_DI_BRECHO", "ENDERECO": "RUAFRANCISCODESOUSAQUEIROZ_335_VILARIOBRANCO_SAOPAULO", "CIDADE": "SAO_PAULO", "LATITUDE": -23.5079166, "LONGITUDE": -46.4934183, "LINK": "#N/D" }, "geometry": { "type": "Point", "coordinates": [ -46.4934183, -23.5079166 ] } },
{ "type": "Feature", "properties": { "CNPJ": 3132307000134, "AGENTE": "NOEMIA_DOMINGUES", "ACAO": "REALIZAR_SEGUNDA_VISITA", "RAZAO_SOCIAL": "MAZINI_MAIA_MOVEIS_LTDA_-_MAZINI_MOVEIS", "ENDERECO": "AVENIDASAOMIGUEL_4179_VILARIOBRANCO_SAOPAULO", "CIDADE": "SAO_PAULO", "LATITUDE": -23.5079182, "LONGITUDE": -46.4930909, "LINK": "#N/D" }, "geometry": { "type": "Point", "coordinates": [ -46.4930909, -23.5079182 ] } },
{ "type": "Feature", "properties": { "CNPJ": 4275791000113, "AGENTE": "NOEMIA_DOMINGUES", "ACAO": "REALIZAR_SEGUNDA_VISITA", "RAZAO_SOCIAL": "GOLD_VITA_COMERCIO_DE_PRODUTOS_NATURAIS_LTDA_-_GOLD_VITA", "ENDERECO": "RUAPROFESSOROSCARBARRETOFILHO_79_PARQUEAMERICA_SAOPAULO", "CIDADE": "SAO_PAULO", "LATITUDE": -23.7364093, "LONGITUDE": -46.6931727, "LINK": "#N/D" }, "geometry": { "type": "Point", "coordinates": [ -46.6931727, -23.7364093 ] } },
{ "type": "Feature", "properties": { "CNPJ": 20019110000102, "AGENTE": "NOEMIA_DOMINGUES", "ACAO": "REALIZAR_SEGUNDA_VISITA", "RAZAO_SOCIAL": "MARCELO_BARBOSA_MOVEIS_PLANEJADOS_-_DOCE_LAR_PLANEJADOS", "ENDERECO": "RUAARTURSARAIVABARBOZA_2_PARQUEAMERICA_SAOPAULO", "CIDADE": "SAO_PAULO", "LATITUDE": -23.7382396, "LONGITUDE": -46.6916731, "LINK": "#N/D" }, "geometry": { "type": "Point", "coordinates": [ -46.6916731, -23.7382396 ] } },
{ "type": "Feature", "properties": { "CNPJ": 47640502000140, "AGENTE": "NOEMIA_DOMINGUES", "ACAO": "REALIZAR_SEGUNDA_VISITA", "RAZAO_SOCIAL": "PDM_PARCEIROS_DA_MANUTENCAO_LTDA_-_PDM_PRESTACAO__DE_SERVICOS", "ENDERECO": "RUAAFONSOBERNARDOMONTA_145_PARQUEAMERICA_SAOPAULO", "CIDADE": "SAO_PAULO", "LATITUDE": -23.7384299, "LONGITUDE": -46.6877523, "LINK": "#N/D" }, "geometry": { "type": "Point", "coordinates": [ -46.6877523, -23.7384299 ] } },
{ "type": "Feature", "properties": { "CNPJ": 42670508000147, "AGENTE": "NOEMIA_DOMINGUES", "ACAO": "REALIZAR_SEGUNDA_VISITA", "RAZAO_SOCIAL": "JAQUELINE_PEREIRA_DOS_SANTOS_41585438863_-_JAQUELINE__PEREIRA", "ENDERECO": "RUAHONORIOPRADO_6_JARDIMSANTABARBARA_SAOPAULO", "CIDADE": "SAO_PAULO", "LATITUDE": -23.7392354, "LONGITUDE": -46.685729, "LINK": "#N/D" }, "geometry": { "type": "Point", "coordinates": [ -46.685729, -23.7392354 ] } },
{ "type": "Feature", "properties": { "CNPJ": 47567796000122, "AGENTE": "NOEMIA_DOMINGUES", "ACAO": "REALIZAR_SEGUNDA_VISITA", "RAZAO_SOCIAL": "O_REI_DOS_SALGADOS_LTDA_-_O_REI_DOS_SALGADOS", "ENDERECO": "AVENIDADONABELMIRAMARIN_1226_PARQUEAMERICA_SAOPAULO", "CIDADE": "SAO_PAULO", "LATITUDE": -23.7412612, "LONGITUDE": -46.691739, "LINK": "#N/D" }, "geometry": { "type": "Point", "coordinates": [ -46.691739, -23.7412612 ] } },
{ "type": "Feature", "properties": { "CNPJ": 17543169000190, "AGENTE": "NOEMIA_DOMINGUES", "ACAO": "REALIZAR_SEGUNDA_VISITA", "RAZAO_SOCIAL": "GABRIEL_LOPES_DA_SILVA_-_ADEGA_-_ADEGA_DA_PRACA", "ENDERECO": "RUAJARBASDEBARROSGALVAO_89_PARQUEGRAJAU_SAOPAULO", "CIDADE": "SAO_PAULO", "LATITUDE": -23.7448622, "LONGITUDE": -46.6841784, "LINK": "#N/D" }, "geometry": { "type": "Point", "coordinates": [ -46.6841784, -23.7448622 ] } },
{ "type": "Feature", "properties": { "CNPJ": 10465449000189, "AGENTE": "NOEMIA_DOMINGUES", "ACAO": "REALIZAR_SEGUNDA_VISITA", "RAZAO_SOCIAL": "10.465.449_LEIRIANE_ARAUJO_COSTA_-_PET_SHOP_VIDA_ANIMAL", "ENDERECO": "AVENIDADONABELMIRAMARIN_2037_PARQUEAMERICA_SAOPAULO", "CIDADE": "SAO_PAULO", "LATITUDE": -23.746575, "LONGITUDE": -46.6879633, "LINK": "#N/D" }, "geometry": { "type": "Point", "coordinates": [ -46.6879633, -23.746575 ] } },
{ "type": "Feature", "properties": { "CNPJ": 29236020000148, "AGENTE": "NOEMIA_DOMINGUES", "ACAO": "REALIZAR_SEGUNDA_VISITA", "RAZAO_SOCIAL": "MERCADO_ICARO_LTDA_-_MERCADO_ICARO", "ENDERECO": "RUAJOSEBEZERRAFILHO_1090_PARQUEGRAJAU_SAOPAULO", "CIDADE": "SAO_PAULO", "LATITUDE": -23.7472415, "LONGITUDE": -46.6869701, "LINK": "#N/D" }, "geometry": { "type": "Point", "coordinates": [ -46.6869701, -23.7472415 ] } },
{ "type": "Feature", "properties": { "CNPJ": 50105412000164, "AGENTE": "NOEMIA_DOMINGUES", "ACAO": "REALIZAR_SEGUNDA_VISITA", "RAZAO_SOCIAL": "VIPER_TEC_TELECOM_LTDA_-_VIPET_TEC", "ENDERECO": "RUAJOSEBEZERRAFILHO_1165_PARQUEGRAJAU_SAOPAULO", "CIDADE": "SAO_PAULO", "LATITUDE": -23.7473636, "LONGITUDE": -46.6862844, "LINK": "#N/D" }, "geometry": { "type": "Point", "coordinates": [ -46.6862844, -23.7473636 ] } },
{ "type": "Feature", "properties": { "CNPJ": 6022310000193, "AGENTE": "NOEMIA_DOMINGUES", "ACAO": "REALIZAR_SEGUNDA_VISITA", "RAZAO_SOCIAL": "DELTA_ACADEMIA_LTDA_-_DELTA_ACADEMIA", "ENDERECO": "AVENIDADONABELMIRAMARIN_2169_PARQUEAMERICA_SAOPAULO", "CIDADE": "SAO_PAULO", "LATITUDE": -23.7476588, "LONGITUDE": -46.6875442, "LINK": "#N/D" }, "geometry": { "type": "Point", "coordinates": [ -46.6875442, -23.7476588 ] } },
{ "type": "Feature", "properties": { "CNPJ": 20297130000145, "AGENTE": "NOEMIA_DOMINGUES", "ACAO": "REALIZAR_SEGUNDA_VISITA", "RAZAO_SOCIAL": "EVANDRO_MACHADO_SANTANA_-_E_&_G_MECANICA_AUTOMOTIVA", "ENDERECO": "AVENIDADONABELMIRAMARIN_2171_PARQUEBRASIL_SAOPAULO", "CIDADE": "SAO_PAULO", "LATITUDE": -23.7483407, "LONGITUDE": -46.6875027, "LINK": "#N/D" }, "geometry": { "type": "Point", "coordinates": [ -46.6875027, -23.7483407 ] } },
{ "type": "Feature", "properties": { "CNPJ": 15103395000125, "AGENTE": "NOEMIA_DOMINGUES", "ACAO": "REALIZAR_SEGUNDA_VISITA", "RAZAO_SOCIAL": "COMERCIO_DE_RADIADORES_PINHEIRO_LTDA_-_RADIADORES_PINHEIRO", "ENDERECO": "RUAOLIMPIOSOARESDECARVALHO_252_PARQUEGRAJAU_SAOPAULO", "CIDADE": "SAO_PAULO", "LATITUDE": -23.7494211, "LONGITUDE": -46.6860086, "LINK": "#N/D" }, "geometry": { "type": "Point", "coordinates": [ -46.6860086, -23.7494211 ] } },
{ "type": "Feature", "properties": { "CNPJ": 50560486000190, "AGENTE": "NOEMIA_DOMINGUES", "ACAO": "REALIZAR_SEGUNDA_VISITA", "RAZAO_SOCIAL": "50.560.486_LUCAS_SODRE_BALBINO_-_START_PINTURAS", "ENDERECO": "RUAOLIMPIOSOARESDECARVALHO_456_PARQUEGRAJAU_SAOPAULO", "CIDADE": "SAO_PAULO", "LATITUDE": -23.7497736, "LONGITUDE": -46.6866646, "LINK": "#N/D" }, "geometry": { "type": "Point", "coordinates": [ -46.6866646, -23.7497736 ] } },
{ "type": "Feature", "properties": { "CNPJ": 40119946000196, "AGENTE": "NOEMIA_DOMINGUES", "ACAO": "REALIZAR_SEGUNDA_VISITA", "RAZAO_SOCIAL": "ALEKSANDRO_DA_SILVA_16571731860_-_LIA_TECIDOS_E_AVIAMENTOS", "ENDERECO": "AVENIDADONABELMIRAMARIN_3610_PARQUEBRASIL_SAOPAULO", "CIDADE": "SAO_PAULO", "LATITUDE": -23.753425, "LONGITUDE": -46.6815167, "LINK": "#N/D" }, "geometry": { "type": "Point", "coordinates": [ -46.6815167, -23.753425 ] } },
{ "type": "Feature", "properties": { "CNPJ": 27233745000157, "AGENTE": "NOEMIA_DOMINGUES", "ACAO": "REALIZAR_SEGUNDA_VISITA", "RAZAO_SOCIAL": "C_D_PEDROSA_-_PETS_FAMILY", "ENDERECO": "AVENIDADONABELMIRAMARIN_3618_PARQUEBRASIL_SAOPAULO", "CIDADE": "SAO_PAULO", "LATITUDE": -23.7536288, "LONGITUDE": -46.6811587, "LINK": "#N/D" }, "geometry": { "type": "Point", "coordinates": [ -46.6811587, -23.7536288 ] } },
{ "type": "Feature", "properties": { "CNPJ": 37643554000117, "AGENTE": "NOEMIA_DOMINGUES", "ACAO": "REALIZAR_SEGUNDA_VISITA", "RAZAO_SOCIAL": "MINIMERCADO_ANABELE_LTDA_-_MINIMERCADO_ANABELE", "ENDERECO": "RUAPORTELADACERDEIRA_88_PARQUECOCAIA_SAOPAULO", "CIDADE": "SAO_PAULO", "LATITUDE": -23.7541562, "LONGITUDE": -46.6796193, "LINK": "#N/D" }, "geometry": { "type": "Point", "coordinates": [ -46.6796193, -23.7541562 ] } },
{ "type": "Feature", "properties": { "CNPJ": 47686032000156, "AGENTE": "NOEMIA_DOMINGUES", "ACAO": "REALIZAR_SEGUNDA_VISITA", "RAZAO_SOCIAL": "47.686.032_ANDRESSA_NOVAES_DE_ARAUJO_-_IMPERIO_BURGER", "ENDERECO": "RUAOKINAWA_72_PARQUECOCAIA_SAOPAULO", "CIDADE": "SAO_PAULO", "LATITUDE": -23.75517, "LONGITUDE": -46.6796567, "LINK": "#N/D" }, "geometry": { "type": "Point", "coordinates": [ -46.6796567, -23.75517 ] } },
{ "type": "Feature", "properties": { "CNPJ": 59213249000128, "AGENTE": "NOEMIA_DOMINGUES", "ACAO": "REALIZAR_SEGUNDA_VISITA", "RAZAO_SOCIAL": "JOSE_ALVES_NOGUEIRA_HIDRAULICA_-_MUNDIAL_ELETRICA", "ENDERECO": "AVENIDADONABELMIRAMARIN_4810_PARQUEBRASIL_SAOPAULO", "CIDADE": "SAO_PAULO", "LATITUDE": -23.7562239, "LONGITUDE": -46.6708444, "LINK": "#N/D" }, "geometry": { "type": "Point", "coordinates": [ -46.6708444, -23.7562239 ] } },
{ "type": "Feature", "properties": { "CNPJ": 51529003000158, "AGENTE": "NOEMIA_DOMINGUES", "ACAO": "REALIZAR_SEGUNDA_VISITA", "RAZAO_SOCIAL": "CENTER_CARNES_E_ALIMENTOS_LTDA_-_CENTER_CARNES_ELIANA", "ENDERECO": "AVENIDADONABELMIRAMARIN_6002_PARQUEBRASIL_SAOPAULO", "CIDADE": "SAO_PAULO", "LATITUDE": -23.7566118, "LONGITUDE": -46.6677724, "LINK": "#N/D" }, "geometry": { "type": "Point", "coordinates": [ -46.6677724, -23.7566118 ] } },
{ "type": "Feature", "properties": { "CNPJ": 51426255000151, "AGENTE": "NOEMIA_DOMINGUES", "ACAO": "REALIZAR_SEGUNDA_VISITA", "RAZAO_SOCIAL": "51.426.255_PEDRO_THIAGO_PEREIRA_DOS_SANTOS_-_DOM_HORTI_FRUTI", "ENDERECO": "AVENIDACARLOSBARBOSASANTOS_488_JARDIMLUCELIA_SAOPAULO", "CIDADE": "SAO_PAULO", "LATITUDE": -23.7605527, "LONGITUDE": -46.668581, "LINK": "#N/D" }, "geometry": { "type": "Point", "coordinates": [ -46.668581, -23.7605527 ] } },
{ "type": "Feature", "properties": { "CNPJ": 40097932000119, "AGENTE": "NOEMIA_DOMINGUES", "ACAO": "REALIZAR_SEGUNDA_VISITA", "RAZAO_SOCIAL": "CAIO_SANTOS_COMERCIO_DE_BEBIDAS_LTDA_-_AGUA_NORONHA", "ENDERECO": "RUAMANUELHIDALGO_46_JARDIMNORONHA_SAOPAULO", "CIDADE": "SAO_PAULO", "LATITUDE": -23.7697557, "LONGITUDE": -46.6752281, "LINK": "#N/D" }, "geometry": { "type": "Point", "coordinates": [ -46.6752281, -23.7697557 ] } },
{ "type": "Feature", "properties": { "CNPJ": 46644277000158, "AGENTE": "NOEMIA_DOMINGUES", "ACAO": "REALIZAR_SEGUNDA_VISITA", "RAZAO_SOCIAL": "CAROLINE_REGIANE_DA_SILVA_44329316803_-_TIA_MARTA_DOCES", "ENDERECO": "RUAMIGUELSALCEDO_20_JARDIMNORONHA_SAOPAULO", "CIDADE": "SAO_PAULO", "LATITUDE": -23.7712436, "LONGITUDE": -46.6747642, "LINK": "#N/D" }, "geometry": { "type": "Point", "coordinates": [ -46.6747642, -23.7712436 ] } },
{ "type": "Feature", "properties": { "CNPJ": 17255045000100, "AGENTE": "NOEMIA_DOMINGUES", "ACAO": "REALIZAR_SEGUNDA_VISITA", "RAZAO_SOCIAL": "F.F._BARRETO_MERCADO_E_PADARIA_LTDA_-_MER_ADO_BARRETO", "ENDERECO": "RUAMIGUELSALCEDO_45_JARDIMNORONHA_SAOPAULO", "CIDADE": "SAO_PAULO", "LATITUDE": -23.772, "LONGITUDE": -46.6727593, "LINK": "#N/D" }, "geometry": { "type": "Point", "coordinates": [ -46.6727593, -23.772 ] } },
{ "type": "Feature", "properties": { "CNPJ": 52708124000120, "AGENTE": "NOEMIA_DOMINGUES", "ACAO": "REALIZAR_SEGUNDA_VISITA", "RAZAO_SOCIAL": "52.708.124_ALEX_BORGES_PEREIRA_-_ZS_DETAILER", "ENDERECO": "RUAMIGUELSALCEDO_369_JARDIMNORONHA_SAOPAULO", "CIDADE": "SAO_PAULO", "LATITUDE": -23.7722023, "LONGITUDE": -46.6727592, "LINK": "#N/D" }, "geometry": { "type": "Point", "coordinates": [ -46.6727592, -23.7722023 ] } },
{ "type": "Feature", "properties": { "CNPJ": 30924718000135, "AGENTE": "NOEMIA_DOMINGUES", "ACAO": "REALIZAR_SEGUNDA_VISITA", "RAZAO_SOCIAL": "SUPREMACIA_DAS_CARNES_LTDA_-_SUPREMACIA_DA_CARNE", "ENDERECO": "RUAMIGUELSALCEDO_192_JARDIMNORONHA_SAOPAULO", "CIDADE": "SAO_PAULO", "LATITUDE": -23.7731126, "LONGITUDE": -46.6710753, "LINK": "#N/D" }, "geometry": { "type": "Point", "coordinates": [ -46.6710753, -23.7731126 ] } },
{ "type": "Feature", "properties": { "CNPJ": 58133751000166, "AGENTE": "NOEMIA_DOMINGUES", "ACAO": "REALIZAR_SEGUNDA_VISITA", "RAZAO_SOCIAL": "58.133.751_KARINA_ANDRADE_DOS_SANTOS_-_TOLDOS_WK", "ENDERECO": "AVENIDASANTISTA_27_PARELHEIROS_SAOPAULO", "CIDADE": "SAO_PAULO", "LATITUDE": -23.8250101, "LONGITUDE": -46.7026165, "LINK": "#N/D" }, "geometry": { "type": "Point", "coordinates": [ -46.7026165, -23.8250101 ] } },
{ "type": "Feature", "properties": { "CNPJ": 11768095000104, "AGENTE": "NOEMIA_DOMINGUES", "ACAO": "URGENTE_REALIZAR_PRIMEIRA_VISITA", "RAZAO_SOCIAL": "AUTOMOTIVO_AZ_LTDA", "ENDERECO": "ESTRADAKIZAEMONTAKEUTI_48_JARDIMCASTILHO_EMBUDASARTES", "CIDADE": "EMBU_DAS_ARTES", "LATITUDE": -23.6438377, "LONGITUDE": -46.8081084, "LINK": "#N/D" }, "geometry": { "type": "Point", "coordinates": [ -46.8081084, -23.6438377 ] } },
{ "type": "Feature", "properties": { "CNPJ": 65765356000161, "AGENTE": "NOEMIA_DOMINGUES", "ACAO": "URGENTE_REALIZAR_PRIMEIRA_VISITA", "RAZAO_SOCIAL": "ALEJANDRO_ARMELLIN", "ENDERECO": "RUAPAULODOVALE_253_CENTRO_EMBUDASARTES", "CIDADE": "EMBU_DAS_ARTES", "LATITUDE": -23.6473574, "LONGITUDE": -46.8491842, "LINK": "#N/D" }, "geometry": { "type": "Point", "coordinates": [ -46.8491842, -23.6473574 ] } },
{ "type": "Feature", "properties": { "CNPJ": 10881015000160, "AGENTE": "NOEMIA_DOMINGUES", "ACAO": "URGENTE_REALIZAR_PRIMEIRA_VISITA", "RAZAO_SOCIAL": "TRINITY_MULTI_MARCAS_LTDA", "ENDERECO": "AVENIDAELIASYAZBEK_1836_TINGIDOR_EMBUDASARTES", "CIDADE": "EMBU_DAS_ARTES", "LATITUDE": -23.6485797, "LONGITUDE": -46.8485679, "LINK": "#N/D" }, "geometry": { "type": "Point", "coordinates": [ -46.8485679, -23.6485797 ] } },
{ "type": "Feature", "properties": { "CNPJ": 5477565000188, "AGENTE": "NOEMIA_DOMINGUES", "ACAO": "URGENTE_REALIZAR_PRIMEIRA_VISITA", "RAZAO_SOCIAL": "CISEL_MAQUINAS_LTDA", "ENDERECO": "AVENIDAELIASYAZBEK_1890_TINGIDOR_EMBUDASARTES", "CIDADE": "EMBU_DAS_ARTES", "LATITUDE": -23.6486133, "LONGITUDE": -46.8480373, "LINK": "#N/D" }, "geometry": { "type": "Point", "coordinates": [ -46.8480373, -23.6486133 ] } },
{ "type": "Feature", "properties": { "CNPJ": 446297000113, "AGENTE": "NOEMIA_DOMINGUES", "ACAO": "URGENTE_REALIZAR_PRIMEIRA_VISITA", "RAZAO_SOCIAL": "POINT'CAR_COMERCIAL_LTDA", "ENDERECO": "AVENIDAELIASYAZBEK_1933_TINGIDOR_EMBUDASARTES", "CIDADE": "EMBU_DAS_ARTES", "LATITUDE": -23.6490242, "LONGITUDE": -46.8476746, "LINK": "#N/D" }, "geometry": { "type": "Point", "coordinates": [ -46.8476746, -23.6490242 ] } },
{ "type": "Feature", "properties": { "CNPJ": 14161781000100, "AGENTE": "NOEMIA_DOMINGUES", "ACAO": "URGENTE_REALIZAR_PRIMEIRA_VISITA", "RAZAO_SOCIAL": "PEGASUS_NETWORK_INFORMATICA_LTDA", "ENDERECO": "AVENIDAJOAOBATISTAMEDINA_137_CENTRO_EMBUDASARTES", "CIDADE": "EMBU_DAS_ARTES", "LATITUDE": -23.6500487, "LONGITUDE": -46.854463, "LINK": "#N/D" }, "geometry": { "type": "Point", "coordinates": [ -46.854463, -23.6500487 ] } },
{ "type": "Feature", "properties": { "CNPJ": 51232594000105, "AGENTE": "NOEMIA_DOMINGUES", "ACAO": "URGENTE_REALIZAR_PRIMEIRA_VISITA", "RAZAO_SOCIAL": "AUTOMOTIVO_AZ_GARAGE_97_LTDA", "ENDERECO": "RUAAUGUSTODEALMEIDABATISTA_100_JARDIMDOCOLEGIO_EMBUDASARTES", "CIDADE": "EMBU_DAS_ARTES", "LATITUDE": -23.6570658, "LONGITUDE": -46.8149105, "LINK": "#N/D" }, "geometry": { "type": "Point", "coordinates": [ -46.8149105, -23.6570658 ] } },
{ "type": "Feature", "properties": { "CNPJ": 48244490000106, "AGENTE": "NOEMIA_DOMINGUES", "ACAO": "URGENTE_REALIZAR_PRIMEIRA_VISITA", "RAZAO_SOCIAL": "LONG_BEACH_ARENA_LTDA", "ENDERECO": "RUAPRIMEIRODEMAIO_192_PARQUEFRANCISCORIZZO_EMBUDASARTES", "CIDADE": "EMBU_DAS_ARTES", "LATITUDE": -23.6580432, "LONGITUDE": -46.8540779, "LINK": "#N/D" }, "geometry": { "type": "Point", "coordinates": [ -46.8540779, -23.6580432 ] } },
{ "type": "Feature", "properties": { "CNPJ": 31353102000114, "AGENTE": "NOEMIA_DOMINGUES", "ACAO": "URGENTE_REALIZAR_PRIMEIRA_VISITA", "RAZAO_SOCIAL": "CRIS_CAR_COMERCIO_DE_PECAS_AUTOMOTIVAS_LTDA", "ENDERECO": "AVENIDAELIASYAZBEK_2336_TINGIDOR_EMBUDASARTES", "CIDADE": "EMBU_DAS_ARTES", "LATITUDE": -23.6558509, "LONGITUDE": -46.8515768, "LINK": "#N/D" }, "geometry": { "type": "Point", "coordinates": [ -46.8515768, -23.6558509 ] } },
{ "type": "Feature", "properties": { "CNPJ": 17062731000164, "AGENTE": "NOEMIA_DOMINGUES", "ACAO": "URGENTE_REALIZAR_PRIMEIRA_VISITA", "RAZAO_SOCIAL": "V_B_DA_SILVA_CELL_LTDA", "ENDERECO": "ESTRADAKIZAEMONTAKEUTI_3289_JARDIMCASTILHO_EMBUDASARTES", "CIDADE": "EMBU_DAS_ARTES", "LATITUDE": -23.6427719, "LONGITUDE": -46.8057607, "LINK": "#N/D" }, "geometry": { "type": "Point", "coordinates": [ -46.8057607, -23.6427719 ] } },
{ "type": "Feature", "properties": { "CNPJ": 4079838000769, "AGENTE": "NOEMIA_DOMINGUES", "ACAO": "URGENTE_REALIZAR_PRIMEIRA_VISITA", "RAZAO_SOCIAL": "WEST_BOI_-_CARNES_&_DERIVADOS_LTDA", "ENDERECO": "ESTRADAKIZAEMONTAKEUTI_3301_JARDIMCASTILHO_EMBUDASARTES", "CIDADE": "EMBU_DAS_ARTES", "LATITUDE": -23.6428091, "LONGITUDE": -46.8059598, "LINK": "#N/D" }, "geometry": { "type": "Point", "coordinates": [ -46.8059598, -23.6428091 ] } },
{ "type": "Feature", "properties": { "CNPJ": 60025045000142, "AGENTE": "NOEMIA_DOMINGUES", "ACAO": "URGENTE_REALIZAR_PRIMEIRA_VISITA", "RAZAO_SOCIAL": "DROGARIA_MORIAH_PIRAJUSSARA_LTDA", "ENDERECO": "ESTRADAKIZAEMONTAKEUTI_3267_JARDIMCASTILHO_EMBUDASARTES", "CIDADE": "EMBU_DAS_ARTES", "LATITUDE": -23.642685, "LONGITUDE": -46.8056208, "LINK": "#N/D" }, "geometry": { "type": "Point", "coordinates": [ -46.8056208, -23.642685 ] } },
{ "type": "Feature", "properties": { "CNPJ": 29448402000135, "AGENTE": "NOEMIA_DOMINGUES", "ACAO": "URGENTE_REALIZAR_SEGUNDA_VISITA", "RAZAO_SOCIAL": "THOMISON_ALLAN_OLIVEIRA_SCROCCO", "ENDERECO": "RUACANDIDOPORTINARI_143_CERCADOGRANDE_EMBUDASARTES", "CIDADE": "EMBU_DAS_ARTES", "LATITUDE": -23.6471123, "LONGITUDE": -46.8471328, "LINK": "#N/D" }, "geometry": { "type": "Point", "coordinates": [ -46.8471328, -23.6471123 ] } },
{ "type": "Feature", "properties": { "CNPJ": 48877155000137, "AGENTE": "NOEMIA_DOMINGUES", "ACAO": "URGENTE_REALIZAR_SEGUNDA_VISITA", "RAZAO_SOCIAL": "M&Y_SERVICOS_E_COMERCIO_LTDA", "ENDERECO": "RUAPAULODOVALE_263_CENTRO_EMBUDASARTES", "CIDADE": "EMBU_DAS_ARTES", "LATITUDE": -23.6471899, "LONGITUDE": -46.8493378, "LINK": "#N/D" }, "geometry": { "type": "Point", "coordinates": [ -46.8493378, -23.6471899 ] } },
{ "type": "Feature", "properties": { "CNPJ": 72805369000182, "AGENTE": "NOEMIA_DOMINGUES", "ACAO": "URGENTE_REALIZAR_SEGUNDA_VISITA", "RAZAO_SOCIAL": "FARMACIA_HOMEOPATICA_RAIZA_LTDA", "ENDERECO": "RUAPAULODOVALE_289_CENTRO_EMBUDASARTES", "CIDADE": "EMBU_DAS_ARTES", "LATITUDE": -23.6472411, "LONGITUDE": -46.8491025, "LINK": "#N/D" }, "geometry": { "type": "Point", "coordinates": [ -46.8491025, -23.6472411 ] } },
{ "type": "Feature", "properties": { "CNPJ": 43038116000122, "AGENTE": "NOEMIA_DOMINGUES", "ACAO": "URGENTE_REALIZAR_SEGUNDA_VISITA", "RAZAO_SOCIAL": "DROGARIA_E_PERFUMARIA_CERCADO_GRANDE_LTDA", "ENDERECO": "RUACANDIDOPORTINARI_81_CERCADOGRANDE_EMBUDASARTES", "CIDADE": "EMBU_DAS_ARTES", "LATITUDE": -23.6472748, "LONGITUDE": -46.8476265, "LINK": "#N/D" }, "geometry": { "type": "Point", "coordinates": [ -46.8476265, -23.6472748 ] } },
{ "type": "Feature", "properties": { "CNPJ": 21090682000140, "AGENTE": "NOEMIA_DOMINGUES", "ACAO": "URGENTE_REALIZAR_SEGUNDA_VISITA", "RAZAO_SOCIAL": "FELIPE_DAS_NEVES_VETTILO_MULTIMARCAS", "ENDERECO": "AVENIDAELIASYAZBEK_1933_TINGIDOR_EMBUDASARTES", "CIDADE": "EMBU_DAS_ARTES", "LATITUDE": -23.6482868, "LONGITUDE": -46.8474912, "LINK": "#N/D" }, "geometry": { "type": "Point", "coordinates": [ -46.8474912, -23.6482868 ] } },
{ "type": "Feature", "properties": { "CNPJ": 52746820000120, "AGENTE": "NOEMIA_DOMINGUES", "ACAO": "URGENTE_REALIZAR_SEGUNDA_VISITA", "RAZAO_SOCIAL": "SANTA_FE_DO_EMBU_LANCHONETE_E_RESTAURANTE_LTDA", "ENDERECO": "AVENIDAELIASYAZBEK_1836_TINGIDOR_EMBUDASARTES", "CIDADE": "EMBU_DAS_ARTES", "LATITUDE": -23.6484518, "LONGITUDE": -46.8484983, "LINK": "#N/D" }, "geometry": { "type": "Point", "coordinates": [ -46.8484983, -23.6484518 ] } },
{ "type": "Feature", "properties": { "CNPJ": 74322595000138, "AGENTE": "NOEMIA_DOMINGUES", "ACAO": "URGENTE_REALIZAR_SEGUNDA_VISITA", "RAZAO_SOCIAL": "AUTO_MOTO_ESCOLA_MARKA_S/S_LTDA", "ENDERECO": "AVENIDAELIASYAZBEK_1871_TINGIDOR_EMBUDASARTES", "CIDADE": "EMBU_DAS_ARTES", "LATITUDE": -23.6484615, "LONGITUDE": -46.8481466, "LINK": "#N/D" }, "geometry": { "type": "Point", "coordinates": [ -46.8481466, -23.6484615 ] } },
{ "type": "Feature", "properties": { "CNPJ": 66796129000166, "AGENTE": "NOEMIA_DOMINGUES", "ACAO": "URGENTE_REALIZAR_SEGUNDA_VISITA", "RAZAO_SOCIAL": "VICENTINI_LANCHONETE_LIMITADA", "ENDERECO": "AVENIDAELIASYAZBEK_1933_TINGIDOR_EMBUDASARTES", "CIDADE": "EMBU_DAS_ARTES", "LATITUDE": -23.6485077, "LONGITUDE": -46.8474632, "LINK": "#N/D" }, "geometry": { "type": "Point", "coordinates": [ -46.8474632, -23.6485077 ] } },
{ "type": "Feature", "properties": { "CNPJ": 12577879000118, "AGENTE": "NOEMIA_DOMINGUES", "ACAO": "URGENTE_REALIZAR_SEGUNDA_VISITA", "RAZAO_SOCIAL": "ART-FUTURA_COMERCIO_DE_MOVEIS_LTDA", "ENDERECO": "AVENIDAELIASYAZBEK_1900_TINGIDOR_EMBUDASARTES", "CIDADE": "EMBU_DAS_ARTES", "LATITUDE": -23.6486657, "LONGITUDE": -46.8479375, "LINK": "#N/D" }, "geometry": { "type": "Point", "coordinates": [ -46.8479375, -23.6486657 ] } },
{ "type": "Feature", "properties": { "CNPJ": 3668466000158, "AGENTE": "NOEMIA_DOMINGUES", "ACAO": "URGENTE_REALIZAR_SEGUNDA_VISITA", "RAZAO_SOCIAL": "ALB_COMERCIO_DE_ARMACOES_DE_OCULOS_LTDA", "ENDERECO": "AVENIDAELIASYAZBEK_1529_TINGIDOR_EMBUDASARTES", "CIDADE": "EMBU_DAS_ARTES", "LATITUDE": -23.6486695, "LONGITUDE": -46.8486554, "LINK": "#N/D" }, "geometry": { "type": "Point", "coordinates": [ -46.8486554, -23.6486695 ] } },
{ "type": "Feature", "properties": { "CNPJ": 22115715000122, "AGENTE": "NOEMIA_DOMINGUES", "ACAO": "URGENTE_REALIZAR_SEGUNDA_VISITA", "RAZAO_SOCIAL": "PAOLA_203_FESTAS_E_EVENTOS_LTDA", "ENDERECO": "AVENIDAJOAOBATISTAMEDINA_80_CENTRO_EMBUDASARTES", "CIDADE": "EMBU_DAS_ARTES", "LATITUDE": -23.6497894, "LONGITUDE": -46.8539833, "LINK": "#N/D" }, "geometry": { "type": "Point", "coordinates": [ -46.8539833, -23.6497894 ] } },
{ "type": "Feature", "properties": { "CNPJ": 10421104000123, "AGENTE": "NOEMIA_DOMINGUES", "ACAO": "URGENTE_REALIZAR_SEGUNDA_VISITA", "RAZAO_SOCIAL": "KIBELE_CAPEL_MARTINS_-_ARTESANATOS", "ENDERECO": "RUANOSSASENHORADOROSARIO_37_CENTRO_EMBUDASARTES", "CIDADE": "EMBU_DAS_ARTES", "LATITUDE": -23.6502228, "LONGITUDE": -46.8517613, "LINK": "#N/D" }, "geometry": { "type": "Point", "coordinates": [ -46.8517613, -23.6502228 ] } },
{ "type": "Feature", "properties": { "CNPJ": 6322647000116, "AGENTE": "NOEMIA_DOMINGUES", "ACAO": "URGENTE_REALIZAR_SEGUNDA_VISITA", "RAZAO_SOCIAL": "MOVELARIA_BRASIL_LTDA", "ENDERECO": "RUANOSSASENHORADOROSARIO_57_CENTRO_EMBUDASARTES", "CIDADE": "EMBU_DAS_ARTES", "LATITUDE": -23.6504967, "LONGITUDE": -46.8518417, "LINK": "#N/D" }, "geometry": { "type": "Point", "coordinates": [ -46.8518417, -23.6504967 ] } },
{ "type": "Feature", "properties": { "CNPJ": 49847258000117, "AGENTE": "NOEMIA_DOMINGUES", "ACAO": "URGENTE_REALIZAR_SEGUNDA_VISITA", "RAZAO_SOCIAL": "RESTAURANTE_E_PIZZARIA_FAMILIA_FULO_DE_EMBU_DAS_ARTES_LTDA", "ENDERECO": "RUADAMATRIZ_72_CENTRO_EMBUDASARTES", "CIDADE": "EMBU_DAS_ARTES", "LATITUDE": -23.6507007, "LONGITUDE": -46.8534633, "LINK": "#N/D" }, "geometry": { "type": "Point", "coordinates": [ -46.8534633, -23.6507007 ] } },
{ "type": "Feature", "properties": { "CNPJ": 38095321000190, "AGENTE": "NOEMIA_DOMINGUES", "ACAO": "URGENTE_REALIZAR_SEGUNDA_VISITA", "RAZAO_SOCIAL": "HAUS_BURGERS_HAMBURGUERIA_LTDA", "ENDERECO": "RUADAMATRIZ_75_CENTRO_EMBUDASARTES", "CIDADE": "EMBU_DAS_ARTES", "LATITUDE": -23.6508165, "LONGITUDE": -46.8534573, "LINK": "#N/D" }, "geometry": { "type": "Point", "coordinates": [ -46.8534573, -23.6508165 ] } },
{ "type": "Feature", "properties": { "CNPJ": 37584322000135, "AGENTE": "NOEMIA_DOMINGUES", "ACAO": "URGENTE_REALIZAR_SEGUNDA_VISITA", "RAZAO_SOCIAL": "O_GARIMPO_RESTAURANTE_E_EVENTOS_LTDA", "ENDERECO": "RUADAMATRIZ_136_CENTRO_EMBUDASARTES", "CIDADE": "EMBU_DAS_ARTES", "LATITUDE": -23.6511383, "LONGITUDE": -46.854085, "LINK": "#N/D" }, "geometry": { "type": "Point", "coordinates": [ -46.854085, -23.6511383 ] } },
{ "type": "Feature", "properties": { "CNPJ": 44426884000116, "AGENTE": "NOEMIA_DOMINGUES", "ACAO": "URGENTE_REALIZAR_SEGUNDA_VISITA", "RAZAO_SOCIAL": "BATERIAS_&_OLEO_MORUMBI_IV_LTDA", "ENDERECO": "AVENIDAELIASYAZBEK_2250_TINGIDOR_EMBUDASARTES", "CIDADE": "EMBU_DAS_ARTES", "LATITUDE": -23.6540734, "LONGITUDE": -46.8516423, "LINK": "#N/D" }, "geometry": { "type": "Point", "coordinates": [ -46.8516423, -23.6540734 ] } },
{ "type": "Feature", "properties": { "CNPJ": 34046190000108, "AGENTE": "NOEMIA_DOMINGUES", "ACAO": "URGENTE_REALIZAR_SEGUNDA_VISITA", "RAZAO_SOCIAL": "CIRURGICA_PAIXAO_COMERCIO_E_LOCACAO_DE_MATERIAIS_ORTOPEDICOS_LTDA", "ENDERECO": "AVENIDAELIASYAZBEK_2080_TINGIDOR_EMBUDASARTES", "CIDADE": "EMBU_DAS_ARTES", "LATITUDE": -23.652816, "LONGITUDE": -46.8518395, "LINK": "#N/D" }, "geometry": { "type": "Point", "coordinates": [ -46.8518395, -23.652816 ] } },
{ "type": "Feature", "properties": { "CNPJ": 39459604000136, "AGENTE": "NOEMIA_DOMINGUES", "ACAO": "REALIZAR_PRIMEIRA_VISITA_POTENCIAL", "RAZAO_SOCIAL": "SANDRA_GOMES_DOS_SANTOS", "ENDERECO": "AVENIDA_DA_INTEGRACAO_170_JARDIM_NOSSA_SENHORA_DE_FATIMA_ASSIS_BRASIL", "CIDADE": "ASSIS", "LATITUDE": -23.6441686, "LONGITUDE": -46.8174139, "LINK": "https://pcippollini.github.io/fotos_fipe/ASSIS_39459604000136_130725.jpg" }, "geometry": { "type": "Point", "coordinates": [ -46.8174139, -23.6441686 ] } },
{ "type": "Feature", "properties": { "CNPJ": 46250938000160, "AGENTE": "NOEMIA_DOMINGUES", "ACAO": "REALIZAR_PRIMEIRA_VISITA_POTENCIAL", "RAZAO_SOCIAL": "CARLOS_DIOGO_JULIANI", "ENDERECO": "AVENIDA_DA_INTEGRACAO_200_JARDIM_NOSSA_SENHORA_DE_FATIMA_ASSIS_BRASIL", "CIDADE": "ASSIS", "LATITUDE": -23.6441686, "LONGITUDE": -46.8174139, "LINK": "https://pcippollini.github.io/fotos_fipe/ASSIS_46250938000160_130725.jpg" }, "geometry": { "type": "Point", "coordinates": [ -46.8174139, -23.6441686 ] } },
{ "type": "Feature", "properties": { "CNPJ": 20625663000109, "AGENTE": "NOEMIA_DOMINGUES", "ACAO": "REALIZAR_PRIMEIRA_VISITA_POTENCIAL", "RAZAO_SOCIAL": "REINALDO_ANTONIO_DE_OLIVEIRA_BUENO", "ENDERECO": "RUA_JOSE_RENATO_LOPES_MEDEIROS_30_JARDIM_NOSSA_SENHORA_DE_FATIMA_ASSIS_BRASIL", "CIDADE": "ASSIS", "LATITUDE": -23.6441686, "LONGITUDE": -46.8174139, "LINK": "https://pcippollini.github.io/fotos_fipe/ASSIS_20625663000109_130725.jpg" }, "geometry": { "type": "Point", "coordinates": [ -46.8174139, -23.6441686 ] } },
{ "type": "Feature", "properties": { "CNPJ": 50543513000117, "AGENTE": "NOEMIA_DOMINGUES", "ACAO": "REALIZAR_PRIMEIRA_VISITA_POTENCIAL", "RAZAO_SOCIAL": "JOSE_ROSNEI_PONTES_DE_OLIVEIRA", "ENDERECO": "AVENIDA_DA_INTEGRACAO_635_JARDIM_NOSSA_SENHORA_DE_FATIMA_ASSIS_BRASIL", "CIDADE": "ASSIS", "LATITUDE": -23.6441686, "LONGITUDE": -46.8174139, "LINK": "https://pcippollini.github.io/fotos_fipe/ASSIS_50543513000117_130725.jpg" }, "geometry": { "type": "Point", "coordinates": [ -46.8174139, -23.6441686 ] } },
{ "type": "Feature", "properties": { "CNPJ": 49331114000103, "AGENTE": "NOEMIA_DOMINGUES", "ACAO": "REALIZAR_PRIMEIRA_VISITA_POTENCIAL", "RAZAO_SOCIAL": "49.331.114_LUCAS_DE_OLIVEIRA_SILVA", "ENDERECO": "RUA_LOURDES_DE_SOUZA_FURLANETO_60_JARDIM_NOSSA_SENHORA_DE_FATIMA_ASSIS_BRASIL", "CIDADE": "ASSIS", "LATITUDE": -23.6441686, "LONGITUDE": -46.8174139, "LINK": "https://pcippollini.github.io/fotos_fipe/ASSIS_49331114000103_130725.jpg" }, "geometry": { "type": "Point", "coordinates": [ -46.8174139, -23.6441686 ] } },
{ "type": "Feature", "properties": { "CNPJ": 24825096000195, "AGENTE": "NOEMIA_DOMINGUES", "ACAO": "REALIZAR_PRIMEIRA_VISITA_POTENCIAL", "RAZAO_SOCIAL": "CAMILA_LUCCA_DE_SOUZA_MARINHO", "ENDERECO": "RUA_CANADA_0_JARDIM_MIMAS_EMBU_DAS_ARTES_BRASIL", "CIDADE": "EMBU_DAS_ARTES", "LATITUDE": -23.6212772, "LONGITUDE": -46.8180187, "LINK": "#N/D" }, "geometry": { "type": "Point", "coordinates": [ -46.8180187, -23.6212772 ] } },
{ "type": "Feature", "properties": { "CNPJ": 24593165000182, "AGENTE": "NOEMIA_DOMINGUES", "ACAO": "REALIZAR_PRIMEIRA_VISITA_POTENCIAL", "RAZAO_SOCIAL": "FERNANDO_NASCIMENTO_DA_SILVA", "ENDERECO": "RUA_DEZOITO_DE_JULHO_35_MOINHO_VELHO_EMBU_DAS_ARTES_BRASIL", "CIDADE": "EMBU_DAS_ARTES", "LATITUDE": -23.6215583, "LONGITUDE": -46.8274609, "LINK": "#N/D" }, "geometry": { "type": "Point", "coordinates": [ -46.8274609, -23.6215583 ] } },
{ "type": "Feature", "properties": { "CNPJ": 24734172000157, "AGENTE": "NOEMIA_DOMINGUES", "ACAO": "REALIZAR_PRIMEIRA_VISITA_POTENCIAL", "RAZAO_SOCIAL": "MARIA_SELMA_CARDOSO_DA_SILVA", "ENDERECO": "RUA_DEZOITO_DE_JULHO_35_MOINHO_VELHO_EMBU_DAS_ARTES_BRASIL", "CIDADE": "EMBU_DAS_ARTES", "LATITUDE": -23.6215583, "LONGITUDE": -46.8274609, "LINK": "#N/D" }, "geometry": { "type": "Point", "coordinates": [ -46.8274609, -23.6215583 ] } },
{ "type": "Feature", "properties": { "CNPJ": 42382125000173, "AGENTE": "NOEMIA_DOMINGUES", "ACAO": "REALIZAR_PRIMEIRA_VISITA_POTENCIAL", "RAZAO_SOCIAL": "SIMONE_MAXIMO_DE_OLIVEIRA", "ENDERECO": "RUA_CUBATAO_491_JARDIM_VISTA_ALEGRE_EMBU_DAS_ARTES_BRASIL", "CIDADE": "EMBU_DAS_ARTES", "LATITUDE": -23.6251733, "LONGITUDE": -46.8244968, "LINK": "#N/D" }, "geometry": { "type": "Point", "coordinates": [ -46.8244968, -23.6251733 ] } },
{ "type": "Feature", "properties": { "CNPJ": 26515289000175, "AGENTE": "NOEMIA_DOMINGUES", "ACAO": "REALIZAR_PRIMEIRA_VISITA_POTENCIAL", "RAZAO_SOCIAL": "ALBERTO_MERCES_DA_CRUZ", "ENDERECO": "RUA_CUBATAO_435_JARDIM_VISTA_ALEGRE_EMBU_DAS_ARTES_BRASIL", "CIDADE": "EMBU_DAS_ARTES", "LATITUDE": -23.6261265, "LONGITUDE": -46.8257795, "LINK": "#N/D" }, "geometry": { "type": "Point", "coordinates": [ -46.8257795, -23.6261265 ] } },
{ "type": "Feature", "properties": { "CNPJ": 39715075000194, "AGENTE": "NOEMIA_DOMINGUES", "ACAO": "REALIZAR_PRIMEIRA_VISITA_POTENCIAL", "RAZAO_SOCIAL": "LUIZ_CARLOS_DANTAS_DOS_SANTOS", "ENDERECO": "RUA_BORACEIA_77_JARDIM_VISTA_ALEGRE_EMBU_DAS_ARTES_BRASIL", "CIDADE": "EMBU_DAS_ARTES", "LATITUDE": -23.6263042, "LONGITUDE": -46.8274984, "LINK": "#N/D" }, "geometry": { "type": "Point", "coordinates": [ -46.8274984, -23.6263042 ] } },
{ "type": "Feature", "properties": { "CNPJ": 17770396000159, "AGENTE": "NOEMIA_DOMINGUES", "ACAO": "REALIZAR_PRIMEIRA_VISITA_POTENCIAL", "RAZAO_SOCIAL": "MAFER_COMERCIAL_ELETRICA_E_HIDRAULICA_LTDA", "ENDERECO": "RUA_CATANDUVAS_6_JARDIM_VISTA_ALEGRE_EMBU_DAS_ARTES_BRASIL", "CIDADE": "EMBU_DAS_ARTES", "LATITUDE": -23.6289874, "LONGITUDE": -46.8248592, "LINK": "#N/D" }, "geometry": { "type": "Point", "coordinates": [ -46.8248592, -23.6289874 ] } },
{ "type": "Feature", "properties": { "CNPJ": 43674874000137, "AGENTE": "NOEMIA_DOMINGUES", "ACAO": "REALIZAR_PRIMEIRA_VISITA_POTENCIAL", "RAZAO_SOCIAL": "LILIAN_MARA_PAIVA", "ENDERECO": "RUA_CICCILIO_MATARAZZO_131_JARDIM_INDAIA_EMBU_DAS_ARTES_BRASIL", "CIDADE": "EMBU_DAS_ARTES", "LATITUDE": -23.6352944, "LONGITUDE": -46.8727955, "LINK": "#N/D" }, "geometry": { "type": "Point", "coordinates": [ -46.8727955, -23.6352944 ] } },
{ "type": "Feature", "properties": { "CNPJ": 38658861000134, "AGENTE": "NOEMIA_DOMINGUES", "ACAO": "REALIZAR_PRIMEIRA_VISITA_POTENCIAL", "RAZAO_SOCIAL": "MARIZI_DOS_SANTOS_PEREIRA", "ENDERECO": "ESTRADA_PROFESSOR_CANDIDO_MOTTA_FILHO_1586_JARDIM_SANTA_LUZIA_EMBU_DAS_ARTES_BRASIL", "CIDADE": "EMBU_DAS_ARTES", "LATITUDE": -23.6370758, "LONGITUDE": -46.8539942, "LINK": "#N/D" }, "geometry": { "type": "Point", "coordinates": [ -46.8539942, -23.6370758 ] } },
{ "type": "Feature", "properties": { "CNPJ": 57863251000117, "AGENTE": "NOEMIA_DOMINGUES", "ACAO": "REALIZAR_PRIMEIRA_VISITA_POTENCIAL", "RAZAO_SOCIAL": "CLECIANE_MEDEIROS_DE_TOLEDO", "ENDERECO": "RUA_DAS_ROSAS_86_JARDIM_LAVORATO_EMBU_DAS_ARTES_BRASIL", "CIDADE": "EMBU_DAS_ARTES", "LATITUDE": -23.6391078, "LONGITUDE": -46.8299724, "LINK": "#N/D" }, "geometry": { "type": "Point", "coordinates": [ -46.8299724, -23.6391078 ] } },
{ "type": "Feature", "properties": { "CNPJ": 30683400000100, "AGENTE": "NOEMIA_DOMINGUES", "ACAO": "REALIZAR_PRIMEIRA_VISITA_POTENCIAL", "RAZAO_SOCIAL": "GILMAR_MAIEIRO_DOS_SANTOS", "ENDERECO": "RUA_PEROVA_450_JARDIM_CASTILHO_EMBU_DAS_ARTES_BRASIL", "CIDADE": "EMBU_DAS_ARTES", "LATITUDE": -23.6398539, "LONGITUDE": -46.8116352, "LINK": "#N/D" }, "geometry": { "type": "Point", "coordinates": [ -46.8116352, -23.6398539 ] } },
{ "type": "Feature", "properties": { "CNPJ": 43723189000153, "AGENTE": "NOEMIA_DOMINGUES", "ACAO": "REALIZAR_PRIMEIRA_VISITA_POTENCIAL", "RAZAO_SOCIAL": "ANDREA_APARECIDA_BITA", "ENDERECO": "RUA_JOSUE_28_JARDIM_SANTA_LUZIA_EMBU_DAS_ARTES_BRASIL", "CIDADE": "EMBU_DAS_ARTES", "LATITUDE": -23.6400698, "LONGITUDE": -46.8562893, "LINK": "#N/D" }, "geometry": { "type": "Point", "coordinates": [ -46.8562893, -23.6400698 ] } },
{ "type": "Feature", "properties": { "CNPJ": 42180449000129, "AGENTE": "NOEMIA_DOMINGUES", "ACAO": "REALIZAR_PRIMEIRA_VISITA_POTENCIAL", "RAZAO_SOCIAL": "ALVINO_RODRIGUES_DE_NOVAIS_FILHO", "ENDERECO": "RUA_SARAH_162_JARDIM_SANTA_LUZIA_EMBU_DAS_ARTES_BRASIL", "CIDADE": "EMBU_DAS_ARTES", "LATITUDE": -23.6409898, "LONGITUDE": -46.8551259, "LINK": "#N/D" }, "geometry": { "type": "Point", "coordinates": [ -46.8551259, -23.6409898 ] } },
{ "type": "Feature", "properties": { "CNPJ": 26457636000150, "AGENTE": "NOEMIA_DOMINGUES", "ACAO": "REALIZAR_PRIMEIRA_VISITA_POTENCIAL", "RAZAO_SOCIAL": "LUIZ_ROBERTO_MARTINS", "ENDERECO": "RUA_MATO_GROSSO_-_ATE_587/588_301_JARDIM_SILVIA_EMBU_DAS_ARTES_BRASIL", "CIDADE": "EMBU_DAS_ARTES", "LATITUDE": -23.6413977, "LONGITUDE": -46.8506944, "LINK": "#N/D" }, "geometry": { "type": "Point", "coordinates": [ -46.8506944, -23.6413977 ] } },
{ "type": "Feature", "properties": { "CNPJ": 45391776000118, "AGENTE": "NOEMIA_DOMINGUES", "ACAO": "REALIZAR_PRIMEIRA_VISITA_POTENCIAL", "RAZAO_SOCIAL": "EDMARIA_FERNANDA_PIMENTEL_DA_SILVA", "ENDERECO": "VEREDA_DAS_TULIPAS_587_JARDIM_SANTA_LUZIA_EMBU_DAS_ARTES_BRASIL", "CIDADE": "EMBU_DAS_ARTES", "LATITUDE": -23.6420548, "LONGITUDE": -46.8570681, "LINK": "#N/D" }, "geometry": { "type": "Point", "coordinates": [ -46.8570681, -23.6420548 ] } },
{ "type": "Feature", "properties": { "CNPJ": 33809474000138, "AGENTE": "NOEMIA_DOMINGUES", "ACAO": "REALIZAR_PRIMEIRA_VISITA_POTENCIAL", "RAZAO_SOCIAL": "DARLETE_GOMES_DE_SOUZA", "ENDERECO": "RUA_RIO_GRANDE_DO_SUL_217_JARDIM_SILVIA_EMBU_DAS_ARTES_BRASIL", "CIDADE": "EMBU_DAS_ARTES", "LATITUDE": -23.6420649, "LONGITUDE": -46.8502779, "LINK": "#N/D" }, "geometry": { "type": "Point", "coordinates": [ -46.8502779, -23.6420649 ] } },
{ "type": "Feature", "properties": { "CNPJ": 28194178000130, "AGENTE": "NOEMIA_DOMINGUES", "ACAO": "REALIZAR_PRIMEIRA_VISITA_POTENCIAL", "RAZAO_SOCIAL": "ROSIVAL_PLACIDO_ROSA", "ENDERECO": "AVENIDA_JOAO_PAULO_I_3425_JARDIM_SAO_LUIZ_EMBU_DAS_ARTES_BRASIL", "CIDADE": "EMBU_DAS_ARTES", "LATITUDE": -23.642826, "LONGITUDE": -46.809226, "LINK": "#N/D" }, "geometry": { "type": "Point", "coordinates": [ -46.809226, -23.642826 ] } },
{ "type": "Feature", "properties": { "CNPJ": 30892606000140, "AGENTE": "NOEMIA_DOMINGUES", "ACAO": "REALIZAR_PRIMEIRA_VISITA_POTENCIAL", "RAZAO_SOCIAL": "UNILSON_ALCANTARA_SANTOS", "ENDERECO": "RUA_ITAPEVI_25_PARQUE_DAS_CHACARAS_EMBU_DAS_ARTES_BRASIL", "CIDADE": "EMBU_DAS_ARTES", "LATITUDE": -23.643595, "LONGITUDE": -46.9003277, "LINK": "#N/D" }, "geometry": { "type": "Point", "coordinates": [ -46.9003277, -23.643595 ] } },
{ "type": "Feature", "properties": { "CNPJ": 43693494000140, "AGENTE": "NOEMIA_DOMINGUES", "ACAO": "REALIZAR_PRIMEIRA_VISITA_POTENCIAL", "RAZAO_SOCIAL": "HENRIQUE_PEREIRA_SANTOS", "ENDERECO": "RUA_DA_AMIZADE_354_JARDIM_NOSSA_SENHORA_DE_FATIMA_EMBU_DAS_ARTES_BRASIL", "CIDADE": "EMBU_DAS_ARTES", "LATITUDE": -23.6439978, "LONGITUDE": -46.818668, "LINK": "#N/D" }, "geometry": { "type": "Point", "coordinates": [ -46.818668, -23.6439978 ] } },
{ "type": "Feature", "properties": { "CNPJ": 55265460000133, "AGENTE": "NOEMIA_DOMINGUES", "ACAO": "REALIZAR_PRIMEIRA_VISITA_POTENCIAL", "RAZAO_SOCIAL": "FABIO_VINICIUS_CECHINEL", "ENDERECO": "RUA_VALDELICE_AZEVEDO_DE_CARVALHO_47_VILA_OLINDA_EMBU_DAS_ARTES_BRASIL", "CIDADE": "EMBU_DAS_ARTES", "LATITUDE": -23.6447624, "LONGITUDE": -46.8026973, "LINK": "#N/D" }, "geometry": { "type": "Point", "coordinates": [ -46.8026973, -23.6447624 ] } },
{ "type": "Feature", "properties": { "CNPJ": 47896034000170, "AGENTE": "NOEMIA_DOMINGUES", "ACAO": "REALIZAR_PRIMEIRA_VISITA_POTENCIAL", "RAZAO_SOCIAL": "CARITA_GONCALVES_DE_JESUS", "ENDERECO": "RUA_JOAO_BELIZARIO_DE_OLIVEIRA_69_PARQUE_SAO_LEONARDO_EMBU_DAS_ARTES_BRASIL", "CIDADE": "EMBU_DAS_ARTES", "LATITUDE": -23.6448226, "LONGITUDE": -46.9019776, "LINK": "#N/D" }, "geometry": { "type": "Point", "coordinates": [ -46.9019776, -23.6448226 ] } },
{ "type": "Feature", "properties": { "CNPJ": 55840102000107, "AGENTE": "NOEMIA_DOMINGUES", "ACAO": "REALIZAR_PRIMEIRA_VISITA_POTENCIAL", "RAZAO_SOCIAL": "MILHO_DE_OURO_COMERCIO_&_INDUSTRIA_ALIMENTICIA_LTDA.", "ENDERECO": "RUA_SETE_DE_SETEMBRO_3351_JARDIM_SAO_SALVADOR_TABOAO_DA_SERRA_BRASIL", "CIDADE": "EMBU_DAS_ARTES", "LATITUDE": -23.6451529, "LONGITUDE": -46.8989722, "LINK": "#N/D" }, "geometry": { "type": "Point", "coordinates": [ -46.8989722, -23.6451529 ] } },
{ "type": "Feature", "properties": { "CNPJ": 11791854000150, "AGENTE": "NOEMIA_DOMINGUES", "ACAO": "REALIZAR_PRIMEIRA_VISITA_POTENCIAL", "RAZAO_SOCIAL": "ELIANE_APARECIDA_SILVA_CUOZZO", "ENDERECO": "RUA_FLOR_DO_CAMPO_219_JARDIM_FLORIDA_EMBU_DAS_ARTES_BRASIL", "CIDADE": "EMBU_DAS_ARTES", "LATITUDE": -23.6454929, "LONGITUDE": -46.8081423, "LINK": "#N/D" }, "geometry": { "type": "Point", "coordinates": [ -46.8081423, -23.6454929 ] } },
{ "type": "Feature", "properties": { "CNPJ": 44645780000100, "AGENTE": "NOEMIA_DOMINGUES", "ACAO": "REALIZAR_PRIMEIRA_VISITA_POTENCIAL", "RAZAO_SOCIAL": "NILMAR_ALVES_OLIVEIRA_00385895593", "ENDERECO": "RUA_GUAICARA_185_SANTA_ROSA_EMBU_DAS_ARTES_BRASIL", "CIDADE": "EMBU_DAS_ARTES", "LATITUDE": -23.645505, "LONGITUDE": -46.8000839, "LINK": "#N/D" }, "geometry": { "type": "Point", "coordinates": [ -46.8000839, -23.645505 ] } },
{ "type": "Feature", "properties": { "CNPJ": 49437253000116, "AGENTE": "NOEMIA_DOMINGUES", "ACAO": "REALIZAR_PRIMEIRA_VISITA_POTENCIAL", "RAZAO_SOCIAL": "JANDAIA_INTERMEDIACOES_LTDA", "ENDERECO": "RUA_SERGIPE_129_JARDIM_SILVIA_EMBU_DAS_ARTES_BRASIL", "CIDADE": "EMBU_DAS_ARTES", "LATITUDE": -23.6457362, "LONGITUDE": -46.8534555, "LINK": "#N/D" }, "geometry": { "type": "Point", "coordinates": [ -46.8534555, -23.6457362 ] } },
{ "type": "Feature", "properties": { "CNPJ": 42049463000198, "AGENTE": "NOEMIA_DOMINGUES", "ACAO": "REALIZAR_PRIMEIRA_VISITA_POTENCIAL", "RAZAO_SOCIAL": "VINICIUS_ALAN_HONORIO", "ENDERECO": "RUA_EMILIANO_DI_CAVALCANTI_315_CERCADO_GRANDE_EMBU_DAS_ARTES_BRASIL", "CIDADE": "EMBU_DAS_ARTES", "LATITUDE": -23.6464145, "LONGITUDE": -46.8488143, "LINK": "#N/D" }, "geometry": { "type": "Point", "coordinates": [ -46.8488143, -23.6464145 ] } },
{ "type": "Feature", "properties": { "CNPJ": 34794774000153, "AGENTE": "NOEMIA_DOMINGUES", "ACAO": "REALIZAR_PRIMEIRA_VISITA_POTENCIAL", "RAZAO_SOCIAL": "ROBERTO_VITAL_DE_FREITAS_12561046800", "ENDERECO": "RUA_OREGON_144_JARDIM_CASA_BRANCA_EMBU_DAS_ARTES_BRASIL", "CIDADE": "EMBU_DAS_ARTES", "LATITUDE": -23.6466294, "LONGITUDE": -46.7976888, "LINK": "#N/D" }, "geometry": { "type": "Point", "coordinates": [ -46.7976888, -23.6466294 ] } },
{ "type": "Feature", "properties": { "CNPJ": 13954903000153, "AGENTE": "NOEMIA_DOMINGUES", "ACAO": "REALIZAR_PRIMEIRA_VISITA_POTENCIAL", "RAZAO_SOCIAL": "DAVIS_GONCALVES_OLIVEIRA_ME", "ENDERECO": "RUA_ALEXANDRINA_BASSITH_80_CENTRO_EMBU_DAS_ARTES_BRASIL", "CIDADE": "EMBU_DAS_ARTES", "LATITUDE": -23.647371, "LONGITUDE": -46.8491082, "LINK": "#N/D" }, "geometry": { "type": "Point", "coordinates": [ -46.8491082, -23.647371 ] } },
{ "type": "Feature", "properties": { "CNPJ": 1746463000160, "AGENTE": "NOEMIA_DOMINGUES", "ACAO": "REALIZAR_PRIMEIRA_VISITA_POTENCIAL", "RAZAO_SOCIAL": "EDNALDO_SANTOS_DIAS_RACOES", "ENDERECO": "AVENIDA_JOAO_PAULO_II_973_JARDIM_SANTA_TEREZA_EMBU_DAS_ARTES_BRASIL", "CIDADE": "EMBU_DAS_ARTES", "LATITUDE": -23.6475226, "LONGITUDE": -46.8033238, "LINK": "#N/D" }, "geometry": { "type": "Point", "coordinates": [ -46.8033238, -23.6475226 ] } },
{ "type": "Feature", "properties": { "CNPJ": 46305588000192, "AGENTE": "NOEMIA_DOMINGUES", "ACAO": "REALIZAR_PRIMEIRA_VISITA_POTENCIAL", "RAZAO_SOCIAL": "JULIO_CESAR_MACEDO_LEAL", "ENDERECO": "RUA_PERI_131_PARQUE_PIRAJUSSARA_EMBU_DAS_ARTES_BRASIL", "CIDADE": "EMBU_DAS_ARTES", "LATITUDE": -23.6480979, "LONGITUDE": -46.816298, "LINK": "#N/D" }, "geometry": { "type": "Point", "coordinates": [ -46.816298, -23.6480979 ] } },
{ "type": "Feature", "properties": { "CNPJ": 28530078000137, "AGENTE": "NOEMIA_DOMINGUES", "ACAO": "REALIZAR_PRIMEIRA_VISITA_POTENCIAL", "RAZAO_SOCIAL": "EUVANERE_MOREIRA_DE_JESUS_LEITE", "ENDERECO": "RUA_MARABA_220_JARDIM_SANTA_TEREZA_EMBU_DAS_ARTES_BRASIL", "CIDADE": "EMBU_DAS_ARTES", "LATITUDE": -23.6483211, "LONGITUDE": -46.8066043, "LINK": "#N/D" }, "geometry": { "type": "Point", "coordinates": [ -46.8066043, -23.6483211 ] } },
{ "type": "Feature", "properties": { "CNPJ": 52789804000115, "AGENTE": "NOEMIA_DOMINGUES", "ACAO": "REALIZAR_PRIMEIRA_VISITA_POTENCIAL", "RAZAO_SOCIAL": "AUVANA_COSMETICOS_LTDA", "ENDERECO": "AVENIDA_ELIAS_YAZBEK_1911_TINGIDOR_EMBU_DAS_ARTES_BRASIL", "CIDADE": "EMBU_DAS_ARTES", "LATITUDE": -23.6485381, "LONGITUDE": -46.8479278, "LINK": "#N/D" }, "geometry": { "type": "Point", "coordinates": [ -46.8479278, -23.6485381 ] } },
{ "type": "Feature", "properties": { "CNPJ": 46827096000167, "AGENTE": "NOEMIA_DOMINGUES", "ACAO": "REALIZAR_PRIMEIRA_VISITA_POTENCIAL", "RAZAO_SOCIAL": "LUCAS_DE_OLIVEIRA", "ENDERECO": "RUA_MARQUES_DE_PARANAGUA_2505_ENGENHO_VELHO_EMBU_DAS_ARTES_BRASIL", "CIDADE": "EMBU_DAS_ARTES", "LATITUDE": -23.648716, "LONGITUDE": -46.8638087, "LINK": "#N/D" }, "geometry": { "type": "Point", "coordinates": [ -46.8638087, -23.648716 ] } },
{ "type": "Feature", "properties": { "CNPJ": 10632091000131, "AGENTE": "NOEMIA_DOMINGUES", "ACAO": "REALIZAR_PRIMEIRA_VISITA_POTENCIAL", "RAZAO_SOCIAL": "LEONARDO_JOSE_VIEIRA", "ENDERECO": "RUA_CERQUEIRA_CESAR_865_JARDIM_SANTA_TEREZA_EMBU_DAS_ARTES_BRASIL", "CIDADE": "EMBU_DAS_ARTES", "LATITUDE": -23.6488212, "LONGITUDE": -46.8041247, "LINK": "#N/D" }, "geometry": { "type": "Point", "coordinates": [ -46.8041247, -23.6488212 ] } },
{ "type": "Feature", "properties": { "CNPJ": 18588989000161, "AGENTE": "NOEMIA_DOMINGUES", "ACAO": "REALIZAR_PRIMEIRA_VISITA_POTENCIAL", "RAZAO_SOCIAL": "CLADRI_TRANSPORTES_LTDA", "ENDERECO": "RUA_ASTOR_NULL_JARDIM_SANTA_TEREZA_EMBU_DAS_ARTES_BRASIL", "CIDADE": "EMBU_DAS_ARTES", "LATITUDE": -23.6488548, "LONGITUDE": -46.8050157, "LINK": "#N/D" }, "geometry": { "type": "Point", "coordinates": [ -46.8050157, -23.6488548 ] } },
{ "type": "Feature", "properties": { "CNPJ": 47733707000170, "AGENTE": "NOEMIA_DOMINGUES", "ACAO": "REALIZAR_PRIMEIRA_VISITA_POTENCIAL", "RAZAO_SOCIAL": "TABATA_YORIKO_TOKUNAGA", "ENDERECO": "RUA_CAZUZA_59_JARDIM_CASA_BRANCA_EMBU_DAS_ARTES_BRASIL", "CIDADE": "EMBU_DAS_ARTES", "LATITUDE": -23.6493421, "LONGITUDE": -46.7960414, "LINK": "#N/D" }, "geometry": { "type": "Point", "coordinates": [ -46.7960414, -23.6493421 ] } },
{ "type": "Feature", "properties": { "CNPJ": 26399056000154, "AGENTE": "NOEMIA_DOMINGUES", "ACAO": "REALIZAR_PRIMEIRA_VISITA_POTENCIAL", "RAZAO_SOCIAL": "MARIO_AUGUSTO_VISTORIA_VEICULAR_LTDA", "ENDERECO": "AVENIDA_AIMARA_138_PARQUE_PIRAJUSSARA_EMBU_DAS_ARTES_BRASIL", "CIDADE": "EMBU_DAS_ARTES", "LATITUDE": -23.6494542, "LONGITUDE": -46.8147426, "LINK": "#N/D" }, "geometry": { "type": "Point", "coordinates": [ -46.8147426, -23.6494542 ] } },
{ "type": "Feature", "properties": { "CNPJ": 31943070000107, "AGENTE": "NOEMIA_DOMINGUES", "ACAO": "REALIZAR_PRIMEIRA_VISITA_POTENCIAL", "RAZAO_SOCIAL": "DENILTON_DA_SILVA_BARBOSA_MEI", "ENDERECO": "LARGO_JESUITAS_124_CENTRO_EMBU_DAS_ARTES_BRASIL", "CIDADE": "EMBU_DAS_ARTES", "LATITUDE": -23.64962, "LONGITUDE": -46.851125, "LINK": "#N/D" }, "geometry": { "type": "Point", "coordinates": [ -46.851125, -23.64962 ] } },
{ "type": "Feature", "properties": { "CNPJ": 31330506000192, "AGENTE": "NOEMIA_DOMINGUES", "ACAO": "REALIZAR_PRIMEIRA_VISITA_POTENCIAL", "RAZAO_SOCIAL": "AKR_COSMETICOS_LTDA", "ENDERECO": "AVENIDA_JOAO_BATISTA_MEDINA_68_CENTRO_EMBU_DAS_ARTES_BRASIL", "CIDADE": "EMBU_DAS_ARTES", "LATITUDE": -23.6496873, "LONGITUDE": -46.8539515, "LINK": "#N/D" }, "geometry": { "type": "Point", "coordinates": [ -46.8539515, -23.6496873 ] } },
{ "type": "Feature", "properties": { "CNPJ": 32009842000109, "AGENTE": "NOEMIA_DOMINGUES", "ACAO": "REALIZAR_PRIMEIRA_VISITA_POTENCIAL", "RAZAO_SOCIAL": "JOSE_ROBERTO_ALCANTARA_DE_LIMA", "ENDERECO": "RUA_BERNA_106_JARDIM_CASA_BRANCA_EMBU_DAS_ARTES_BRASIL", "CIDADE": "EMBU_DAS_ARTES", "LATITUDE": -23.649763, "LONGITUDE": -46.797748, "LINK": "#N/D" }, "geometry": { "type": "Point", "coordinates": [ -46.797748, -23.649763 ] } },
{ "type": "Feature", "properties": { "CNPJ": 35391003000188, "AGENTE": "NOEMIA_DOMINGUES", "ACAO": "REALIZAR_PRIMEIRA_VISITA_POTENCIAL", "RAZAO_SOCIAL": "LUIZ_CLAUDIO_MOREIRA", "ENDERECO": "AVENIDA_TEREZA_419_JARDIM_SANTA_TEREZA_EMBU_DAS_ARTES_BRASIL", "CIDADE": "EMBU_DAS_ARTES", "LATITUDE": -23.6499555, "LONGITUDE": -46.8073277, "LINK": "#N/D" }, "geometry": { "type": "Point", "coordinates": [ -46.8073277, -23.6499555 ] } },
{ "type": "Feature", "properties": { "CNPJ": 50517606000258, "AGENTE": "NOEMIA_DOMINGUES", "ACAO": "REALIZAR_PRIMEIRA_VISITA_POTENCIAL", "RAZAO_SOCIAL": "GILSON_TANIGUCHI", "ENDERECO": "PRACA_JOAO_PESSOA_10_CENTRO_ITAPECERICA_DA_SERRA_BRASIL", "CIDADE": "EMBU_DAS_ARTES", "LATITUDE": -23.6499623, "LONGITUDE": -46.8538797, "LINK": "#N/D" }, "geometry": { "type": "Point", "coordinates": [ -46.8538797, -23.6499623 ] } },
{ "type": "Feature", "properties": { "CNPJ": 154458000103, "AGENTE": "NOEMIA_DOMINGUES", "ACAO": "REALIZAR_PRIMEIRA_VISITA_POTENCIAL", "RAZAO_SOCIAL": "SCHULZ_&_QUEIROZ_RESTAURANTE_E_CHOPERIA_LTDA", "ENDERECO": "LARGO_JESUITAS_38_CENTRO_EMBU_DAS_ARTES_BRASIL", "CIDADE": "EMBU_DAS_ARTES", "LATITUDE": -23.6500441, "LONGITUDE": -46.8517225, "LINK": "#N/D" }, "geometry": { "type": "Point", "coordinates": [ -46.8517225, -23.6500441 ] } },
{ "type": "Feature", "properties": { "CNPJ": 40019511000170, "AGENTE": "NOEMIA_DOMINGUES", "ACAO": "REALIZAR_PRIMEIRA_VISITA_POTENCIAL", "RAZAO_SOCIAL": "AUGUSTO_ALMEIDA_CAMARGO", "ENDERECO": "AVENIDA_JOAO_BATISTA_MEDINA_109_CHACARAS_ANA_LUCIA_EMBU_DAS_ARTES_BRASIL", "CIDADE": "EMBU_DAS_ARTES", "LATITUDE": -23.6500501, "LONGITUDE": -46.8543855, "LINK": "#N/D" }, "geometry": { "type": "Point", "coordinates": [ -46.8543855, -23.6500501 ] } },
{ "type": "Feature", "properties": { "CNPJ": 34249340000172, "AGENTE": "NOEMIA_DOMINGUES", "ACAO": "REALIZAR_PRIMEIRA_VISITA_POTENCIAL", "RAZAO_SOCIAL": "MIRELLE_DA_SILVA_PEREIRA", "ENDERECO": "RUA_JOSE_MENDES_FERREIRA_-_ATE_933_-_LADO_IMPAR_389_VILA_REGINA_EMBU_DAS_ARTES_BRASIL", "CIDADE": "EMBU_DAS_ARTES", "LATITUDE": -23.6503415, "LONGITUDE": -46.8015275, "LINK": "#N/D" }, "geometry": { "type": "Point", "coordinates": [ -46.8015275, -23.6503415 ] } },
{ "type": "Feature", "properties": { "CNPJ": 29405061000110, "AGENTE": "NOEMIA_DOMINGUES", "ACAO": "REALIZAR_PRIMEIRA_VISITA_POTENCIAL", "RAZAO_SOCIAL": "WESLEY_DOS_SANTOS_MOURA", "ENDERECO": "RUA_ALVARENGA_PEIXOTO_164_JARDIM_INDEPENDENCIA_EMBU_DAS_ARTES_BRASIL", "CIDADE": "EMBU_DAS_ARTES", "LATITUDE": -23.6505398, "LONGITUDE": -46.7944048, "LINK": "#N/D" }, "geometry": { "type": "Point", "coordinates": [ -46.7944048, -23.6505398 ] } },
{ "type": "Feature", "properties": { "CNPJ": 30814129000102, "AGENTE": "NOEMIA_DOMINGUES", "ACAO": "REALIZAR_PRIMEIRA_VISITA_POTENCIAL", "RAZAO_SOCIAL": "PRISCILA_LIMA_SOARES_DE_AGUIAR", "ENDERECO": "RUA_CAPAO_REDONDO_77_JARDIM_SANTA_TEREZA_EMBU_DAS_ARTES_BRASIL", "CIDADE": "EMBU_DAS_ARTES", "LATITUDE": -23.6509597, "LONGITUDE": -46.8055551, "LINK": "#N/D" }, "geometry": { "type": "Point", "coordinates": [ -46.8055551, -23.6509597 ] } },
{ "type": "Feature", "properties": { "CNPJ": 22710649000139, "AGENTE": "NOEMIA_DOMINGUES", "ACAO": "REALIZAR_PRIMEIRA_VISITA_POTENCIAL", "RAZAO_SOCIAL": "DIEGO_APARECIDO_DE_SOUZA", "ENDERECO": "RUA_MOEMA_146_JARDIM_SANTA_TEREZA_EMBU_DAS_ARTES_BRASIL", "CIDADE": "EMBU_DAS_ARTES", "LATITUDE": -23.6515698, "LONGITUDE": -46.805857, "LINK": "#N/D" }, "geometry": { "type": "Point", "coordinates": [ -46.805857, -23.6515698 ] } },
{ "type": "Feature", "properties": { "CNPJ": 28038235000191, "AGENTE": "NOEMIA_DOMINGUES", "ACAO": "REALIZAR_PRIMEIRA_VISITA_POTENCIAL", "RAZAO_SOCIAL": "STELLUTO_CONSULTORIA_E_PARALEGAL_LTDA", "ENDERECO": "RUA_BELO_HORIZONTE_261_ROCHDALE_OSASCO_BRASIL", "CIDADE": "EMBU_DAS_ARTES", "LATITUDE": -23.6515919, "LONGITUDE": -46.85503, "LINK": "#N/D" }, "geometry": { "type": "Point", "coordinates": [ -46.85503, -23.6515919 ] } },
{ "type": "Feature", "properties": { "CNPJ": 46187337000150, "AGENTE": "NOEMIA_DOMINGUES", "ACAO": "REALIZAR_PRIMEIRA_VISITA_POTENCIAL", "RAZAO_SOCIAL": "RICARDO_FLORIANO", "ENDERECO": "RUA_BURITI_5_PARQUE_PIRAJUSSARA_EMBU_DAS_ARTES_BRASIL", "CIDADE": "EMBU_DAS_ARTES", "LATITUDE": -23.6516482, "LONGITUDE": -46.8171639, "LINK": "#N/D" }, "geometry": { "type": "Point", "coordinates": [ -46.8171639, -23.6516482 ] } },
{ "type": "Feature", "properties": { "CNPJ": 17841630000191, "AGENTE": "NOEMIA_DOMINGUES", "ACAO": "REALIZAR_PRIMEIRA_VISITA_POTENCIAL", "RAZAO_SOCIAL": "ROBERTO_DOS_SANTOS_PIMENTA", "ENDERECO": "RUA_BRASILANDIA_228_JARDIM_SANTA_TEREZA_EMBU_DAS_ARTES_BRASIL", "CIDADE": "EMBU_DAS_ARTES", "LATITUDE": -23.6521189, "LONGITUDE": -46.8040756, "LINK": "#N/D" }, "geometry": { "type": "Point", "coordinates": [ -46.8040756, -23.6521189 ] } },
{ "type": "Feature", "properties": { "CNPJ": 54747799000103, "AGENTE": "NOEMIA_DOMINGUES", "ACAO": "REALIZAR_PRIMEIRA_VISITA_POTENCIAL", "RAZAO_SOCIAL": "AILTON_RILZO_BARBOSA_SANTOS", "ENDERECO": "RUA_DOS_MOSAICOS_225_JARDIM_VITORIA_EMBU_DAS_ARTES_BRASIL", "CIDADE": "EMBU_DAS_ARTES", "LATITUDE": -23.6523939, "LONGITUDE": -46.7996774, "LINK": "#N/D" }, "geometry": { "type": "Point", "coordinates": [ -46.7996774, -23.6523939 ] } },
{ "type": "Feature", "properties": { "CNPJ": 48174934000176, "AGENTE": "NOEMIA_DOMINGUES", "ACAO": "REALIZAR_PRIMEIRA_VISITA_POTENCIAL", "RAZAO_SOCIAL": "ERIC_FIRMINO_SANTOS", "ENDERECO": "RUA_AGUA_BRANCA_270_JARDIM_LAILA_EMBU_DAS_ARTES_BRASIL", "CIDADE": "EMBU_DAS_ARTES", "LATITUDE": -23.6539371, "LONGITUDE": -46.8028915, "LINK": "#N/D" }, "geometry": { "type": "Point", "coordinates": [ -46.8028915, -23.6539371 ] } },
{ "type": "Feature", "properties": { "CNPJ": 62713755000190, "AGENTE": "NOEMIA_DOMINGUES", "ACAO": "REALIZAR_PRIMEIRA_VISITA_POTENCIAL", "RAZAO_SOCIAL": "TAPATHI_COMERCIAL_LTDA", "ENDERECO": "RUA_SAO_CAETANO_380_JARDIM_VALO_VERDE_EMBU_DAS_ARTES_BRASIL", "CIDADE": "EMBU_DAS_ARTES", "LATITUDE": -23.6539566, "LONGITUDE": -46.8117487, "LINK": "#N/D" }, "geometry": { "type": "Point", "coordinates": [ -46.8117487, -23.6539566 ] } },
{ "type": "Feature", "properties": { "CNPJ": 26933232000196, "AGENTE": "NOEMIA_DOMINGUES", "ACAO": "REALIZAR_PRIMEIRA_VISITA_POTENCIAL", "RAZAO_SOCIAL": "JOANA_BISPO_DE_OLIVEIRA", "ENDERECO": "RUA_AGUA_BRANCA_29_JARDIM_LAILA_EMBU_DAS_ARTES_BRASIL", "CIDADE": "EMBU_DAS_ARTES", "LATITUDE": -23.6540125, "LONGITUDE": -46.8044657, "LINK": "#N/D" }, "geometry": { "type": "Point", "coordinates": [ -46.8044657, -23.6540125 ] } },
{ "type": "Feature", "properties": { "CNPJ": 30248650000111, "AGENTE": "NOEMIA_DOMINGUES", "ACAO": "REALIZAR_PRIMEIRA_VISITA_POTENCIAL", "RAZAO_SOCIAL": "ALESSANDRO_LUCIANO_ALVES", "ENDERECO": "RUA_AGUA_BRANCA_-_ATE_511/512_185_JARDIM_LAILA_EMBU_DAS_ARTES_BRASIL", "CIDADE": "EMBU_DAS_ARTES", "LATITUDE": -23.6543158, "LONGITUDE": -46.803654, "LINK": "#N/D" }, "geometry": { "type": "Point", "coordinates": [ -46.803654, -23.6543158 ] } },
{ "type": "Feature", "properties": { "CNPJ": 46950297000157, "AGENTE": "NOEMIA_DOMINGUES", "ACAO": "REALIZAR_PRIMEIRA_VISITA_POTENCIAL", "RAZAO_SOCIAL": "VALTER_VIEIRA_DA_SILVA", "ENDERECO": "RUA_JACANA_125_JARDIM_FABIANA_EMBU_DAS_ARTES_BRASIL", "CIDADE": "EMBU_DAS_ARTES", "LATITUDE": -23.6544637, "LONGITUDE": -46.7940858, "LINK": "#N/D" }, "geometry": { "type": "Point", "coordinates": [ -46.7940858, -23.6544637 ] } },
{ "type": "Feature", "properties": { "CNPJ": 28947592000172, "AGENTE": "NOEMIA_DOMINGUES", "ACAO": "REALIZAR_PRIMEIRA_VISITA_POTENCIAL", "RAZAO_SOCIAL": "ERIC_APARECIDO_VICENTE_OLYMPIO", "ENDERECO": "RUA_DO_CANTOR_95_VILA_ISIS_CRISTINA_EMBU_DAS_ARTES_BRASIL", "CIDADE": "EMBU_DAS_ARTES", "LATITUDE": -23.6547685, "LONGITUDE": -46.8217054, "LINK": "#N/D" }, "geometry": { "type": "Point", "coordinates": [ -46.8217054, -23.6547685 ] } },
{ "type": "Feature", "properties": { "CNPJ": 32870618000107, "AGENTE": "NOEMIA_DOMINGUES", "ACAO": "REALIZAR_PRIMEIRA_VISITA_POTENCIAL", "RAZAO_SOCIAL": "CAROLINA_FRANCISCA_DOS_SANTOS", "ENDERECO": "RUA_SAO_MARCELO_713_JARDIM_VALO_VERDE_EMBU_DAS_ARTES_BRASIL", "CIDADE": "EMBU_DAS_ARTES", "LATITUDE": -23.6552773, "LONGITUDE": -46.8069542, "LINK": "#N/D" }, "geometry": { "type": "Point", "coordinates": [ -46.8069542, -23.6552773 ] } },
{ "type": "Feature", "properties": { "CNPJ": 56423509000100, "AGENTE": "NOEMIA_DOMINGUES", "ACAO": "REALIZAR_PRIMEIRA_VISITA_POTENCIAL", "RAZAO_SOCIAL": "CLAUDIO_AMARO_DE_SANTANA", "ENDERECO": "RUA_SAO_CAETANO_1181_JARDIM_VALO_VERDE_EMBU_DAS_ARTES_BRASIL", "CIDADE": "EMBU_DAS_ARTES", "LATITUDE": -23.6555555, "LONGITUDE": -46.809249, "LINK": "#N/D" }, "geometry": { "type": "Point", "coordinates": [ -46.809249, -23.6555555 ] } },
{ "type": "Feature", "properties": { "CNPJ": 33421537000184, "AGENTE": "NOEMIA_DOMINGUES", "ACAO": "REALIZAR_PRIMEIRA_VISITA_POTENCIAL", "RAZAO_SOCIAL": "UELSON_DE_SOUZA_FERNANDES", "ENDERECO": "RUA_AIMARA_-_ATE_1005_-_LADO_IMPAR_907_PARQUE_PIRAJUSSARA_EMBU_DAS_ARTES_BRASIL", "CIDADE": "EMBU_DAS_ARTES", "LATITUDE": -23.65559, "LONGITUDE": -46.8148071, "LINK": "#N/D" }, "geometry": { "type": "Point", "coordinates": [ -46.8148071, -23.65559 ] } },
{ "type": "Feature", "properties": { "CNPJ": 34526622000170, "AGENTE": "NOEMIA_DOMINGUES", "ACAO": "REALIZAR_PRIMEIRA_VISITA_POTENCIAL", "RAZAO_SOCIAL": "FABIANA_DOS_SANTOS_FERNANDO_SILVA", "ENDERECO": "RUA_SAO_CAETANO_-_DE_185/186_A_1924/1925_1003_JARDIM_VALO_VERDE_EMBU_DAS_ARTES_BRASIL", "CIDADE": "EMBU_DAS_ARTES", "LATITUDE": -23.6558488, "LONGITUDE": -46.8077981, "LINK": "#N/D" }, "geometry": { "type": "Point", "coordinates": [ -46.8077981, -23.6558488 ] } },
{ "type": "Feature", "properties": { "CNPJ": 20339229000162, "AGENTE": "NOEMIA_DOMINGUES", "ACAO": "REALIZAR_PRIMEIRA_VISITA_POTENCIAL", "RAZAO_SOCIAL": "LEILA_ARAUJO_MARQUES", "ENDERECO": "ESTRADA_DE_CONSTANTINOPLA_193_JARDIM_MARINA_EMBU_DAS_ARTES_BRASIL", "CIDADE": "EMBU_DAS_ARTES", "LATITUDE": -23.6561749, "LONGITUDE": -46.8028224, "LINK": "#N/D" }, "geometry": { "type": "Point", "coordinates": [ -46.8028224, -23.6561749 ] } },
{ "type": "Feature", "properties": { "CNPJ": 13542848000194, "AGENTE": "NOEMIA_DOMINGUES", "ACAO": "REALIZAR_PRIMEIRA_VISITA_POTENCIAL", "RAZAO_SOCIAL": "ALESSANDRO_FERREIRA_DE_JESUS", "ENDERECO": "ESTRADA_DO_GRAMADO_132_JARDIM_MAGALY_EMBU_DAS_ARTES_BRASIL", "CIDADE": "EMBU_DAS_ARTES", "LATITUDE": -23.6562537, "LONGITUDE": -46.8482005, "LINK": "#N/D" }, "geometry": { "type": "Point", "coordinates": [ -46.8482005, -23.6562537 ] } },
{ "type": "Feature", "properties": { "CNPJ": 47887661000144, "AGENTE": "NOEMIA_DOMINGUES", "ACAO": "REALIZAR_PRIMEIRA_VISITA_POTENCIAL", "RAZAO_SOCIAL": "MARIA_APARECIDA_CARDOSO_DO_AMARAL", "ENDERECO": "RUA_SAO_CAETANO_-_DE_185/186_A_1924/1925_1935_JARDIM_VALO_VERDE_EMBU_DAS_ARTES_BRASIL", "CIDADE": "EMBU_DAS_ARTES", "LATITUDE": -23.6574914, "LONGITUDE": -46.807775, "LINK": "#N/D" }, "geometry": { "type": "Point", "coordinates": [ -46.807775, -23.6574914 ] } },
{ "type": "Feature", "properties": { "CNPJ": 46992634000179, "AGENTE": "NOEMIA_DOMINGUES", "ACAO": "REALIZAR_PRIMEIRA_VISITA_POTENCIAL", "RAZAO_SOCIAL": "WELLINGTON_MARTINHO_DE_SOUZA", "ENDERECO": "RUA_CALIFORNIA_311_JARDIM_MAGALY_EMBU_DAS_ARTES_BRASIL", "CIDADE": "EMBU_DAS_ARTES", "LATITUDE": -23.6577588, "LONGITUDE": -46.8411976, "LINK": "#N/D" }, "geometry": { "type": "Point", "coordinates": [ -46.8411976, -23.6577588 ] } },
{ "type": "Feature", "properties": { "CNPJ": 46114551000187, "AGENTE": "NOEMIA_DOMINGUES", "ACAO": "REALIZAR_PRIMEIRA_VISITA_POTENCIAL", "RAZAO_SOCIAL": "ALAN_RILDO_DA_SILVA", "ENDERECO": "RUA_FLORIDA_212_JARDIM_MAGALY_EMBU_DAS_ARTES_BRASIL", "CIDADE": "EMBU_DAS_ARTES", "LATITUDE": -23.6586122, "LONGITUDE": -46.8420674, "LINK": "#N/D" }, "geometry": { "type": "Point", "coordinates": [ -46.8420674, -23.6586122 ] } },
{ "type": "Feature", "properties": { "CNPJ": 22219304000187, "AGENTE": "NOEMIA_DOMINGUES", "ACAO": "REALIZAR_PRIMEIRA_VISITA_POTENCIAL", "RAZAO_SOCIAL": "DANIELE_DE_QUEIROZ_MATIAS_BARBOSA", "ENDERECO": "RUA_NOSSA_SENHORA_DE_LOURDES_246_MARIA_AUXILIADORA_EMBU_DAS_ARTES_BRASIL", "CIDADE": "EMBU_DAS_ARTES", "LATITUDE": -23.6594345, "LONGITUDE": -46.8616317, "LINK": "#N/D" }, "geometry": { "type": "Point", "coordinates": [ -46.8616317, -23.6594345 ] } },
{ "type": "Feature", "properties": { "CNPJ": 6196464000100, "AGENTE": "NOEMIA_DOMINGUES", "ACAO": "REALIZAR_PRIMEIRA_VISITA_POTENCIAL", "RAZAO_SOCIAL": "OPTICA_E_RELOJOARIA_VER_MELHOR_LTDA_ME", "ENDERECO": "RUA_AUGUSTO_DE_ALMEIDA_BATISTA_2224_JARDIM_SAO_VICENTE_EMBU_DAS_ARTES_BRASIL", "CIDADE": "EMBU_DAS_ARTES", "LATITUDE": -23.6595063, "LONGITUDE": -46.8061626, "LINK": "#N/D" }, "geometry": { "type": "Point", "coordinates": [ -46.8061626, -23.6595063 ] } },
{ "type": "Feature", "properties": { "CNPJ": 29397905000129, "AGENTE": "NOEMIA_DOMINGUES", "ACAO": "REALIZAR_PRIMEIRA_VISITA_POTENCIAL", "RAZAO_SOCIAL": "CLAUDIA_BETANIA_DE_LIRA_CARVALHO_SOUZA_MEI", "ENDERECO": "AVENIDA_DAS_POMBAS_177_JARDIM_VAZAME_EMBU_DAS_ARTES_BRASIL", "CIDADE": "EMBU_DAS_ARTES", "LATITUDE": -23.6600018, "LONGITUDE": -46.8016211, "LINK": "#N/D" }, "geometry": { "type": "Point", "coordinates": [ -46.8016211, -23.6600018 ] } },
{ "type": "Feature", "properties": { "CNPJ": 46550048000174, "AGENTE": "NOEMIA_DOMINGUES", "ACAO": "REALIZAR_PRIMEIRA_VISITA_POTENCIAL", "RAZAO_SOCIAL": "RAFAEL_FRANCA_DE_SENA", "ENDERECO": "ESTRADA_SAO_GONCALO_93_JARDIM_SAO_MARCOS_EMBU_DAS_ARTES_BRASIL", "CIDADE": "EMBU_DAS_ARTES", "LATITUDE": -23.6601935, "LONGITUDE": -46.815074, "LINK": "#N/D" }, "geometry": { "type": "Point", "coordinates": [ -46.815074, -23.6601935 ] } },
{ "type": "Feature", "properties": { "CNPJ": 25535411000102, "AGENTE": "NOEMIA_DOMINGUES", "ACAO": "REALIZAR_PRIMEIRA_VISITA_POTENCIAL", "RAZAO_SOCIAL": "ANDERSON_DA_SILVA", "ENDERECO": "RUA_TIETE_513_JARDIM_NOVO_CAMPO_LIMPO_EMBU_DAS_ARTES_BRASIL", "CIDADE": "EMBU_DAS_ARTES", "LATITUDE": -23.6611586, "LONGITUDE": -46.8012713, "LINK": "#N/D" }, "geometry": { "type": "Point", "coordinates": [ -46.8012713, -23.6611586 ] } },
{ "type": "Feature", "properties": { "CNPJ": 45165956000181, "AGENTE": "NOEMIA_DOMINGUES", "ACAO": "REALIZAR_PRIMEIRA_VISITA_POTENCIAL", "RAZAO_SOCIAL": "THAUANA_SAMPAIO_SILVA", "ENDERECO": "ESTRADA_MORAES_788_JARDIM_DOS_MORAES_EMBU_DAS_ARTES_BRASIL", "CIDADE": "EMBU_DAS_ARTES", "LATITUDE": -23.6613159, "LONGITUDE": -46.8181044, "LINK": "#N/D" }, "geometry": { "type": "Point", "coordinates": [ -46.8181044, -23.6613159 ] } },
{ "type": "Feature", "properties": { "CNPJ": 31066950000142, "AGENTE": "NOEMIA_DOMINGUES", "ACAO": "REALIZAR_PRIMEIRA_VISITA_POTENCIAL", "RAZAO_SOCIAL": "CLEIDE_MARIA_VILELA", "ENDERECO": "ESTRADA_DOS_ORQUIDOFILOS_1173_ENGENHO_VELHO_EMBU_DAS_ARTES_BRASIL", "CIDADE": "EMBU_DAS_ARTES", "LATITUDE": -23.6615422, "LONGITUDE": -46.8593477, "LINK": "#N/D" }, "geometry": { "type": "Point", "coordinates": [ -46.8593477, -23.6615422 ] } },
{ "type": "Feature", "properties": { "CNPJ": 47684262000186, "AGENTE": "NOEMIA_DOMINGUES", "ACAO": "REALIZAR_PRIMEIRA_VISITA_POTENCIAL", "RAZAO_SOCIAL": "GILDASIO_LISBOA_DE_ARIAN", "ENDERECO": "AVENIDA_IRENE_-_ATE_252_-_LADO_PAR_81_JARDIM_EMILIO_CARLOS_EMBU_DAS_ARTES_BRASIL", "CIDADE": "EMBU_DAS_ARTES", "LATITUDE": -23.6625853, "LONGITUDE": -46.7957892, "LINK": "#N/D" }, "geometry": { "type": "Point", "coordinates": [ -46.7957892, -23.6625853 ] } },
{ "type": "Feature", "properties": { "CNPJ": 41699963000102, "AGENTE": "NOEMIA_DOMINGUES", "ACAO": "REALIZAR_PRIMEIRA_VISITA_POTENCIAL", "RAZAO_SOCIAL": "SEBASTIAO_PEREIRA_DE_ALMEIDA_TRANSPORTES_LTDA", "ENDERECO": "RUA_MARQUES_DE_PARANAGUA_82_ENGENHO_VELHO_EMBU_DAS_ARTES_BRASIL", "CIDADE": "EMBU_DAS_ARTES", "LATITUDE": -23.662791, "LONGITUDE": -46.8614613, "LINK": "#N/D" }, "geometry": { "type": "Point", "coordinates": [ -46.8614613, -23.662791 ] } },
{ "type": "Feature", "properties": { "CNPJ": 41029025000103, "AGENTE": "NOEMIA_DOMINGUES", "ACAO": "REALIZAR_PRIMEIRA_VISITA_POTENCIAL", "RAZAO_SOCIAL": "RAFAEL_DOS_SANTOS_FERREIRA", "ENDERECO": "ESTRADA_SANTO_ANTONIO_99_JARDIM_SAO_MARCOS_EMBU_DAS_ARTES_BRASIL", "CIDADE": "EMBU_DAS_ARTES", "LATITUDE": -23.6638312, "LONGITUDE": -46.811593, "LINK": "#N/D" }, "geometry": { "type": "Point", "coordinates": [ -46.811593, -23.6638312 ] } },
{ "type": "Feature", "properties": { "CNPJ": 8782143000104, "AGENTE": "NOEMIA_DOMINGUES", "ACAO": "REALIZAR_PRIMEIRA_VISITA_POTENCIAL", "RAZAO_SOCIAL": "MICHELLECAR_AR_CONDICIONADO_AUTOMOTIVO", "ENDERECO": "RUA_AUGUSTO_DE_ALMEIDA_BATISTA_1573_JARDIM_SAO_MARCOS_EMBU_DAS_ARTES_BRASIL", "CIDADE": "EMBU_DAS_ARTES", "LATITUDE": -23.6638618, "LONGITUDE": -46.8096261, "LINK": "#N/D" }, "geometry": { "type": "Point", "coordinates": [ -46.8096261, -23.6638618 ] } },
{ "type": "Feature", "properties": { "CNPJ": 43907436000171, "AGENTE": "NOEMIA_DOMINGUES", "ACAO": "REALIZAR_PRIMEIRA_VISITA_POTENCIAL", "RAZAO_SOCIAL": "JACKSON_PEREIRA_DE_SOUSA", "ENDERECO": "RUA_XINGU_54_JARDIM_NOVO_CAMPO_LIMPO_EMBU_DAS_ARTES_BRASIL", "CIDADE": "EMBU_DAS_ARTES", "LATITUDE": -23.6638671, "LONGITUDE": -46.8037602, "LINK": "#N/D" }, "geometry": { "type": "Point", "coordinates": [ -46.8037602, -23.6638671 ] } },
{ "type": "Feature", "properties": { "CNPJ": 16950458000141, "AGENTE": "NOEMIA_DOMINGUES", "ACAO": "REALIZAR_PRIMEIRA_VISITA_POTENCIAL", "RAZAO_SOCIAL": "SUELY_BATISTA_DOS_SANTOS_COMERCIO_DE_MATERIAIS_PARA_CONSTRUCAO", "ENDERECO": "RUA_AUGUSTO_DE_ALMEIDA_BATISTA_1273_JARDIM_SAO_VICENTE_EMBU_DAS_ARTES_BRASIL", "CIDADE": "EMBU_DAS_ARTES", "LATITUDE": -23.6646925, "LONGITUDE": -46.8115323, "LINK": "#N/D" }, "geometry": { "type": "Point", "coordinates": [ -46.8115323, -23.6646925 ] } },
{ "type": "Feature", "properties": { "CNPJ": 45619270000113, "AGENTE": "NOEMIA_DOMINGUES", "ACAO": "REALIZAR_PRIMEIRA_VISITA_POTENCIAL", "RAZAO_SOCIAL": "45.619.270_GABRIELA_OLIVEIRA_SOUZA", "ENDERECO": "RUA_GUAIBA_59_JARDIM_NOVO_CAMPO_LIMPO_EMBU_DAS_ARTES_BRASIL", "CIDADE": "EMBU_DAS_ARTES", "LATITUDE": -23.6648693, "LONGITUDE": -46.8030343, "LINK": "#N/D" }, "geometry": { "type": "Point", "coordinates": [ -46.8030343, -23.6648693 ] } },
{ "type": "Feature", "properties": { "CNPJ": 46875517000125, "AGENTE": "NOEMIA_DOMINGUES", "ACAO": "REALIZAR_PRIMEIRA_VISITA_POTENCIAL", "RAZAO_SOCIAL": "LUCIANO_ALBERTO_ALMEIDA_DOS_SANTOS", "ENDERECO": "RUA_BARONESA_DE_ITU_920_ENGENHO_VELHO_EMBU_DAS_ARTES_BRASIL", "CIDADE": "EMBU_DAS_ARTES", "LATITUDE": -23.6654665, "LONGITUDE": -46.8623174, "LINK": "#N/D" }, "geometry": { "type": "Point", "coordinates": [ -46.8623174, -23.6654665 ] } },
{ "type": "Feature", "properties": { "CNPJ": 16748480000103, "AGENTE": "NOEMIA_DOMINGUES", "ACAO": "REALIZAR_PRIMEIRA_VISITA_POTENCIAL", "RAZAO_SOCIAL": "PET_SHOP_CENTRAL_NR_-_LTDA", "ENDERECO": "RUA_CENTRAL_49_JARDIM_DOM_JOSE_EMBU_DAS_ARTES_BRASIL", "CIDADE": "EMBU_DAS_ARTES", "LATITUDE": -23.6662012, "LONGITUDE": -46.8027777, "LINK": "#N/D" }, "geometry": { "type": "Point", "coordinates": [ -46.8027777, -23.6662012 ] } },
{ "type": "Feature", "properties": { "CNPJ": 21803336000162, "AGENTE": "NOEMIA_DOMINGUES", "ACAO": "REALIZAR_PRIMEIRA_VISITA_POTENCIAL", "RAZAO_SOCIAL": "MICHAEL_ANDRE_DEUS_DA_SILVA", "ENDERECO": "ESTRADA_BREMEN_274_CHACARAS_CAXINGUI_EMBU_DAS_ARTES_BRASIL", "CIDADE": "EMBU_DAS_ARTES", "LATITUDE": -23.6669373, "LONGITUDE": -46.8081285, "LINK": "#N/D" }, "geometry": { "type": "Point", "coordinates": [ -46.8081285, -23.6669373 ] } },
{ "type": "Feature", "properties": { "CNPJ": 32749872000143, "AGENTE": "NOEMIA_DOMINGUES", "ACAO": "REALIZAR_PRIMEIRA_VISITA_POTENCIAL", "RAZAO_SOCIAL": "ANA_CLEYDE_SANTANA_SANTOS", "ENDERECO": "RUA_DO_BOM_JESUS_94_CHACARAS_CAXINGUI_EMBU_DAS_ARTES_BRASIL", "CIDADE": "EMBU_DAS_ARTES", "LATITUDE": -23.6680826, "LONGITUDE": -46.8083632, "LINK": "#N/D" }, "geometry": { "type": "Point", "coordinates": [ -46.8083632, -23.6680826 ] } },
{ "type": "Feature", "properties": { "CNPJ": 19020948000137, "AGENTE": "NOEMIA_DOMINGUES", "ACAO": "REALIZAR_PRIMEIRA_VISITA_POTENCIAL", "RAZAO_SOCIAL": "SAMUEL_RAMOS_DE_ARRUDA", "ENDERECO": "RUA_MARCELINA_175_JARDIM_SANTO_EDUARDO_EMBU_DAS_ARTES_BRASIL", "CIDADE": "EMBU_DAS_ARTES", "LATITUDE": -23.6683015, "LONGITUDE": -46.7960945, "LINK": "#N/D" }, "geometry": { "type": "Point", "coordinates": [ -46.7960945, -23.6683015 ] } },
{ "type": "Feature", "properties": { "CNPJ": 40161032000193, "AGENTE": "NOEMIA_DOMINGUES", "ACAO": "REALIZAR_PRIMEIRA_VISITA_POTENCIAL", "RAZAO_SOCIAL": "DENISE_FERREIRA_RIBEIRO", "ENDERECO": "RUA_CALIFORNIA_632_JARDIM_SANTO_EDUARDO_EMBU_DAS_ARTES_BRASIL", "CIDADE": "EMBU_DAS_ARTES", "LATITUDE": -23.6685187, "LONGITUDE": -46.8004959, "LINK": "#N/D" }, "geometry": { "type": "Point", "coordinates": [ -46.8004959, -23.6685187 ] } },
{ "type": "Feature", "properties": { "CNPJ": 29142109000145, "AGENTE": "NOEMIA_DOMINGUES", "ACAO": "REALIZAR_PRIMEIRA_VISITA_POTENCIAL", "RAZAO_SOCIAL": "INGRID_MENEZES_DOS_SANTOS", "ENDERECO": "RUA_JOAO_DO_DICO_58_JARDIM_SANTO_ANTONIO_EMBU_DAS_ARTES_BRASIL", "CIDADE": "EMBU_DAS_ARTES", "LATITUDE": -23.6700843, "LONGITUDE": -46.8492131, "LINK": "#N/D" }, "geometry": { "type": "Point", "coordinates": [ -46.8492131, -23.6700843 ] } },
{ "type": "Feature", "properties": { "CNPJ": 37994962000113, "AGENTE": "NOEMIA_DOMINGUES", "ACAO": "REALIZAR_PRIMEIRA_VISITA_POTENCIAL", "RAZAO_SOCIAL": "JHONATAN_NOVAES_DOS_SANTOS", "ENDERECO": "RUA_JOAO_DO_DICO_272_JARDIM_SANTO_ANTONIO_EMBU_DAS_ARTES_BRASIL", "CIDADE": "EMBU_DAS_ARTES", "LATITUDE": -23.6705251, "LONGITUDE": -46.8488034, "LINK": "#N/D" }, "geometry": { "type": "Point", "coordinates": [ -46.8488034, -23.6705251 ] } },
{ "type": "Feature", "properties": { "CNPJ": 35678496000131, "AGENTE": "NOEMIA_DOMINGUES", "ACAO": "REALIZAR_PRIMEIRA_VISITA_POTENCIAL", "RAZAO_SOCIAL": "ANDREA_DE_ALMEIDA_SILVA_SERVICOS_E_EVENTOS", "ENDERECO": "RUA_MARINGA_285_JARDIM_SANTO_EDUARDO_EMBU_DAS_ARTES_BRASIL", "CIDADE": "EMBU_DAS_ARTES", "LATITUDE": -23.6716767, "LONGITUDE": -46.8011788, "LINK": "#N/D" }, "geometry": { "type": "Point", "coordinates": [ -46.8011788, -23.6716767 ] } },
{ "type": "Feature", "properties": { "CNPJ": 30724222000118, "AGENTE": "NOEMIA_DOMINGUES", "ACAO": "REALIZAR_PRIMEIRA_VISITA_POTENCIAL", "RAZAO_SOCIAL": "MISAEL_AMARAL", "ENDERECO": "RUA_NOSSA_SENHORA_DAS_DORES_50_JARDIM_SANTO_ANTONIO_EMBU_DAS_ARTES_BRASIL", "CIDADE": "EMBU_DAS_ARTES", "LATITUDE": -23.6723036, "LONGITUDE": -46.8461107, "LINK": "#N/D" }, "geometry": { "type": "Point", "coordinates": [ -46.8461107, -23.6723036 ] } },
{ "type": "Feature", "properties": { "CNPJ": 39230496000125, "AGENTE": "NOEMIA_DOMINGUES", "ACAO": "REALIZAR_PRIMEIRA_VISITA_POTENCIAL", "RAZAO_SOCIAL": "SEBASTIAO_NESTOR_DA_SILVA", "ENDERECO": "RUA_IRAI_312_JARDIM_DA_LUZ_EMBU_DAS_ARTES_BRASIL", "CIDADE": "EMBU_DAS_ARTES", "LATITUDE": -23.6723339, "LONGITUDE": -46.8058704, "LINK": "#N/D" }, "geometry": { "type": "Point", "coordinates": [ -46.8058704, -23.6723339 ] } },
{ "type": "Feature", "properties": { "CNPJ": 48766155000160, "AGENTE": "NOEMIA_DOMINGUES", "ACAO": "REALIZAR_PRIMEIRA_VISITA_POTENCIAL", "RAZAO_SOCIAL": "KEROLEN_SUZANE_DE_OLIVEIRA", "ENDERECO": "RUA_CAICARA_579_JARDIM_DA_LUZ_EMBU_DAS_ARTES_BRASIL", "CIDADE": "EMBU_DAS_ARTES", "LATITUDE": -23.6741576, "LONGITUDE": -46.8057816, "LINK": "#N/D" }, "geometry": { "type": "Point", "coordinates": [ -46.8057816, -23.6741576 ] } },
{ "type": "Feature", "properties": { "CNPJ": 49202612000156, "AGENTE": "NOEMIA_DOMINGUES", "ACAO": "REALIZAR_PRIMEIRA_VISITA_POTENCIAL", "RAZAO_SOCIAL": "FABIANO_APARECIDO_DE_SOUSA", "ENDERECO": "RUA_NOSSA_SENHORA_DA_CONCEICAO_351_JARDIM_SANTO_ANTONIO_EMBU_DAS_ARTES_BRASIL", "CIDADE": "EMBU_DAS_ARTES", "LATITUDE": -23.6744418, "LONGITUDE": -46.8462096, "LINK": "#N/D" }, "geometry": { "type": "Point", "coordinates": [ -46.8462096, -23.6744418 ] } },
{ "type": "Feature", "properties": { "CNPJ": 53502619000160, "AGENTE": "NOEMIA_DOMINGUES", "ACAO": "REALIZAR_PRIMEIRA_VISITA_POTENCIAL", "RAZAO_SOCIAL": "VALDEVINO_DO_NASCIMENTO_ALVES", "ENDERECO": "RUA_SANTOS_DUMONT_152_JARDIM_SANTO_EDUARDO_EMBU_DAS_ARTES_BRASIL", "CIDADE": "EMBU_DAS_ARTES", "LATITUDE": -23.6748952, "LONGITUDE": -46.7992762, "LINK": "#N/D" }, "geometry": { "type": "Point", "coordinates": [ -46.7992762, -23.6748952 ] } },
{ "type": "Feature", "properties": { "CNPJ": 44716232000116, "AGENTE": "NOEMIA_DOMINGUES", "ACAO": "REALIZAR_PRIMEIRA_VISITA_POTENCIAL", "RAZAO_SOCIAL": "JAIR_AZARIAS", "ENDERECO": "RUA_NOSSA_SENHORA_DE_FATIMA_217_JARDIM_SANTO_ANTONIO_EMBU_DAS_ARTES_BRASIL", "CIDADE": "EMBU_DAS_ARTES", "LATITUDE": -23.6751026, "LONGITUDE": -46.8459489, "LINK": "#N/D" }, "geometry": { "type": "Point", "coordinates": [ -46.8459489, -23.6751026 ] } },
{ "type": "Feature", "properties": { "CNPJ": 35127256000149, "AGENTE": "NOEMIA_DOMINGUES", "ACAO": "REALIZAR_PRIMEIRA_VISITA_POTENCIAL", "RAZAO_SOCIAL": "JPB_ASSESSORIA_E_ATIVIDADES_ESPORTIVAS_LTDA", "ENDERECO": "AVENIDA_JUNDIAI_33_JARDIM_ANGELA_EMBU_DAS_ARTES_BRASIL", "CIDADE": "EMBU_DAS_ARTES", "LATITUDE": -23.6751588, "LONGITUDE": -46.8031718, "LINK": "#N/D" }, "geometry": { "type": "Point", "coordinates": [ -46.8031718, -23.6751588 ] } },
{ "type": "Feature", "properties": { "CNPJ": 50834984000184, "AGENTE": "NOEMIA_DOMINGUES", "ACAO": "REALIZAR_PRIMEIRA_VISITA_POTENCIAL", "RAZAO_SOCIAL": "ALINE_NUNES_SILVA", "ENDERECO": "RUA_DAS_NOGUEIRAS_78_JARDIM_PINHEIRINHO_EMBU_DAS_ARTES_BRASIL", "CIDADE": "EMBU_DAS_ARTES", "LATITUDE": -23.6791554, "LONGITUDE": -46.8511273, "LINK": "#N/D" }, "geometry": { "type": "Point", "coordinates": [ -46.8511273, -23.6791554 ] } },
{ "type": "Feature", "properties": { "CNPJ": 17807484000188, "AGENTE": "NOEMIA_DOMINGUES", "ACAO": "REALIZAR_PRIMEIRA_VISITA_POTENCIAL", "RAZAO_SOCIAL": "EDSON_SEVERINO_DA_SILVA", "ENDERECO": "RUA_PAU-BRASIL_179_JARDIM_PINHEIRINHO_EMBU_DAS_ARTES_BRASIL", "CIDADE": "EMBU_DAS_ARTES", "LATITUDE": -23.6792742, "LONGITUDE": -46.852487, "LINK": "#N/D" }, "geometry": { "type": "Point", "coordinates": [ -46.852487, -23.6792742 ] } },
{ "type": "Feature", "properties": { "CNPJ": 11364701000126, "AGENTE": "NOEMIA_DOMINGUES", "ACAO": "REALIZAR_PRIMEIRA_VISITA_POTENCIAL", "RAZAO_SOCIAL": "EDINETE_DE_MELO_SANTOS", "ENDERECO": "RUA_GOIABEIRAS_86_JARDIM_PINHEIRINHO_EMBU_DAS_ARTES_BRASIL", "CIDADE": "EMBU_DAS_ARTES", "LATITUDE": -23.6794095, "LONGITUDE": -46.8527718, "LINK": "#N/D" }, "geometry": { "type": "Point", "coordinates": [ -46.8527718, -23.6794095 ] } },
{ "type": "Feature", "properties": { "CNPJ": 7609370000170, "AGENTE": "NOEMIA_DOMINGUES", "ACAO": "REALIZAR_PRIMEIRA_VISITA_POTENCIAL", "RAZAO_SOCIAL": "DILIAN_CATALAO_DA_CRUZ", "ENDERECO": "RUA_DOS_PINHEIROS_337_JARDIM_PINHEIRINHO_EMBU_DAS_ARTES_BRASIL", "CIDADE": "EMBU_DAS_ARTES", "LATITUDE": -23.6794295, "LONGITUDE": -46.8541935, "LINK": "#N/D" }, "geometry": { "type": "Point", "coordinates": [ -46.8541935, -23.6794295 ] } },
{ "type": "Feature", "properties": { "CNPJ": 13636273000179, "AGENTE": "NOEMIA_DOMINGUES", "ACAO": "REALIZAR_PRIMEIRA_VISITA_POTENCIAL", "RAZAO_SOCIAL": "DOUGLAS_DOS_SANTOS_PIVANTE", "ENDERECO": "RUA_SERRA_NEGRA_12_JARDIM_ANGELA_EMBU_DAS_ARTES_BRASIL", "CIDADE": "EMBU_DAS_ARTES", "LATITUDE": -23.6795908, "LONGITUDE": -46.8028868, "LINK": "#N/D" }, "geometry": { "type": "Point", "coordinates": [ -46.8028868, -23.6795908 ] } },
{ "type": "Feature", "properties": { "CNPJ": 33049056000190, "AGENTE": "NOEMIA_DOMINGUES", "ACAO": "REALIZAR_PRIMEIRA_VISITA_POTENCIAL", "RAZAO_SOCIAL": "33.049.056_MARIA_JOSENILDA_FAUSTINO_FERREIRA", "ENDERECO": "RUA_CACTUS_465_JARDIM_PINHEIRINHO_EMBU_DAS_ARTES_BRASIL", "CIDADE": "EMBU_DAS_ARTES", "LATITUDE": -23.6820529, "LONGITUDE": -46.8542957, "LINK": "#N/D" }, "geometry": { "type": "Point", "coordinates": [ -46.8542957, -23.6820529 ] } },
{ "type": "Feature", "properties": { "CNPJ": 41597409000114, "AGENTE": "NOEMIA_DOMINGUES", "ACAO": "REALIZAR_PRIMEIRA_VISITA_POTENCIAL", "RAZAO_SOCIAL": "ANDRESSA_ALVES_DE_JESUS", "ENDERECO": "RUA_FLUMINENSE_388_JARDIM_ANGELA_EMBU_DAS_ARTES_BRASIL", "CIDADE": "EMBU_DAS_ARTES", "LATITUDE": -23.682226, "LONGITUDE": -46.8009387, "LINK": "#N/D" }, "geometry": { "type": "Point", "coordinates": [ -46.8009387, -23.682226 ] } },
{ "type": "Feature", "properties": { "CNPJ": 43958194000145, "AGENTE": "NOEMIA_DOMINGUES", "ACAO": "REALIZAR_PRIMEIRA_VISITA_POTENCIAL", "RAZAO_SOCIAL": "VERONEIDE_DE_ARAUJO_ROCHA", "ENDERECO": "RUA_DA_ESPERANCA_217_JARDIM_PINHEIRINHO_EMBU_DAS_ARTES_BRASIL", "CIDADE": "EMBU_DAS_ARTES", "LATITUDE": -23.6832688, "LONGITUDE": -46.853359, "LINK": "#N/D" }, "geometry": { "type": "Point", "coordinates": [ -46.853359, -23.6832688 ] } },
{ "type": "Feature", "properties": { "CNPJ": 37874923000182, "AGENTE": "NOEMIA_DOMINGUES", "ACAO": "REALIZAR_PRIMEIRA_VISITA_POTENCIAL", "RAZAO_SOCIAL": "ELISANGELA_CHAVES_DOS_SANTOS_SILVA", "ENDERECO": "RUA_JOSE_AGRIPINO_DOS_SANTOS_25_EMBU_MIRIM_ITAPECERICA_DA_SERRA_BRASIL", "CIDADE": "ITAPECERICA_DA_SERRA", "LATITUDE": -23.6803385, "LONGITUDE": -46.841216, "LINK": "#N/D" }, "geometry": { "type": "Point", "coordinates": [ -46.841216, -23.6803385 ] } },
{ "type": "Feature", "properties": { "CNPJ": 36728401000100, "AGENTE": "NOEMIA_DOMINGUES", "ACAO": "REALIZAR_PRIMEIRA_VISITA_POTENCIAL", "RAZAO_SOCIAL": "MICHAEL_DAVID_DA_SILVA_PINTO", "ENDERECO": "RUA_DOS_CANARIOS_32_JARDIM_VAZAME_EMBU_DAS_ARTES_BRASIL", "CIDADE": "OSASCO", "LATITUDE": -23.6582691, "LONGITUDE": -46.8037662, "LINK": "#N/D" }, "geometry": { "type": "Point", "coordinates": [ -46.8037662, -23.6582691 ] } },
{ "type": "Feature", "properties": { "CNPJ": 28685249000105, "AGENTE": "NOEMIA_DOMINGUES", "ACAO": "REALIZAR_PRIMEIRA_VISITA_POTENCIAL", "RAZAO_SOCIAL": "ROBERTO_BISPO_DE_ARAUJO", "ENDERECO": "RUA_RECIFE_442_JARDIM_VISTA_ALEGRE_EMBU_DAS_ARTES_BRASIL", "CIDADE": "SAO_PAULO", "LATITUDE": -23.6256224, "LONGITUDE": -46.8206791, "LINK": "#N/D" }, "geometry": { "type": "Point", "coordinates": [ -46.8206791, -23.6256224 ] } },
{ "type": "Feature", "properties": { "CNPJ": 44500507000180, "AGENTE": "NOEMIA_DOMINGUES", "ACAO": "REALIZAR_PRIMEIRA_VISITA_POTENCIAL", "RAZAO_SOCIAL": "CANTO_DA_PIZZA_BAR_E_RESTAURANTE_LTDA", "ENDERECO": "ESTRADA_SAO_JUDAS_190_PARQUE_ESPLANADA_EMBU_DAS_ARTES_BRASIL", "CIDADE": "SAO_PAULO", "LATITUDE": -23.6278337, "LONGITUDE": -46.8158313, "LINK": "#N/D" }, "geometry": { "type": "Point", "coordinates": [ -46.8158313, -23.6278337 ] } },
{ "type": "Feature", "properties": { "CNPJ": 47228805000150, "AGENTE": "NOEMIA_DOMINGUES", "ACAO": "REALIZAR_PRIMEIRA_VISITA_POTENCIAL", "RAZAO_SOCIAL": "FABIANA_BALAN_RODRIGUES_DOS_REIS", "ENDERECO": "RUA_DOM_JOAO_VI_17_JARDIM_SANTA_MARIA_EMBU_DAS_ARTES_BRASIL", "CIDADE": "SAO_PAULO", "LATITUDE": -23.6344358, "LONGITUDE": -46.840838, "LINK": "#N/D" }, "geometry": { "type": "Point", "coordinates": [ -46.840838, -23.6344358 ] } },
{ "type": "Feature", "properties": { "CNPJ": 24539936000153, "AGENTE": "NOEMIA_DOMINGUES", "ACAO": "REALIZAR_PRIMEIRA_VISITA_POTENCIAL", "RAZAO_SOCIAL": "ROBERTO_SANTO_DOS_SANTOS", "ENDERECO": "RUA_NARUMI_NAKAYAMA_432_JARDIM_NOSSA_SENHORA_DE_FATIMA_EMBU_DAS_ARTES_BRASIL", "CIDADE": "SAO_PAULO", "LATITUDE": -23.6438903, "LONGITUDE": -46.8209893, "LINK": "#N/D" }, "geometry": { "type": "Point", "coordinates": [ -46.8209893, -23.6438903 ] } },
{ "type": "Feature", "properties": { "CNPJ": 47341887000145, "AGENTE": "NOEMIA_DOMINGUES", "ACAO": "REALIZAR_PRIMEIRA_VISITA_POTENCIAL", "RAZAO_SOCIAL": "ELITON_DE_OLIVEIRA_SILVA", "ENDERECO": "RUA_ANA_MOISES_110_PARQUE_PIRAJUSSARA_EMBU_DAS_ARTES_BRASIL", "CIDADE": "SAO_PAULO", "LATITUDE": -23.6503962, "LONGITUDE": -46.818499, "LINK": "#N/D" }, "geometry": { "type": "Point", "coordinates": [ -46.818499, -23.6503962 ] } },
{ "type": "Feature", "properties": { "CNPJ": 45315760000126, "AGENTE": "NOEMIA_DOMINGUES", "ACAO": "REALIZAR_PRIMEIRA_VISITA_POTENCIAL", "RAZAO_SOCIAL": "EDUARDA_SANTOS_CAMARA_PEREIRA", "ENDERECO": "RUA_BELO_HORIZONTE_240_JARDIM_BRASIL_NOVO_SAO_PAULO_BRASIL", "CIDADE": "SAO_PAULO", "LATITUDE": -23.6512617, "LONGITUDE": -46.8550245, "LINK": "#N/D" }, "geometry": { "type": "Point", "coordinates": [ -46.8550245, -23.6512617 ] } },
{ "type": "Feature", "properties": { "CNPJ": 19241475000106, "AGENTE": "NOEMIA_DOMINGUES", "ACAO": "REALIZAR_PRIMEIRA_VISITA_POTENCIAL", "RAZAO_SOCIAL": "MARIA_CELIA_FERREIRA_SILVA", "ENDERECO": "RUA_MARQUESA_DE_SANTOS_70_JARDIM_INDEPENDENCIA_EMBU_DAS_ARTES_BRASIL", "CIDADE": "SAO_PAULO", "LATITUDE": -23.652773, "LONGITUDE": -46.7961605, "LINK": "#N/D" }, "geometry": { "type": "Point", "coordinates": [ -46.7961605, -23.652773 ] } },
{ "type": "Feature", "properties": { "CNPJ": 31237568000154, "AGENTE": "NOEMIA_DOMINGUES", "ACAO": "REALIZAR_PRIMEIRA_VISITA_POTENCIAL", "RAZAO_SOCIAL": "VICTOR_NASCIMENTO_TORRES", "ENDERECO": "ESTRADA_DE_CONSTANTINOPLA_-_ATE_434_-_LADO_PAR_1105_JARDIM_MARINA_EMBU_DAS_ARTES_BRASIL", "CIDADE": "SAO_PAULO", "LATITUDE": -23.6555409, "LONGITUDE": -46.7976059, "LINK": "#N/D" }, "geometry": { "type": "Point", "coordinates": [ -46.7976059, -23.6555409 ] } },
{ "type": "Feature", "properties": { "CNPJ": 12162360000179, "AGENTE": "NOEMIA_DOMINGUES", "ACAO": "REALIZAR_PRIMEIRA_VISITA_POTENCIAL", "RAZAO_SOCIAL": "DANIEL_MENDES_DE_AGUIAR_PEREIRA", "ENDERECO": "RUA_PANAMA_150_JARDIM_DOS_MORAES_EMBU_DAS_ARTES_BRASIL", "CIDADE": "SAO_PAULO", "LATITUDE": -23.6582235, "LONGITUDE": -46.8182822, "LINK": "#N/D" }, "geometry": { "type": "Point", "coordinates": [ -46.8182822, -23.6582235 ] } },
{ "type": "Feature", "properties": { "CNPJ": 30943426000140, "AGENTE": "NOEMIA_DOMINGUES", "ACAO": "REALIZAR_PRIMEIRA_VISITA_POTENCIAL", "RAZAO_SOCIAL": "KBCA_DE_NEGO_LTDA", "ENDERECO": "RUA_AUGUSTO_DE_ALMEIDA_BATISTA_-_DE_2965/2966_AO_FIM_587_JARDIM_SANTA_EMILIA_EMBU_DAS_ARTES_BRASIL", "CIDADE": "SAO_PAULO", "LATITUDE": -23.6613531, "LONGITUDE": -46.7987082, "LINK": "#N/D" }, "geometry": { "type": "Point", "coordinates": [ -46.7987082, -23.6613531 ] } },
{ "type": "Feature", "properties": { "CNPJ": 37176934000199, "AGENTE": "NOEMIA_DOMINGUES", "ACAO": "REALIZAR_PRIMEIRA_VISITA_POTENCIAL", "RAZAO_SOCIAL": "OPHICINA_SAO_FRANCISCO_ARTE_EM_MADEIRAS_LTDA", "ENDERECO": "ALAMEDA_FLAMINGO_89_JARDIM_ITATIAIA_EMBU_DAS_ARTES_BRASIL", "CIDADE": "SAO_PAULO", "LATITUDE": -23.6645256, "LONGITUDE": -46.8944232, "LINK": "#N/D" }, "geometry": { "type": "Point", "coordinates": [ -46.8944232, -23.6645256 ] } },
{ "type": "Feature", "properties": { "CNPJ": 22274347000165, "AGENTE": "NOEMIA_DOMINGUES", "ACAO": "REALIZAR_PRIMEIRA_VISITA_POTENCIAL", "RAZAO_SOCIAL": "LUCIA_DA_ANUNCIACAO", "ENDERECO": "RUA_GAURAMA_73_JARDIM_DA_LUZ_EMBU_DAS_ARTES_BRASIL", "CIDADE": "SAO_PAULO", "LATITUDE": -23.6699577, "LONGITUDE": -46.80973059, "LINK": "#N/D" }, "geometry": { "type": "Point", "coordinates": [ -46.80973059, -23.6699577 ] } },
{ "type": "Feature", "properties": { "CNPJ": 46261291000172, "AGENTE": "NOEMIA_DOMINGUES", "ACAO": "REALIZAR_PRIMEIRA_VISITA_POTENCIAL", "RAZAO_SOCIAL": "HUMBERTO_MASSACHI_AKAIKE", "ENDERECO": "RUA_JUQUIA_269_VL_NOVA_JUQUIA_BRASIL", "CIDADE": "SAO_PAULO", "LATITUDE": -23.6786351, "LONGITUDE": -46.8031219, "LINK": "#N/D" }, "geometry": { "type": "Point", "coordinates": [ -46.8031219, -23.6786351 ] } },
{ "type": "Feature", "properties": { "CNPJ": 40252279000115, "AGENTE": "NOEMIA_DOMINGUES", "ACAO": "REALIZAR_PRIMEIRA_VISITA_POTENCIAL", "RAZAO_SOCIAL": "JEMIMA_BASTOS_SILVA_ALVES", "ENDERECO": "RUA_RIQUEZA_27_JARDIM_BATISTA_EMBU_DAS_ARTES_BRASIL", "CIDADE": "SAO_PAULO", "LATITUDE": -23.6831659, "LONGITUDE": -46.808401, "LINK": "#N/D" }, "geometry": { "type": "Point", "coordinates": [ -46.808401, -23.6831659 ] } },
{ "type": "Feature", "properties": { "CNPJ": 36809538000199, "AGENTE": "NOEMIA_DOMINGUES", "ACAO": "REALIZAR_PRIMEIRA_VISITA_POTENCIAL", "RAZAO_SOCIAL": "MARIA_DO_PERPETUO_SOCORRO_FERNANDES_PEREIRA", "ENDERECO": "RUA_LIDER_93_JARDIM_BATISTA_EMBU_DAS_ARTES_BRASIL", "CIDADE": "SAO_PAULO", "LATITUDE": -23.6853673, "LONGITUDE": -46.8064277, "LINK": "#N/D" }, "geometry": { "type": "Point", "coordinates": [ -46.8064277, -23.6853673 ] } },
{ "type": "Feature", "properties": { "CNPJ": 8711666000160, "AGENTE": "NOEMIA_DOMINGUES", "ACAO": "REALIZAR_PRIMEIRA_VISITA_POTENCIAL", "RAZAO_SOCIAL": "KATIA_CILENE_CORTES_DE_CARVALHO_SILVA", "ENDERECO": "RUA_DA_PATRIA_39_JARDIM_DAS_MARGARIDAS_TABOAO_DA_SERRA_BRASIL", "CIDADE": "TABOAO_DA_SERRA", "LATITUDE": -23.6271819, "LONGITUDE": -46.8115875, "LINK": "#N/D" }, "geometry": { "type": "Point", "coordinates": [ -46.8115875, -23.6271819 ] } },
{ "type": "Feature", "properties": { "CNPJ": 52057483000164, "AGENTE": "NOEMIA_DOMINGUES", "ACAO": "REALIZAR_PRIMEIRA_VISITA_POTENCIAL", "RAZAO_SOCIAL": "LOURIVALDO_FERREIRA_SILVA_NEPOMUCENO", "ENDERECO": "RUA_MARIA_JOSE_LUIZETTO_BUSCARINI_55_JARDIM_SAO_JUDAS_TADEU_TABOAO_DA_SERRA_BRASIL", "CIDADE": "TABOAO_DA_SERRA", "LATITUDE": -23.6279851, "LONGITUDE": -46.8127426, "LINK": "#N/D" }, "geometry": { "type": "Point", "coordinates": [ -46.8127426, -23.6279851 ] } },
{ "type": "Feature", "properties": { "CNPJ": 33270887000197, "AGENTE": "NOEMIA_DOMINGUES", "ACAO": "REALIZAR_PRIMEIRA_VISITA_POTENCIAL", "RAZAO_SOCIAL": "AGENCIA_MS_MOVA-SE_TURISMO_E_VIAGEM_LTDA", "ENDERECO": "RUA_MANOEL_FERREIRA_TORRES_DO_GRANJA_122_JARDIM_SANTA_CRUZ_TABOAO_DA_SERRA_BRASIL", "CIDADE": "TABOAO_DA_SERRA", "LATITUDE": -23.6438735, "LONGITUDE": -46.8035296, "LINK": "#N/D" }, "geometry": { "type": "Point", "coordinates": [ -46.8035296, -23.6438735 ] } },
{ "type": "Feature", "properties": { "CNPJ": 45024790000183, "AGENTE": "NOEMIA_DOMINGUES", "ACAO": "REALIZAR_PRIMEIRA_VISITA_POTENCIAL", "RAZAO_SOCIAL": "MARCIA_DE_ALMEIDA_BARRETO", "ENDERECO": "RUA_AFRODITE_147_JARDIM_VITORIA_EMBU_DAS_ARTES_BRASIL", "CIDADE": "TABOAO_DA_SERRA", "LATITUDE": -23.6547271, "LONGITUDE": -46.8003303, "LINK": "#N/D" }, "geometry": { "type": "Point", "coordinates": [ -46.8003303, -23.6547271 ] } },
{ "type": "Feature", "properties": { "CNPJ": 21593730000113, "AGENTE": "NOEMIA_DOMINGUES", "ACAO": "REALIZAR_PRIMEIRA_VISITA_POTENCIAL", "RAZAO_SOCIAL": "VANUSA_ALVES_FERRAZ", "ENDERECO": "AVENIDA_CARLOS_LACERDA_-_ATE_679/680_194_PIRAJUSSARA_SAO_PAULO_BRASIL", "CIDADE": "SAO_PAULO", "LATITUDE": -23.6350959, "LONGITUDE": -46.7754935, "LINK": "#N/D" }, "geometry": { "type": "Point", "coordinates": [ -46.7754935, -23.6350959 ] } },
{ "type": "Feature", "properties": { "CNPJ": 27052096000198, "AGENTE": "NOEMIA_DOMINGUES", "ACAO": "REALIZAR_PRIMEIRA_VISITA_POTENCIAL", "RAZAO_SOCIAL": "ELTON_DE_OLIVEIRA_LIMA", "ENDERECO": "RUA_BERNARDO_TAVARES_32_VILA_PIRAJUSSARA_SAO_PAULO_BRASIL", "CIDADE": "SAO_PAULO", "LATITUDE": -23.6367067, "LONGITUDE": -46.7759081, "LINK": "#N/D" }, "geometry": { "type": "Point", "coordinates": [ -46.7759081, -23.6367067 ] } },
{ "type": "Feature", "properties": { "CNPJ": 27669874000192, "AGENTE": "NOEMIA_DOMINGUES", "ACAO": "REALIZAR_PRIMEIRA_VISITA_POTENCIAL", "RAZAO_SOCIAL": "ROSILENE_ANDRADE_CORREIA", "ENDERECO": "RUA_MARTIM_DA_COSTA_VILELA_88_VILA_PIRAJUSSARA_SAO_PAULO_BRASIL", "CIDADE": "SAO_PAULO", "LATITUDE": -23.6380763, "LONGITUDE": -46.7745278, "LINK": "#N/D" }, "geometry": { "type": "Point", "coordinates": [ -46.7745278, -23.6380763 ] } },
{ "type": "Feature", "properties": { "CNPJ": 53734252000100, "AGENTE": "NOEMIA_DOMINGUES", "ACAO": "REALIZAR_PRIMEIRA_VISITA_POTENCIAL", "RAZAO_SOCIAL": "RODRIGUES_&_ARCANJO_SERVICOS_DE_APOIO_EMPRESARIAL_LTDA", "ENDERECO": "RUA_SIMONE_DONATELO_20_JARDIM_LEONIDAS_MOREIRA_SAO_PAULO_BRASIL", "CIDADE": "SAO_PAULO", "LATITUDE": -23.6385803, "LONGITUDE": -46.7780671, "LINK": "#N/D" }, "geometry": { "type": "Point", "coordinates": [ -46.7780671, -23.6385803 ] } },
{ "type": "Feature", "properties": { "CNPJ": 40982784000115, "AGENTE": "NOEMIA_DOMINGUES", "ACAO": "REALIZAR_PRIMEIRA_VISITA_POTENCIAL", "RAZAO_SOCIAL": "PLANO_FRIO_REFRIGERACAO_LTDA", "ENDERECO": "RUA_DOUTOR_ZAMITTI_MAMMANA_85_JARDIM_ELIZABETH_SAO_PAULO_BRASIL", "CIDADE": "SAO_PAULO", "LATITUDE": -23.6392784, "LONGITUDE": -46.775247, "LINK": "#N/D" }, "geometry": { "type": "Point", "coordinates": [ -46.775247, -23.6392784 ] } },
{ "type": "Feature", "properties": { "CNPJ": 37653380000173, "AGENTE": "NOEMIA_DOMINGUES", "ACAO": "REALIZAR_PRIMEIRA_VISITA_POTENCIAL", "RAZAO_SOCIAL": "BRUNO_DOS_SANTOS_CARDOZO", "ENDERECO": "RUA_DOUTOR_DIB_GEBARA_192_JARDIM_IRACEMA_SAO_PAULO_BRASIL", "CIDADE": "SAO_PAULO", "LATITUDE": -23.6398921, "LONGITUDE": -46.7837713, "LINK": "#N/D" }, "geometry": { "type": "Point", "coordinates": [ -46.7837713, -23.6398921 ] } },
{ "type": "Feature", "properties": { "CNPJ": 54899780000182, "AGENTE": "NOEMIA_DOMINGUES", "ACAO": "REALIZAR_PRIMEIRA_VISITA_POTENCIAL", "RAZAO_SOCIAL": "54.899.780_JOHN_CRISTIAN_DOS_SANTOS_HONORATO", "ENDERECO": "AVENIDA_CARLOS_LACERDA_1106_PIRAJUSSARA_SAO_PAULO_BRASIL", "CIDADE": "SAO_PAULO", "LATITUDE": -23.6411669, "LONGITUDE": -46.7803606, "LINK": "#N/D" }, "geometry": { "type": "Point", "coordinates": [ -46.7803606, -23.6411669 ] } },
{ "type": "Feature", "properties": { "CNPJ": 32950349000180, "AGENTE": "NOEMIA_DOMINGUES", "ACAO": "REALIZAR_PRIMEIRA_VISITA_POTENCIAL", "RAZAO_SOCIAL": "DANIELE_OLIVEIRA_PIRES", "ENDERECO": "RUA_MANUEL_DIAS_DE_ABREU_306_JARDIM_IRACEMA_SAO_PAULO_BRASIL", "CIDADE": "SAO_PAULO", "LATITUDE": -23.6415009, "LONGITUDE": -46.7852053, "LINK": "#N/D" }, "geometry": { "type": "Point", "coordinates": [ -46.7852053, -23.6415009 ] } },
{ "type": "Feature", "properties": { "CNPJ": 26963188000167, "AGENTE": "NOEMIA_DOMINGUES", "ACAO": "REALIZAR_PRIMEIRA_VISITA_POTENCIAL", "RAZAO_SOCIAL": "LUANA_ALEXANDRA_BARROS_DA_SILVA", "ENDERECO": "RUA_DOUTOR_ANTONIO_BARBOSA_DA_CUNHA_21_JARDIM_MARIA_SAMPAIO_SAO_PAULO_BRASIL", "CIDADE": "SAO_PAULO", "LATITUDE": -23.6415631, "LONGITUDE": -46.7851925, "LINK": "#N/D" }, "geometry": { "type": "Point", "coordinates": [ -46.7851925, -23.6415631 ] } },
{ "type": "Feature", "properties": { "CNPJ": 54342786000154, "AGENTE": "NOEMIA_DOMINGUES", "ACAO": "REALIZAR_PRIMEIRA_VISITA_POTENCIAL", "RAZAO_SOCIAL": "54.342.786_EDUARDO_FERRACINI_JUNIOR", "ENDERECO": "RUA_ATUCUPE_277_JARDIM_LEONIDAS_MOREIRA_SAO_PAULO_BRASIL", "CIDADE": "SAO_PAULO", "LATITUDE": -23.6417708, "LONGITUDE": -46.7752772, "LINK": "#N/D" }, "geometry": { "type": "Point", "coordinates": [ -46.7752772, -23.6417708 ] } },
{ "type": "Feature", "properties": { "CNPJ": 11530555000161, "AGENTE": "NOEMIA_DOMINGUES", "ACAO": "REALIZAR_PRIMEIRA_VISITA_POTENCIAL", "RAZAO_SOCIAL": "FATIMA_APARECIDA_XAVIER", "ENDERECO": "RUA_AMACAS_415_JARDIM_LEONIDAS_MOREIRA_SAO_PAULO_BRASIL", "CIDADE": "SAO_PAULO", "LATITUDE": -23.6422698, "LONGITUDE": -46.7782625, "LINK": "#N/D" }, "geometry": { "type": "Point", "coordinates": [ -46.7782625, -23.6422698 ] } },
{ "type": "Feature", "properties": { "CNPJ": 47742262000195, "AGENTE": "NOEMIA_DOMINGUES", "ACAO": "REALIZAR_PRIMEIRA_VISITA_POTENCIAL", "RAZAO_SOCIAL": "ELDIR_FERREIRA_SALES_08758769609", "ENDERECO": "AVENIDA_AUGUSTO_BARBOSA_TAVARES_542_JARDIM_IRACEMA_SAO_PAULO_BRASIL", "CIDADE": "SAO_PAULO", "LATITUDE": -23.6423489, "LONGITUDE": -46.7861903, "LINK": "#N/D" }, "geometry": { "type": "Point", "coordinates": [ -46.7861903, -23.6423489 ] } },
{ "type": "Feature", "properties": { "CNPJ": 13280200000197, "AGENTE": "NOEMIA_DOMINGUES", "ACAO": "REALIZAR_PRIMEIRA_VISITA_POTENCIAL", "RAZAO_SOCIAL": "TEC_-_ALT_ESTRUTURAS_METALICAS_LTDA", "ENDERECO": "RUA_FREI_XISTO_TEUBER_75_JARDIM_MITSUTANI_SAO_PAULO_BRASIL", "CIDADE": "SAO_PAULO", "LATITUDE": -23.6426358, "LONGITUDE": -46.780841, "LINK": "#N/D" }, "geometry": { "type": "Point", "coordinates": [ -46.780841, -23.6426358 ] } },
{ "type": "Feature", "properties": { "CNPJ": 14327861000193, "AGENTE": "NOEMIA_DOMINGUES", "ACAO": "REALIZAR_PRIMEIRA_VISITA_POTENCIAL", "RAZAO_SOCIAL": "HERIBERTO_SEVERO_DA_SILVA", "ENDERECO": "RUA_CANTANHEDE_25_PIRAJUSSARA_SAO_PAULO_BRASIL", "CIDADE": "SAO_PAULO", "LATITUDE": -23.642728, "LONGITUDE": -46.7860232, "LINK": "#N/D" }, "geometry": { "type": "Point", "coordinates": [ -46.7860232, -23.642728 ] } },
{ "type": "Feature", "properties": { "CNPJ": 53002613000124, "AGENTE": "NOEMIA_DOMINGUES", "ACAO": "REALIZAR_PRIMEIRA_VISITA_POTENCIAL", "RAZAO_SOCIAL": "53.002.613_MICHELE_NOEMI_KUABATA", "ENDERECO": "RUA_JOSE_ANTEQUERA_166_JARDIM_MITSUTANI_SAO_PAULO_BRASIL", "CIDADE": "SAO_PAULO", "LATITUDE": -23.6440759, "LONGITUDE": -46.7822774, "LINK": "#N/D" }, "geometry": { "type": "Point", "coordinates": [ -46.7822774, -23.6440759 ] } },
{ "type": "Feature", "properties": { "CNPJ": 49184115000172, "AGENTE": "NOEMIA_DOMINGUES", "ACAO": "REALIZAR_PRIMEIRA_VISITA_POTENCIAL", "RAZAO_SOCIAL": "MICHELE_SOARES_DA_SILVA_LTDA", "ENDERECO": "RUA_CRESTINS_1_JARDIM_LEONIDAS_MOREIRA_SAO_PAULO_BRASIL", "CIDADE": "SAO_PAULO", "LATITUDE": -23.6442189, "LONGITUDE": -46.7783378, "LINK": "#N/D" }, "geometry": { "type": "Point", "coordinates": [ -46.7783378, -23.6442189 ] } },
{ "type": "Feature", "properties": { "CNPJ": 18008337000100, "AGENTE": "NOEMIA_DOMINGUES", "ACAO": "REALIZAR_PRIMEIRA_VISITA_POTENCIAL", "RAZAO_SOCIAL": "IMPRIMA_MAIS_PRODUCOES_LTDA", "ENDERECO": "RUA_KOTO_MITSUTANI_174_JARDIM_MITSUTANI_SAO_PAULO_BRASIL", "CIDADE": "SAO_PAULO", "LATITUDE": -23.6458014, "LONGITUDE": -46.7838127, "LINK": "#N/D" }, "geometry": { "type": "Point", "coordinates": [ -46.7838127, -23.6458014 ] } },
{ "type": "Feature", "properties": { "CNPJ": 34788353000110, "AGENTE": "NOEMIA_DOMINGUES", "ACAO": "REALIZAR_PRIMEIRA_VISITA_POTENCIAL", "RAZAO_SOCIAL": "MARIA_APARECIDA_DA_SILVA_ANDRADE", "ENDERECO": "RUA_JORGE_AFONSO_15_JARDIM_MITSUTANI_SAO_PAULO_BRASIL", "CIDADE": "SAO_PAULO", "LATITUDE": -23.6458851, "LONGITUDE": -46.7808598, "LINK": "#N/D" }, "geometry": { "type": "Point", "coordinates": [ -46.7808598, -23.6458851 ] } },
{ "type": "Feature", "properties": { "CNPJ": 44082195000131, "AGENTE": "NOEMIA_DOMINGUES", "ACAO": "REALIZAR_PRIMEIRA_VISITA_POTENCIAL", "RAZAO_SOCIAL": "GABRIEL_DIEGO_NASCIMENTO_OLIVEIRA_39124965871", "ENDERECO": "RUA_CARLOS_NAHAS_222_JARDIM_ROSANA_SAO_PAULO_BRASIL", "CIDADE": "SAO_PAULO", "LATITUDE": -23.6459519, "LONGITUDE": -46.7770724, "LINK": "#N/D" }, "geometry": { "type": "Point", "coordinates": [ -46.7770724, -23.6459519 ] } },
{ "type": "Feature", "properties": { "CNPJ": 55650108000111, "AGENTE": "NOEMIA_DOMINGUES", "ACAO": "REALIZAR_PRIMEIRA_VISITA_POTENCIAL", "RAZAO_SOCIAL": "KL_TECH_SERVICOS_LTDA", "ENDERECO": "RUA_ABILHEIRA_34_JARDIM_MITSUTANI_SAO_PAULO_BRASIL", "CIDADE": "SAO_PAULO", "LATITUDE": -23.6460753, "LONGITUDE": -46.7805747, "LINK": "#N/D" }, "geometry": { "type": "Point", "coordinates": [ -46.7805747, -23.6460753 ] } },
{ "type": "Feature", "properties": { "CNPJ": 41441271000160, "AGENTE": "NOEMIA_DOMINGUES", "ACAO": "REALIZAR_PRIMEIRA_VISITA_POTENCIAL", "RAZAO_SOCIAL": "41.441.271_SABRINA_DE_SOUZA_SANTOS", "ENDERECO": "RUA_PROFESSOR_DIRCEU_NEVES_181_JARDIM_ROSANA_SAO_PAULO_BRASIL", "CIDADE": "SAO_PAULO", "LATITUDE": -23.6462441, "LONGITUDE": -46.7768567, "LINK": "#N/D" }, "geometry": { "type": "Point", "coordinates": [ -46.7768567, -23.6462441 ] } },
{ "type": "Feature", "properties": { "CNPJ": 21927339000108, "AGENTE": "NOEMIA_DOMINGUES", "ACAO": "REALIZAR_PRIMEIRA_VISITA_POTENCIAL", "RAZAO_SOCIAL": "ANDERSON_WILLIAM_MAGALHAES", "ENDERECO": "RUA_JAIME_BALMER_90_JARDIM_LEME_SAO_PAULO_BRASIL", "CIDADE": "SAO_PAULO", "LATITUDE": -23.6465809, "LONGITUDE": -46.7891038, "LINK": "#N/D" }, "geometry": { "type": "Point", "coordinates": [ -46.7891038, -23.6465809 ] } },
{ "type": "Feature", "properties": { "CNPJ": 51296353000111, "AGENTE": "NOEMIA_DOMINGUES", "ACAO": "REALIZAR_PRIMEIRA_VISITA_POTENCIAL", "RAZAO_SOCIAL": "BARATAO_COMERCIAL_DE_SUPLEMENTOS_ALIMENTICIOS_LTDA", "ENDERECO": "AVENIDA_CARLOS_LACERDA_1783_PIRAJUSSARA_SAO_PAULO_BRASIL", "CIDADE": "SAO_PAULO", "LATITUDE": -23.6472452, "LONGITUDE": -46.7788485, "LINK": "#N/D" }, "geometry": { "type": "Point", "coordinates": [ -46.7788485, -23.6472452 ] } },
{ "type": "Feature", "properties": { "CNPJ": 24144481000177, "AGENTE": "NOEMIA_DOMINGUES", "ACAO": "REALIZAR_PRIMEIRA_VISITA_POTENCIAL", "RAZAO_SOCIAL": "REAL_BRAZ_JVASJ_COMERCIO_DE_ARTIGOS_DE_ARMARINHO_E_UTILIDADES_DOMESTICAS_LTDA", "ENDERECO": "AVENIDA_CARLOS_LACERDA_1791_PIRAJUSSARA_SAO_PAULO_BRASIL", "CIDADE": "SAO_PAULO", "LATITUDE": -23.647332, "LONGITUDE": -46.7789891, "LINK": "#N/D" }, "geometry": { "type": "Point", "coordinates": [ -46.7789891, -23.647332 ] } },
{ "type": "Feature", "properties": { "CNPJ": 27592938000102, "AGENTE": "NOEMIA_DOMINGUES", "ACAO": "REALIZAR_PRIMEIRA_VISITA_POTENCIAL", "RAZAO_SOCIAL": "DJOTTA_FILMAGENS_E_EVENTOS_LTDA", "ENDERECO": "ESTRADA_PIRAJUSSARA-VALO_VELHO_1415_JARDIM_MITSUTANI_SAO_PAULO_BRASIL", "CIDADE": "SAO_PAULO", "LATITUDE": -23.6476876, "LONGITUDE": -46.7891228, "LINK": "#N/D" }, "geometry": { "type": "Point", "coordinates": [ -46.7891228, -23.6476876 ] } },
{ "type": "Feature", "properties": { "CNPJ": 30600141000106, "AGENTE": "NOEMIA_DOMINGUES", "ACAO": "REALIZAR_PRIMEIRA_VISITA_POTENCIAL", "RAZAO_SOCIAL": "SERGIO_ROBERTO_RAMOS_FIGUEIREDO_33626967832", "ENDERECO": "ESTRADA_PIRAJUSSARA-VALO_VELHO_1666_JARDIM_MITSUTANI_SAO_PAULO_BRASIL", "CIDADE": "SAO_PAULO", "LATITUDE": -23.6478499, "LONGITUDE": -46.7911359, "LINK": "#N/D" }, "geometry": { "type": "Point", "coordinates": [ -46.7911359, -23.6478499 ] } },
{ "type": "Feature", "properties": { "CNPJ": 35343983000143, "AGENTE": "NOEMIA_DOMINGUES", "ACAO": "REALIZAR_PRIMEIRA_VISITA_POTENCIAL", "RAZAO_SOCIAL": "WILSON_V._DE_SOUZA_JUNIOR_TECNOLOGIA_DA_INFORMACAO", "ENDERECO": "RUA_FREDERICO_CONSOLO_12_PIRAJUSSARA_SAO_PAULO_BRASIL", "CIDADE": "SAO_PAULO", "LATITUDE": -23.6479871, "LONGITUDE": -46.7794946, "LINK": "#N/D" }, "geometry": { "type": "Point", "coordinates": [ -46.7794946, -23.6479871 ] } },
{ "type": "Feature", "properties": { "CNPJ": 52701747000170, "AGENTE": "NOEMIA_DOMINGUES", "ACAO": "REALIZAR_PRIMEIRA_VISITA_POTENCIAL", "RAZAO_SOCIAL": "52.701.747_MARIA_HERCILINA_VIEIRA_LIMA_SOUSA", "ENDERECO": "RUA_ARNALDO_CARVALHO_MARTINS_57_JARDIM_ROSANA_SAO_PAULO_BRASIL", "CIDADE": "SAO_PAULO", "LATITUDE": -23.6483421, "LONGITUDE": -46.7741454, "LINK": "#N/D" }, "geometry": { "type": "Point", "coordinates": [ -46.7741454, -23.6483421 ] } },
{ "type": "Feature", "properties": { "CNPJ": 40065907000153, "AGENTE": "NOEMIA_DOMINGUES", "ACAO": "REALIZAR_PRIMEIRA_VISITA_POTENCIAL", "RAZAO_SOCIAL": "DIAZ_OTICA_LTDA", "ENDERECO": "RUA_KOTO_MITSUTANI_604_JARDIM_MITSUTANI_SAO_PAULO_BRASIL", "CIDADE": "SAO_PAULO", "LATITUDE": -23.6491304, "LONGITUDE": -46.7842369, "LINK": "#N/D" }, "geometry": { "type": "Point", "coordinates": [ -46.7842369, -23.6491304 ] } },
{ "type": "Feature", "properties": { "CNPJ": 49237124000184, "AGENTE": "NOEMIA_DOMINGUES", "ACAO": "REALIZAR_PRIMEIRA_VISITA_POTENCIAL", "RAZAO_SOCIAL": "MARCIEL_DOS_SANTOS_NOVAIS", "ENDERECO": "RUA_GIOVANNI_DA_MILANO_62_JARDIM_MITSUTANI_SAO_PAULO_BRASIL", "CIDADE": "SAO_PAULO", "LATITUDE": -23.6491618, "LONGITUDE": -46.7819157, "LINK": "#N/D" }, "geometry": { "type": "Point", "coordinates": [ -46.7819157, -23.6491618 ] } },