{
"type": "FeatureCollection",
"name": "PAULO_ROGERIO_DE_FREITAS_RAMOS",
"crs": { "type": "name", "properties": { "name": "urn:ogc:def:crs:OGC:1.3:CRS84" } },
"xy_coordinate_resolution": 1e-15,
"features": [
{ "type": "Feature", "properties": { "CNPJ": 37489931000105, "AGENTE": "PAULO_ROGERIO_DE_FREITAS_RAMOS", "ACAO": "REALIZAR_SEGUNDA_VISITA", "RAZAO_SOCIAL": "37.489.931_NATHALIA_YASMIN_TUDELA_FREITAS_PRADO_-_NATHALIA_YASMIN_TUDELA_FREITAS_PRADO", "ENDERECO": "RUAFELICIANOANDRADENUNES_295_CENTRO_CAFELANDIA", "CIDADE": "CAFELANDIA", "LATITUDE": -22.2431675, "LONGITUDE": -49.9171516, "BASE": "ATENDIDOS" }, "geometry": { "type": "Point", "coordinates": [ -49.9171516, -22.2431675 ] } },
{ "type": "Feature", "properties": { "CNPJ": 56177255000189, "AGENTE": "PAULO_ROGERIO_DE_FREITAS_RAMOS", "ACAO": "REALIZAR_SEGUNDA_VISITA", "RAZAO_SOCIAL": "56.177.255_DYONATAS_RICARDO_LOPES_-_THYTAI_ACESSORIOS_E_PRESENTES", "ENDERECO": "RUAVEREADORGERALDOBERNARDINI_526_RESIDENCIALPARQUEGABRIELA_OURINHOS", "CIDADE": "OURINHOS", "LATITUDE": -22.983589, "LONGITUDE": -49.8570644, "BASE": "ATENDIDOS" }, "geometry": { "type": "Point", "coordinates": [ -49.8570644, -22.983589 ] } },
{ "type": "Feature", "properties": { "CNPJ": 37752592000108, "AGENTE": "PAULO_ROGERIO_DE_FREITAS_RAMOS", "ACAO": "REALIZAR_SEGUNDA_VISITA", "RAZAO_SOCIAL": "CRISTIANO_HENRIQUE_DA_COSTA_-_EMPORIO_DO_GOLE", "ENDERECO": "AVENIDADOMINGOSCARMELINGOCALO_2239_VILASANTAMARIA_OURINHOS", "CIDADE": "OURINHOS", "LATITUDE": -22.9954367, "LONGITUDE": -49.8782466, "BASE": "ATENDIDOS" }, "geometry": { "type": "Point", "coordinates": [ -49.8782466, -22.9954367 ] } },
{ "type": "Feature", "properties": { "CNPJ": 53750757000169, "AGENTE": "PAULO_ROGERIO_DE_FREITAS_RAMOS", "ACAO": "REALIZAR_SEGUNDA_VISITA", "RAZAO_SOCIAL": "53.750.757_GUSTAVO_JOSE_DIAS_-_GC_CALHAS", "ENDERECO": "RUALAUROZIMMERMANNFILHO_200_JARDIMITAMARATY_OURINHOS", "CIDADE": "OURINHOS", "LATITUDE": -23.0155132, "LONGITUDE": -49.889823, "BASE": "ATENDIDOS" }, "geometry": { "type": "Point", "coordinates": [ -49.889823, -23.0155132 ] } },
{ "type": "Feature", "properties": { "CNPJ": 38474826000165, "AGENTE": "PAULO_ROGERIO_DE_FREITAS_RAMOS", "ACAO": "REALIZAR_SEGUNDA_VISITA", "RAZAO_SOCIAL": "POP_KIDS", "ENDERECO": "RUA_GUSTAVO_MACIEL_20_JARDIM_NASRALLA_BAURU_BRASIL", "CIDADE": "BAURU", "LATITUDE": -22.3319182, "LONGITUDE": -49.0680808, "BASE": "ATENDIDOS" }, "geometry": { "type": "Point", "coordinates": [ -49.0680808, -22.3319182 ] } },
{ "type": "Feature", "properties": { "CNPJ": 9541906000198, "AGENTE": "PAULO_ROGERIO_DE_FREITAS_RAMOS", "ACAO": "REALIZAR_SEGUNDA_VISITA", "RAZAO_SOCIAL": "GIOVANNA_CORTINAS_E_INTERIORES", "ENDERECO": "AVENIDA_NOSSA_SENHORA_DE_FATIMA_19_PARQUE_JARDIM_EUROPA_BAURU_BRASIL", "CIDADE": "BAURU", "LATITUDE": -22.3529592, "LONGITUDE": -49.0531758, "BASE": "ATENDIDOS" }, "geometry": { "type": "Point", "coordinates": [ -49.0531758, -22.3529592 ] } },
{ "type": "Feature", "properties": { "CNPJ": 41958980000117, "AGENTE": "PAULO_ROGERIO_DE_FREITAS_RAMOS", "ACAO": "REALIZAR_SEGUNDA_VISITA", "RAZAO_SOCIAL": "NATALIA_NACHEF_BOUTIQUE", "ENDERECO": "RUA_ANTONIO_ALVES_30_VILA_AEROPORTO_BAURU_BAURU_BRASIL", "CIDADE": "BAURU", "LATITUDE": -22.3375856, "LONGITUDE": -49.0644598, "BASE": "ATENDIDOS" }, "geometry": { "type": "Point", "coordinates": [ -49.0644598, -22.3375856 ] } },
{ "type": "Feature", "properties": { "CNPJ": 15319849000108, "AGENTE": "PAULO_ROGERIO_DE_FREITAS_RAMOS", "ACAO": "REALIZAR_SEGUNDA_VISITA", "RAZAO_SOCIAL": "GALERA_KIDS", "ENDERECO": "RUA_ANTONIO_ALVES_30_VILA_UNIVERSITARIA_BAURU_BRASIL", "CIDADE": "BAURU", "LATITUDE": -22.3376776, "LONGITUDE": -49.064304, "BASE": "ATENDIDOS" }, "geometry": { "type": "Point", "coordinates": [ -49.064304, -22.3376776 ] } },
{ "type": "Feature", "properties": { "CNPJ": 13456655000110, "AGENTE": "PAULO_ROGERIO_DE_FREITAS_RAMOS", "ACAO": "REALIZAR_SEGUNDA_VISITA", "RAZAO_SOCIAL": "FABRICIO_STEFANO_VERONA_DE_PAULA_32612912819_-_AUTO_ELETRICA_E_MECANICA_SAO_PEDRO", "ENDERECO": "AVENIDATIRADENTES_926_CENTRO_SABINO", "CIDADE": "SABINO", "LATITUDE": -21.4606084, "LONGITUDE": -49.5774599, "BASE": "ATENDIDOS" }, "geometry": { "type": "Point", "coordinates": [ -49.5774599, -21.4606084 ] } },
{ "type": "Feature", "properties": { "CNPJ": 7279894000140, "AGENTE": "PAULO_ROGERIO_DE_FREITAS_RAMOS", "ACAO": "REALIZAR_SEGUNDA_VISITA", "RAZAO_SOCIAL": "DIAS_&_CARNEVAL_SUPERMERCADO_LTDA_-_SUPERMERCADO_CARNEVALLI", "ENDERECO": "AVENIDASETEDESETEMBRO_747_CENTRO_SABINO", "CIDADE": "SABINO", "LATITUDE": -21.4609908, "LONGITUDE": -49.5775115, "BASE": "ATENDIDOS" }, "geometry": { "type": "Point", "coordinates": [ -49.5775115, -21.4609908 ] } },
{ "type": "Feature", "properties": { "CNPJ": 26770510000131, "AGENTE": "PAULO_ROGERIO_DE_FREITAS_RAMOS", "ACAO": "REALIZAR_SEGUNDA_VISITA", "RAZAO_SOCIAL": "LEONEL_FRANCISCO_SIVIERO_-_BAR_DO_LEONEL", "ENDERECO": "AVENIDASETEDESETEMBRO_617_CENTRO_SABINO", "CIDADE": "SABINO", "LATITUDE": -21.4614996, "LONGITUDE": -49.5785584, "BASE": "ATENDIDOS" }, "geometry": { "type": "Point", "coordinates": [ -49.5785584, -21.4614996 ] } },
{ "type": "Feature", "properties": { "CNPJ": 32899731000107, "AGENTE": "PAULO_ROGERIO_DE_FREITAS_RAMOS", "ACAO": "REALIZAR_SEGUNDA_VISITA", "RAZAO_SOCIAL": "32.899.731_CLAUDIA_MONTEIRO_FERREIRA_-_PET_AMIGO_E_CONVENIENCIA", "ENDERECO": "RUAAURORAARTEROZANI_501_HELIOSAVAZZI_SABINO", "CIDADE": "SABINO", "LATITUDE": -21.4627051, "LONGITUDE": -49.5731517, "BASE": "ATENDIDOS" }, "geometry": { "type": "Point", "coordinates": [ -49.5731517, -21.4627051 ] } },
{ "type": "Feature", "properties": { "CNPJ": 50540226000153, "AGENTE": "PAULO_ROGERIO_DE_FREITAS_RAMOS", "ACAO": "REALIZAR_SEGUNDA_VISITA", "RAZAO_SOCIAL": "50.540.226_DYONATA_RODRIGUES_CAMPOS_-_DRC_MANUTENCOES_ELETRICAS", "ENDERECO": "RUAMARECHALDEODORO_410_JARDIMIMPERIAL_SABINO", "CIDADE": "SABINO", "LATITUDE": -21.4629613, "LONGITUDE": -49.5812154, "BASE": "ATENDIDOS" }, "geometry": { "type": "Point", "coordinates": [ -49.5812154, -21.4629613 ] } },
{ "type": "Feature", "properties": { "CNPJ": 52502543000100, "AGENTE": "PAULO_ROGERIO_DE_FREITAS_RAMOS", "ACAO": "REALIZAR_SEGUNDA_VISITA", "RAZAO_SOCIAL": "GILVANIA_BONIFACIO_DA_SILVA_-_GILVANIA_BONIFACIO_DA_SILVA", "ENDERECO": "SITIOSITIORETIROEULANDIA_0_BARRAGRANDE_GUARANTA", "CIDADE": "GUARANTA", "LATITUDE": -21.8116681, "LONGITUDE": -49.6209771, "BASE": "ATENDIDOS" }, "geometry": { "type": "Point", "coordinates": [ -49.6209771, -21.8116681 ] } },
{ "type": "Feature", "properties": { "CNPJ": 9031033000173, "AGENTE": "PAULO_ROGERIO_DE_FREITAS_RAMOS", "ACAO": "REALIZAR_SEGUNDA_VISITA", "RAZAO_SOCIAL": "ALVARO_RODRIGUES_E_OUTRA_-_ALVARO_RODRIGUES", "ENDERECO": "RUAPROJETOASSENTAMENTOREUNIDASAGROVILASAOPEDRO_25_PATINHOS_PROMISSAO", "CIDADE": "PROMISSAO", "LATITUDE": -21.8116807, "LONGITUDE": -49.6209564, "BASE": "ATENDIDOS" }, "geometry": { "type": "Point", "coordinates": [ -49.6209564, -21.8116807 ] } },
{ "type": "Feature", "properties": { "CNPJ": 55717303000111, "AGENTE": "PAULO_ROGERIO_DE_FREITAS_RAMOS", "ACAO": "REALIZAR_SEGUNDA_VISITA", "RAZAO_SOCIAL": "GISELE_RAMOS_DA_SILVA_E_CARLOS_JUNIOR_DA_SILVA_SAMPAIO_-_RECANTO_M.O.", "ENDERECO": "RUAASSENTAMENTOANTONIOCONSELHEIRO_69_RURAL_GUARANTA", "CIDADE": "GUARANTA", "LATITUDE": -21.8116938, "LONGITUDE": -49.6209551, "BASE": "ATENDIDOS" }, "geometry": { "type": "Point", "coordinates": [ -49.6209551, -21.8116938 ] } },
{ "type": "Feature", "properties": { "CNPJ": 44698507000136, "AGENTE": "PAULO_ROGERIO_DE_FREITAS_RAMOS", "ACAO": "REALIZAR_SEGUNDA_VISITA", "RAZAO_SOCIAL": "VANESSA_Y._KANABARA_LTDA_-_KANABARA_ACAI", "ENDERECO": "AVENIDABRIGADEIROEDUARDOGOMES_647_JARDIMMARIAIZABEL_MARILIA", "CIDADE": "MARILIA", "LATITUDE": -22.2079969, "LONGITUDE": -49.9354623, "BASE": "ATENDIDOS" }, "geometry": { "type": "Point", "coordinates": [ -49.9354623, -22.2079969 ] } },
{ "type": "Feature", "properties": { "CNPJ": 67207605000129, "AGENTE": "PAULO_ROGERIO_DE_FREITAS_RAMOS", "ACAO": "REALIZAR_SEGUNDA_VISITA", "RAZAO_SOCIAL": "PANIFICADORA_SANTA_CLARA_DE_MARILIA_LTDA_-_PANIFICADORA_SANTA_CLARA", "ENDERECO": "RUAPERNAMBUCO_747_BANZATO_MARILIA", "CIDADE": "MARILIA", "LATITUDE": -22.2096836, "LONGITUDE": -49.9422454, "BASE": "ATENDIDOS" }, "geometry": { "type": "Point", "coordinates": [ -49.9422454, -22.2096836 ] } },
{ "type": "Feature", "properties": { "CNPJ": 11227551000109, "AGENTE": "PAULO_ROGERIO_DE_FREITAS_RAMOS", "ACAO": "REALIZAR_SEGUNDA_VISITA", "RAZAO_SOCIAL": "11.227.551_ROSANE_PELOZZO_GOMIDE_-_CLOSET_LOOK", "ENDERECO": "AVENIDAVICENTEFERREIRA_677_CASCATA_MARILIA", "CIDADE": "MARILIA", "LATITUDE": -22.2143965, "LONGITUDE": -49.9395737, "BASE": "ATENDIDOS" }, "geometry": { "type": "Point", "coordinates": [ -49.9395737, -22.2143965 ] } },
{ "type": "Feature", "properties": { "CNPJ": 33159656000100, "AGENTE": "PAULO_ROGERIO_DE_FREITAS_RAMOS", "ACAO": "REALIZAR_SEGUNDA_VISITA", "RAZAO_SOCIAL": "33.159.656_MARLOS_SILVA_-_PET_SALON", "ENDERECO": "AVENIDAREPUBLICA_460_MARILIA_MARILIA", "CIDADE": "MARILIA", "LATITUDE": -22.21593, "LONGITUDE": -49.9427253, "BASE": "ATENDIDOS" }, "geometry": { "type": "Point", "coordinates": [ -49.9427253, -22.21593 ] } },
{ "type": "Feature", "properties": { "CNPJ": 57749854000192, "AGENTE": "PAULO_ROGERIO_DE_FREITAS_RAMOS", "ACAO": "REALIZAR_SEGUNDA_VISITA", "RAZAO_SOCIAL": "57.749.854_FERNANDA_DE_ARAUJO_AFONSO_DIAS_-_FERNANDA_DE_ARAUJO_AFONSO_DIAS", "ENDERECO": "RUATOMAZGONZAGA_137_JARDIMMARIAIZABEL_MARILIA", "CIDADE": "MARILIA", "LATITUDE": -22.2162497, "LONGITUDE": -49.9382408, "BASE": "ATENDIDOS" }, "geometry": { "type": "Point", "coordinates": [ -49.9382408, -22.2162497 ] } },
{ "type": "Feature", "properties": { "CNPJ": 54094104000131, "AGENTE": "PAULO_ROGERIO_DE_FREITAS_RAMOS", "ACAO": "REALIZAR_SEGUNDA_VISITA", "RAZAO_SOCIAL": "54.094.104_REJANE_CRISTINA_QUENCHISKY_DE_SOUZA_-_VELLUTINE_GELATO_ARTESANAL", "ENDERECO": "RUABAHIA_639_MARILIA_MARILIA", "CIDADE": "MARILIA", "LATITUDE": -22.2184109, "LONGITUDE": -49.9423527, "BASE": "ATENDIDOS" }, "geometry": { "type": "Point", "coordinates": [ -49.9423527, -22.2184109 ] } },
{ "type": "Feature", "properties": { "CNPJ": 11130807000165, "AGENTE": "PAULO_ROGERIO_DE_FREITAS_RAMOS", "ACAO": "REALIZAR_SEGUNDA_VISITA", "RAZAO_SOCIAL": "SACCARO_PRODUTOS_DE_BELEZA_LTDA_-_ADCOS", "ENDERECO": "AVENIDAREPUBLICA_5_MARILIA_MARILIA", "CIDADE": "MARILIA", "LATITUDE": -22.2193188, "LONGITUDE": -49.9401366, "BASE": "ATENDIDOS" }, "geometry": { "type": "Point", "coordinates": [ -49.9401366, -22.2193188 ] } },
{ "type": "Feature", "properties": { "CNPJ": 39383130000196, "AGENTE": "PAULO_ROGERIO_DE_FREITAS_RAMOS", "ACAO": "REALIZAR_SEGUNDA_VISITA", "RAZAO_SOCIAL": "RP_COMERCIAL_LIMITADA_-_BARCELONA_STORE", "ENDERECO": "AVENIDADASESMERALDAS_55_JARDIMTANGARA_MARILIA", "CIDADE": "MARILIA", "LATITUDE": -22.2212125, "LONGITUDE": -49.9388325, "BASE": "ATENDIDOS" }, "geometry": { "type": "Point", "coordinates": [ -49.9388325, -22.2212125 ] } },
{ "type": "Feature", "properties": { "CNPJ": 32229490000199, "AGENTE": "PAULO_ROGERIO_DE_FREITAS_RAMOS", "ACAO": "REALIZAR_SEGUNDA_VISITA", "RAZAO_SOCIAL": "32.229.490_LUCIANA_PIUBELLI_COELHO_-_RNV_RENOVE_CONCEPT", "ENDERECO": "AVENIDADASESMERALDAS_295_JARDIMTANGARA_MARILIA", "CIDADE": "MARILIA", "LATITUDE": -22.2225616, "LONGITUDE": -49.9364117, "BASE": "ATENDIDOS" }, "geometry": { "type": "Point", "coordinates": [ -49.9364117, -22.2225616 ] } },
{ "type": "Feature", "properties": { "CNPJ": 20716507000153, "AGENTE": "PAULO_ROGERIO_DE_FREITAS_RAMOS", "ACAO": "REALIZAR_SEGUNDA_VISITA", "RAZAO_SOCIAL": "ATHANAZIO_E_ANDRADE_LTDA._-_O_CRAVO_E_A_ROSA", "ENDERECO": "RUADASTURQUESAS_78_JARDIMMARIAIZABEL_MARILIA", "CIDADE": "MARILIA", "LATITUDE": -22.2229169, "LONGITUDE": -49.9347094, "BASE": "ATENDIDOS" }, "geometry": { "type": "Point", "coordinates": [ -49.9347094, -22.2229169 ] } },
{ "type": "Feature", "properties": { "CNPJ": 36055618000104, "AGENTE": "PAULO_ROGERIO_DE_FREITAS_RAMOS", "ACAO": "REALIZAR_SEGUNDA_VISITA", "RAZAO_SOCIAL": "ELEGANCE_LINGERIE_LTDA_-_HOPE", "ENDERECO": "AVENIDADASESMERALDAS_353_JARDIMTANGARA_MARILIA", "CIDADE": "MARILIA", "LATITUDE": -22.2230249, "LONGITUDE": -49.9358558, "BASE": "ATENDIDOS" }, "geometry": { "type": "Point", "coordinates": [ -49.9358558, -22.2230249 ] } },
{ "type": "Feature", "properties": { "CNPJ": 49662009000157, "AGENTE": "PAULO_ROGERIO_DE_FREITAS_RAMOS", "ACAO": "REALIZAR_SEGUNDA_VISITA", "RAZAO_SOCIAL": "49.662.009_CARMEN_LUCIA_CABRINI_COSTA_-_CHEIRO_DE_FLOR", "ENDERECO": "AVENIDADASESMERALDAS_355_JARDIMTANGARA_MARILIA", "CIDADE": "MARILIA", "LATITUDE": -22.2230615, "LONGITUDE": -49.9358326, "BASE": "ATENDIDOS" }, "geometry": { "type": "Point", "coordinates": [ -49.9358326, -22.2230615 ] } },
{ "type": "Feature", "properties": { "CNPJ": 28019593000157, "AGENTE": "PAULO_ROGERIO_DE_FREITAS_RAMOS", "ACAO": "REALIZAR_SEGUNDA_VISITA", "RAZAO_SOCIAL": "MAIARA_LORCA_DE_OLIVEIRA_-_MUNDO_VERDE", "ENDERECO": "AVENIDADASESMERALDAS_391_JARDIMTANGARA_MARILIA", "CIDADE": "MARILIA", "LATITUDE": -22.2233749, "LONGITUDE": -49.9354926, "BASE": "ATENDIDOS" }, "geometry": { "type": "Point", "coordinates": [ -49.9354926, -22.2233749 ] } },
{ "type": "Feature", "properties": { "CNPJ": 47962300000115, "AGENTE": "PAULO_ROGERIO_DE_FREITAS_RAMOS", "ACAO": "REALIZAR_SEGUNDA_VISITA", "RAZAO_SOCIAL": "CS_OLIVEIRA_E_MAZIERO_LTDA_-_CARMEN_STEFFENS", "ENDERECO": "AVENIDADASESMERALDAS_575_JARDIMTANGARA_MARILIA", "CIDADE": "MARILIA", "LATITUDE": -22.2235823, "LONGITUDE": -49.9348066, "BASE": "ATENDIDOS" }, "geometry": { "type": "Point", "coordinates": [ -49.9348066, -22.2235823 ] } },
{ "type": "Feature", "properties": { "CNPJ": 24624764000116, "AGENTE": "PAULO_ROGERIO_DE_FREITAS_RAMOS", "ACAO": "REALIZAR_SEGUNDA_VISITA", "RAZAO_SOCIAL": "24.624.764_MICHELE_BATISTA_DA_SILVA_-_MICHELE_BATISTA", "ENDERECO": "RUAABRAHAOMUSSI_102_JARDIMESPLANADA_MARILIA", "CIDADE": "MARILIA", "LATITUDE": -22.2345626, "LONGITUDE": -49.9148298, "BASE": "ATENDIDOS" }, "geometry": { "type": "Point", "coordinates": [ -49.9148298, -22.2345626 ] } },
{ "type": "Feature", "properties": { "CNPJ": 36701964000104, "AGENTE": "PAULO_ROGERIO_DE_FREITAS_RAMOS", "ACAO": "REALIZAR_SEGUNDA_VISITA", "RAZAO_SOCIAL": "ANTONIO_BATISTA_DOS_SANTOS_JUNIOR_LTDA_-_ALICE_SALGADOS", "ENDERECO": "RUAMANOELSANTOSCHIEIRA_420_JARDIMARAXA_MARILIA", "CIDADE": "MARILIA", "LATITUDE": -22.2372325, "LONGITUDE": -49.9672286, "BASE": "ATENDIDOS" }, "geometry": { "type": "Point", "coordinates": [ -49.9672286, -22.2372325 ] } },
{ "type": "Feature", "properties": { "CNPJ": 49210368000173, "AGENTE": "PAULO_ROGERIO_DE_FREITAS_RAMOS", "ACAO": "REALIZAR_SEGUNDA_VISITA", "RAZAO_SOCIAL": "49.210.368_VITOR_SALOMAO_FERREIRA_DE_SOUZA_-_SR_SALOMAO_STUDIO", "ENDERECO": "RUAPIOX_455_JARDIMVITORIA_MARILIA", "CIDADE": "MARILIA", "LATITUDE": -22.2380083, "LONGITUDE": -49.9224526, "BASE": "ATENDIDOS" }, "geometry": { "type": "Point", "coordinates": [ -49.9224526, -22.2380083 ] } },
{ "type": "Feature", "properties": { "CNPJ": 17709237000149, "AGENTE": "PAULO_ROGERIO_DE_FREITAS_RAMOS", "ACAO": "REALIZAR_SEGUNDA_VISITA", "RAZAO_SOCIAL": "DP_MARTINS_COMERCIO_DE_CALCADOS_-_DALVA_PANAO_CALCADOS", "ENDERECO": "RUAGILDOCASADEI_339_PARQUESAOJORGE_MARILIA", "CIDADE": "MARILIA", "LATITUDE": -22.2407671, "LONGITUDE": -49.9235262, "BASE": "ATENDIDOS" }, "geometry": { "type": "Point", "coordinates": [ -49.9235262, -22.2407671 ] } },
{ "type": "Feature", "properties": { "CNPJ": 47870982000136, "AGENTE": "PAULO_ROGERIO_DE_FREITAS_RAMOS", "ACAO": "REALIZAR_SEGUNDA_VISITA", "RAZAO_SOCIAL": "47.870.982_JOAO_MATHEUS_DE_PAULA_CARDOSO_-_JOAO_MATHEUS_DE_PAULA_CARDOSO", "ENDERECO": "RUASAOPAULO_74_CENTRO_CAFELANDIA", "CIDADE": "CAFELANDIA", "LATITUDE": -22.2431506, "LONGITUDE": -49.9171642, "BASE": "ATENDIDOS" }, "geometry": { "type": "Point", "coordinates": [ -49.9171642, -22.2431506 ] } },
{ "type": "Feature", "properties": { "CNPJ": 52205033000171, "AGENTE": "PAULO_ROGERIO_DE_FREITAS_RAMOS", "ACAO": "REALIZAR_SEGUNDA_VISITA", "RAZAO_SOCIAL": "52.205.033_CARLOS_SERGIO_BIANCHINI_-_CARLOS_SERGIO_BIANCHINI", "ENDERECO": "AVENIDANOVEDEJULHO_622_CENTRO_GUAICARA", "CIDADE": "GUAICARA", "LATITUDE": -22.2431639, "LONGITUDE": -49.9171662, "BASE": "ATENDIDOS" }, "geometry": { "type": "Point", "coordinates": [ -49.9171662, -22.2431639 ] } },
{ "type": "Feature", "properties": { "CNPJ": 58502815000159, "AGENTE": "PAULO_ROGERIO_DE_FREITAS_RAMOS", "ACAO": "REALIZAR_SEGUNDA_VISITA", "RAZAO_SOCIAL": "58.502.815_PAMELA_DE_AGUIAR_RODRIGUES_-_PAMELA_DE_AGUIAR_RODRIGUES", "ENDERECO": "RUAHUMBERTOVENTURA_214_PORTALFAZENDINHAII_CAFELANDIA", "CIDADE": "CAFELANDIA", "LATITUDE": -22.2431784, "LONGITUDE": -49.9171452, "BASE": "ATENDIDOS" }, "geometry": { "type": "Point", "coordinates": [ -49.9171452, -22.2431784 ] } },
{ "type": "Feature", "properties": { "CNPJ": 25212981000161, "AGENTE": "PAULO_ROGERIO_DE_FREITAS_RAMOS", "ACAO": "REALIZAR_SEGUNDA_VISITA", "RAZAO_SOCIAL": "ANTONIO_CARLOS_DOS_SANTOS_GUANDALIM_-_ANTONIO_CARLOS_DOS_SANTOS_GUANDALIM", "ENDERECO": "RUAVITORIOBUDOIA_66_RESIDENCIALVALEDOSALTINHO_CAFELANDIA", "CIDADE": "CAFELANDIA", "LATITUDE": -22.2431808, "LONGITUDE": -49.917196, "BASE": "ATENDIDOS" }, "geometry": { "type": "Point", "coordinates": [ -49.917196, -22.2431808 ] } },
{ "type": "Feature", "properties": { "CNPJ": 55217210000128, "AGENTE": "PAULO_ROGERIO_DE_FREITAS_RAMOS", "ACAO": "REALIZAR_SEGUNDA_VISITA", "RAZAO_SOCIAL": "J.ALENCASTRO_CORRETORA_DE_SEGUROS_LTDA_-_J._ALENCASTRO_CORRETORA_DE_SEGUROS", "ENDERECO": "RUATILFRIDHALLGREM_105_JARDIMMARAJO_MARILIA", "CIDADE": "MARILIA", "LATITUDE": -22.2443892, "LONGITUDE": -49.917599, "BASE": "ATENDIDOS" }, "geometry": { "type": "Point", "coordinates": [ -49.917599, -22.2443892 ] } },
{ "type": "Feature", "properties": { "CNPJ": 66123696000151, "AGENTE": "PAULO_ROGERIO_DE_FREITAS_RAMOS", "ACAO": "REALIZAR_SEGUNDA_VISITA", "RAZAO_SOCIAL": "MERCADO_R_SANTOS_DE_MARILIA_LTDA_-_MERCADO_SANTOS", "ENDERECO": "RUACORONELMOREIRACESAR_588_JARDIMMONTECASTELO_MARILIA", "CIDADE": "MARILIA", "LATITUDE": -22.2471597, "LONGITUDE": -49.9347614, "BASE": "ATENDIDOS" }, "geometry": { "type": "Point", "coordinates": [ -49.9347614, -22.2471597 ] } },
{ "type": "Feature", "properties": { "CNPJ": 53781457000147, "AGENTE": "PAULO_ROGERIO_DE_FREITAS_RAMOS", "ACAO": "REALIZAR_SEGUNDA_VISITA", "RAZAO_SOCIAL": "53.781.457_ANA_CLAUDIA_IBANHES_-_BANCA_BRASIL_10", "ENDERECO": "AVENIDAJOAORAMALHO_2232_NUCLEOHABITACIONALNOVOMARILIA_MARILIA", "CIDADE": "MARILIA", "LATITUDE": -22.247435, "LONGITUDE": -49.9312196, "BASE": "ATENDIDOS" }, "geometry": { "type": "Point", "coordinates": [ -49.9312196, -22.247435 ] } },
{ "type": "Feature", "properties": { "CNPJ": 8098201000185, "AGENTE": "PAULO_ROGERIO_DE_FREITAS_RAMOS", "ACAO": "REALIZAR_SEGUNDA_VISITA", "RAZAO_SOCIAL": "M._R._DE_AVELAR_MOTOS_-_POEIRA_MOTOS", "ENDERECO": "RUACORONELMOREIRACESAR_816_JARDIMMONTECASTELO_MARILIA", "CIDADE": "MARILIA", "LATITUDE": -22.2485422, "LONGITUDE": -49.9363519, "BASE": "ATENDIDOS" }, "geometry": { "type": "Point", "coordinates": [ -49.9363519, -22.2485422 ] } },
{ "type": "Feature", "properties": { "CNPJ": 49157723000198, "AGENTE": "PAULO_ROGERIO_DE_FREITAS_RAMOS", "ACAO": "REALIZAR_SEGUNDA_VISITA", "RAZAO_SOCIAL": "49.157.723_ANDRE_RODRIGUES_DA_LUZ_-_BALADA'S_BURGER", "ENDERECO": "RUACORONELMOREIRACESAR_847_JARDIMMONTECASTELO_MARILIA", "CIDADE": "MARILIA", "LATITUDE": -22.2489223, "LONGITUDE": -49.9365078, "BASE": "ATENDIDOS" }, "geometry": { "type": "Point", "coordinates": [ -49.9365078, -22.2489223 ] } },
{ "type": "Feature", "properties": { "CNPJ": 7376154000121, "AGENTE": "PAULO_ROGERIO_DE_FREITAS_RAMOS", "ACAO": "REALIZAR_SEGUNDA_VISITA", "RAZAO_SOCIAL": "07.376.154_RONALDO_ROSA_-_MONTE_CASTELO_MERCEARIA", "ENDERECO": "RUACAPITAOSALOMAO_905_JARDIMMONTECASTELO_MARILIA", "CIDADE": "MARILIA", "LATITUDE": -22.2489247, "LONGITUDE": -49.937577, "BASE": "ATENDIDOS" }, "geometry": { "type": "Point", "coordinates": [ -49.937577, -22.2489247 ] } },
{ "type": "Feature", "properties": { "CNPJ": 21343437000106, "AGENTE": "PAULO_ROGERIO_DE_FREITAS_RAMOS", "ACAO": "REALIZAR_SEGUNDA_VISITA", "RAZAO_SOCIAL": "RITA_DE_CASSIA_VERGA_REIS_27705133890_-_NEGAR_RACOES", "ENDERECO": "RUAANGELOTREVELLIN_410_JARDIMPLANALTO_MARILIA", "CIDADE": "MARILIA", "LATITUDE": -22.2514201, "LONGITUDE": -49.9384623, "BASE": "ATENDIDOS" }, "geometry": { "type": "Point", "coordinates": [ -49.9384623, -22.2514201 ] } },
{ "type": "Feature", "properties": { "CNPJ": 61034513000108, "AGENTE": "PAULO_ROGERIO_DE_FREITAS_RAMOS", "ACAO": "REALIZAR_SEGUNDA_VISITA", "RAZAO_SOCIAL": "61.034.513_BRUNO_LOPES_DE_SOUSA_-_BRUNO_EXPRESS_TRANSPORTES", "ENDERECO": "AVENIDADOHIPODROMO_568_JARDIMCAROLINA_BAURU", "CIDADE": "BAURU", "LATITUDE": -22.3271422, "LONGITUDE": -49.0600779, "BASE": "ATENDIDOS" }, "geometry": { "type": "Point", "coordinates": [ -49.0600779, -22.3271422 ] } },
{ "type": "Feature", "properties": { "CNPJ": 44714619000133, "AGENTE": "PAULO_ROGERIO_DE_FREITAS_RAMOS", "ACAO": "REALIZAR_SEGUNDA_VISITA", "RAZAO_SOCIAL": "APARECIDA_FATIMA_DE_OLIVEIRA_PAGANELLI_83234640904_-_FATIMA_PAGANELLI", "ENDERECO": "RUASHIMPEIOKIAMA_525_JARDIMESPLANADA_BAURU", "CIDADE": "BAURU", "LATITUDE": -22.3271556, "LONGITUDE": -49.0601924, "BASE": "ATENDIDOS" }, "geometry": { "type": "Point", "coordinates": [ -49.0601924, -22.3271556 ] } },
{ "type": "Feature", "properties": { "CNPJ": 24174479000140, "AGENTE": "PAULO_ROGERIO_DE_FREITAS_RAMOS", "ACAO": "REALIZAR_SEGUNDA_VISITA", "RAZAO_SOCIAL": "24.174.479_ARACELIS_APARECIDA_CESAR_ESPINOSA_-_MENINA_DE_TRANCA_HANDMADE", "ENDERECO": "RUAPRIMEIRODEMAIO_10106_JARDIMMARAVILHA_BAURU", "CIDADE": "BAURU", "LATITUDE": -22.3272354, "LONGITUDE": -49.0600803, "BASE": "ATENDIDOS" }, "geometry": { "type": "Point", "coordinates": [ -49.0600803, -22.3272354 ] } },
{ "type": "Feature", "properties": { "CNPJ": 52806586000180, "AGENTE": "PAULO_ROGERIO_DE_FREITAS_RAMOS", "ACAO": "REALIZAR_SEGUNDA_VISITA", "RAZAO_SOCIAL": "52.806.586_SILMARA_JOANA_DE_LIMA_NAVARRO_-_EMPORIO_D&S", "ENDERECO": "RUAADALGISAGRIZZO_102_MARIALUIZAIV_JAU", "CIDADE": "JAU", "LATITUDE": -22.3272656, "LONGITUDE": -49.0602015, "BASE": "ATENDIDOS" }, "geometry": { "type": "Point", "coordinates": [ -49.0602015, -22.3272656 ] } },
{ "type": "Feature", "properties": { "CNPJ": 48821711000153, "AGENTE": "PAULO_ROGERIO_DE_FREITAS_RAMOS", "ACAO": "REALIZAR_SEGUNDA_VISITA", "RAZAO_SOCIAL": "48.821.711_EVANDRO_RIBEIRO_-_R2_CENTRO_AUTOMOTIVO", "ENDERECO": "AVENIDACARLOSRIOS_298_CHACARAPEIXE_SANTACRUZDORIOPARDO", "CIDADE": "SANTA_CRUZ_DO_RIO_PARDO", "LATITUDE": -22.8921625, "LONGITUDE": -49.6152106, "BASE": "ATENDIDOS" }, "geometry": { "type": "Point", "coordinates": [ -49.6152106, -22.8921625 ] } },
{ "type": "Feature", "properties": { "CNPJ": 53499441000146, "AGENTE": "PAULO_ROGERIO_DE_FREITAS_RAMOS", "ACAO": "REALIZAR_SEGUNDA_VISITA", "RAZAO_SOCIAL": "53.499.441_EDSON_GUILHERME_RUFI_GOMES_-_EMPORIO_RUFI", "ENDERECO": "AVENIDADOUTORPEDROCAMARINHA_1064_VILASAUL_SANTACRUZDORIOPARDO", "CIDADE": "SANTA_CRUZ_DO_RIO_PARDO", "LATITUDE": -22.892452, "LONGITUDE": -49.638114, "BASE": "ATENDIDOS" }, "geometry": { "type": "Point", "coordinates": [ -49.638114, -22.892452 ] } },
{ "type": "Feature", "properties": { "CNPJ": 22862052000100, "AGENTE": "PAULO_ROGERIO_DE_FREITAS_RAMOS", "ACAO": "REALIZAR_SEGUNDA_VISITA", "RAZAO_SOCIAL": "22.862.052_MARCOS_ROGERIO_SACOMAN_-_MARCOS_CABELEIREIRO", "ENDERECO": "AVENIDADOUTORPEDROCAMARINHA_1024_VILASAUL_SANTACRUZDORIOPARDO", "CIDADE": "SANTA_CRUZ_DO_RIO_PARDO", "LATITUDE": -22.8927044, "LONGITUDE": -49.6377728, "BASE": "ATENDIDOS" }, "geometry": { "type": "Point", "coordinates": [ -49.6377728, -22.8927044 ] } },
{ "type": "Feature", "properties": { "CNPJ": 49814507000178, "AGENTE": "PAULO_ROGERIO_DE_FREITAS_RAMOS", "ACAO": "REALIZAR_SEGUNDA_VISITA", "RAZAO_SOCIAL": "49.814.507_TIAGO_ANTONIO_LOPES_-_OFICINA_MECANICA_TIAGO_BURU", "ENDERECO": "RUAFRANCISCOGONZAGADEOLIVEIRA_452_JARDIMBRASILIA_SANTACRUZDORIOPARDO", "CIDADE": "SANTA_CRUZ_DO_RIO_PARDO", "LATITUDE": -22.8937316, "LONGITUDE": -49.6383456, "BASE": "ATENDIDOS" }, "geometry": { "type": "Point", "coordinates": [ -49.6383456, -22.8937316 ] } },
{ "type": "Feature", "properties": { "CNPJ": 19265181000106, "AGENTE": "PAULO_ROGERIO_DE_FREITAS_RAMOS", "ACAO": "REALIZAR_SEGUNDA_VISITA", "RAZAO_SOCIAL": "19.265.181_DANIEL_SILVA_BARBOSA_-_DRAK_MOTOS", "ENDERECO": "AVENIDADOUTORPEDROCAMARINHA_799_VILAMATHIAS_SANTACRUZDORIOPARDO", "CIDADE": "SANTA_CRUZ_DO_RIO_PARDO", "LATITUDE": -22.8943921, "LONGITUDE": -49.6364169, "BASE": "ATENDIDOS" }, "geometry": { "type": "Point", "coordinates": [ -49.6364169, -22.8943921 ] } },
{ "type": "Feature", "properties": { "CNPJ": 32158368000179, "AGENTE": "PAULO_ROGERIO_DE_FREITAS_RAMOS", "ACAO": "REALIZAR_SEGUNDA_VISITA", "RAZAO_SOCIAL": "LUCIANA_RIBEIRO_DOS_SANTOS_22618193822_-_STOP_SALGADOS", "ENDERECO": "AVENIDADOUTORPEDROCAMARINHA_747_VILAMATHIAS_SANTACRUZDORIOPARDO", "CIDADE": "SANTA_CRUZ_DO_RIO_PARDO", "LATITUDE": -22.894679, "LONGITUDE": -49.6362244, "BASE": "ATENDIDOS" }, "geometry": { "type": "Point", "coordinates": [ -49.6362244, -22.894679 ] } },
{ "type": "Feature", "properties": { "CNPJ": 13457014000180, "AGENTE": "PAULO_ROGERIO_DE_FREITAS_RAMOS", "ACAO": "REALIZAR_SEGUNDA_VISITA", "RAZAO_SOCIAL": "SILMAR_CORREA_DE_ASSIS_26771703886_-_CICLOS_BIKE", "ENDERECO": "AVENIDADOUTORPEDROCAMARINHA_576_VILAMATHIAS_SANTACRUZDORIOPARDO", "CIDADE": "SANTA_CRUZ_DO_RIO_PARDO", "LATITUDE": -22.8957333, "LONGITUDE": -49.6349787, "BASE": "ATENDIDOS" }, "geometry": { "type": "Point", "coordinates": [ -49.6349787, -22.8957333 ] } },
{ "type": "Feature", "properties": { "CNPJ": 39392375000180, "AGENTE": "PAULO_ROGERIO_DE_FREITAS_RAMOS", "ACAO": "REALIZAR_SEGUNDA_VISITA", "RAZAO_SOCIAL": "39.392.375_DANIEL_RODRIGUES_DELUCA_-_JOELMA_PRESENTES", "ENDERECO": "RUACONSELHEIROSARAIVA_625_CENTRO_SANTACRUZDORIOPARDO", "CIDADE": "SANTA_CRUZ_DO_RIO_PARDO", "LATITUDE": -22.8977678, "LONGITUDE": -49.6253239, "BASE": "ATENDIDOS" }, "geometry": { "type": "Point", "coordinates": [ -49.6253239, -22.8977678 ] } },
{ "type": "Feature", "properties": { "CNPJ": 35981488000160, "AGENTE": "PAULO_ROGERIO_DE_FREITAS_RAMOS", "ACAO": "REALIZAR_SEGUNDA_VISITA", "RAZAO_SOCIAL": "SANDRA_REGINA_GARCIA_RANGEL_30071253831_-_OTICA_SANDRA", "ENDERECO": "RUAEUCLIDESDACUNHA_586_CENTRO_SANTACRUZDORIOPARDO", "CIDADE": "SANTA_CRUZ_DO_RIO_PARDO", "LATITUDE": -22.8988708, "LONGITUDE": -49.6260526, "BASE": "ATENDIDOS" }, "geometry": { "type": "Point", "coordinates": [ -49.6260526, -22.8988708 ] } },
{ "type": "Feature", "properties": { "CNPJ": 43049455000104, "AGENTE": "PAULO_ROGERIO_DE_FREITAS_RAMOS", "ACAO": "REALIZAR_SEGUNDA_VISITA", "RAZAO_SOCIAL": "LAURA_A._PAULIN_QUAGLIATO_-_CARISMA", "ENDERECO": "AVENIDATIRADENTES_986_CENTRO_SANTACRUZDORIOPARDO", "CIDADE": "SANTA_CRUZ_DO_RIO_PARDO", "LATITUDE": -22.9001657, "LONGITUDE": -49.6220745, "BASE": "ATENDIDOS" }, "geometry": { "type": "Point", "coordinates": [ -49.6220745, -22.9001657 ] } },
{ "type": "Feature", "properties": { "CNPJ": 23066059000188, "AGENTE": "PAULO_ROGERIO_DE_FREITAS_RAMOS", "ACAO": "REALIZAR_SEGUNDA_VISITA", "RAZAO_SOCIAL": "SILVANA_DE_FATIMA_BUENO_33943857832_-_RESTAURANTE_SABOR_DE_CASA", "ENDERECO": "RUAMARECHALBITENCOURT_769_CENTRO_SANTACRUZDORIOPARDO", "CIDADE": "SANTA_CRUZ_DO_RIO_PARDO", "LATITUDE": -22.9004894, "LONGITUDE": -49.6295145, "BASE": "ATENDIDOS" }, "geometry": { "type": "Point", "coordinates": [ -49.6295145, -22.9004894 ] } },
{ "type": "Feature", "properties": { "CNPJ": 56182915000110, "AGENTE": "PAULO_ROGERIO_DE_FREITAS_RAMOS", "ACAO": "REALIZAR_SEGUNDA_VISITA", "RAZAO_SOCIAL": "56.182.915_MARCELO_AUGUSTO_HENRIQUE_-_SEU_MARCELLO", "ENDERECO": "AVENIDATIRADENTES_140_CENTRO_SANTACRUZDORIOPARDO", "CIDADE": "SANTA_CRUZ_DO_RIO_PARDO", "LATITUDE": -22.9050783, "LONGITUDE": -49.6282622, "BASE": "ATENDIDOS" }, "geometry": { "type": "Point", "coordinates": [ -49.6282622, -22.9050783 ] } },
{ "type": "Feature", "properties": { "CNPJ": 52202770000110, "AGENTE": "PAULO_ROGERIO_DE_FREITAS_RAMOS", "ACAO": "REALIZAR_SEGUNDA_VISITA", "RAZAO_SOCIAL": "RENATO_PIVETA_GIACON_-_DOCELAR_VARIEDADES", "ENDERECO": "RUAFARMACEUTICOALZIRODESOUZASANTOS_130_CENTRO_SANTACRUZDORIOPARDO", "CIDADE": "SANTA_CRUZ_DO_RIO_PARDO", "LATITUDE": -22.9079421, "LONGITUDE": -49.6263472, "BASE": "ATENDIDOS" }, "geometry": { "type": "Point", "coordinates": [ -49.6263472, -22.9079421 ] } },
{ "type": "Feature", "properties": { "CNPJ": 4291636000190, "AGENTE": "PAULO_ROGERIO_DE_FREITAS_RAMOS", "ACAO": "REALIZAR_SEGUNDA_VISITA", "RAZAO_SOCIAL": "JAIME_SANTANA_-_NENO_KAR", "ENDERECO": "RUAANTONIOSOARESDASILVA_483_VILABOAESPERANCA_OURINHOS", "CIDADE": "OURINHOS", "LATITUDE": -22.9796475, "LONGITUDE": -49.8577407, "BASE": "ATENDIDOS" }, "geometry": { "type": "Point", "coordinates": [ -49.8577407, -22.9796475 ] } },
{ "type": "Feature", "properties": { "CNPJ": 12728751000108, "AGENTE": "PAULO_ROGERIO_DE_FREITAS_RAMOS", "ACAO": "REALIZAR_SEGUNDA_VISITA", "RAZAO_SOCIAL": "V._P._DUTRA_VEICULOS_-_RATINHO_VEICULOS", "ENDERECO": "RUAPROFESSORCANDIDOBARBOSA_297_PARQUEMINASGERAIS_OURINHOS", "CIDADE": "OURINHOS", "LATITUDE": -22.9798619, "LONGITUDE": -49.8578466, "BASE": "ATENDIDOS" }, "geometry": { "type": "Point", "coordinates": [ -49.8578466, -22.9798619 ] } },
{ "type": "Feature", "properties": { "CNPJ": 46900903000120, "AGENTE": "PAULO_ROGERIO_DE_FREITAS_RAMOS", "ACAO": "REALIZAR_SEGUNDA_VISITA", "RAZAO_SOCIAL": "GOBLIN_MOTO_PECAS_LTDA_-_GOBLIN_MOTO_PECAS", "ENDERECO": "AVENIDADOMINGOSCARMELINGOCALO_1225_VILASAOJOSE_OURINHOS", "CIDADE": "OURINHOS", "LATITUDE": -22.9889866, "LONGITUDE": -49.8706567, "BASE": "ATENDIDOS" }, "geometry": { "type": "Point", "coordinates": [ -49.8706567, -22.9889866 ] } },
{ "type": "Feature", "properties": { "CNPJ": 51694755000174, "AGENTE": "PAULO_ROGERIO_DE_FREITAS_RAMOS", "ACAO": "URGENTE_REALIZAR_PRIMEIRA_VISITA", "RAZAO_SOCIAL": "TECMAR_SERVICOS_E_MANUTENCOES_LTDA", "ENDERECO": "RUAALEXANDRECHAIA_1739_JARDIMESPLANADA_MARILIA", "CIDADE": "MARILIA", "LATITUDE": -22.2462386, "LONGITUDE": -49.9192657, "BASE": "URGENTE_" }, "geometry": { "type": "Point", "coordinates": [ -49.9192657, -22.2462386 ] } },
{ "type": "Feature", "properties": { "CNPJ": 873146000141, "AGENTE": "PAULO_ROGERIO_DE_FREITAS_RAMOS", "ACAO": "URGENTE_REALIZAR_PRIMEIRA_VISITA", "RAZAO_SOCIAL": "EDVANIA_REGINA_BUZOLIN_ANDRADE", "ENDERECO": "RUAEUCLIDESDACUNHA_701_CENTRO_SANTACRUZDORIOPARDO", "CIDADE": "SANTA_CRUZ_DO_RIO_PARDO", "LATITUDE": -22.8981019, "LONGITUDE": -49.6251183, "BASE": "URGENTE_" }, "geometry": { "type": "Point", "coordinates": [ -49.6251183, -22.8981019 ] } },
{ "type": "Feature", "properties": { "CNPJ": 6233558000101, "AGENTE": "PAULO_ROGERIO_DE_FREITAS_RAMOS", "ACAO": "URGENTE_REALIZAR_PRIMEIRA_VISITA", "RAZAO_SOCIAL": "JORGE_DE_ARAUJO_CONFECCOES", "ENDERECO": "RUAEUCLIDESDACUNHA_699_CENTRO_SANTACRUZDORIOPARDO", "CIDADE": "SANTA_CRUZ_DO_RIO_PARDO", "LATITUDE": -22.8981899, "LONGITUDE": -49.6251933, "BASE": "URGENTE_" }, "geometry": { "type": "Point", "coordinates": [ -49.6251933, -22.8981899 ] } },
{ "type": "Feature", "properties": { "CNPJ": 47898419000176, "AGENTE": "PAULO_ROGERIO_DE_FREITAS_RAMOS", "ACAO": "URGENTE_REALIZAR_PRIMEIRA_VISITA", "RAZAO_SOCIAL": "MONICA_JESUI_FERNANDES_SILVESTRE_LTDA", "ENDERECO": "RUACONSELHEIROSARAIVA_541_CENTRO_SANTACRUZDORIOPARDO", "CIDADE": "SANTA_CRUZ_DO_RIO_PARDO", "LATITUDE": -22.8982131, "LONGITUDE": -49.6249546, "BASE": "URGENTE_" }, "geometry": { "type": "Point", "coordinates": [ -49.6249546, -22.8982131 ] } },
{ "type": "Feature", "properties": { "CNPJ": 30984758000172, "AGENTE": "PAULO_ROGERIO_DE_FREITAS_RAMOS", "ACAO": "URGENTE_REALIZAR_PRIMEIRA_VISITA", "RAZAO_SOCIAL": "ARMAZEM_SANTA_CRUZ_SECOS_E_MOLHADOS_LTDA", "ENDERECO": "RUACONSELHEIROSARAIVA_516_CENTRO_SANTACRUZDORIOPARDO", "CIDADE": "SANTA_CRUZ_DO_RIO_PARDO", "LATITUDE": -22.8984026, "LONGITUDE": -49.6245201, "BASE": "URGENTE_" }, "geometry": { "type": "Point", "coordinates": [ -49.6245201, -22.8984026 ] } },
{ "type": "Feature", "properties": { "CNPJ": 12921232000161, "AGENTE": "PAULO_ROGERIO_DE_FREITAS_RAMOS", "ACAO": "URGENTE_REALIZAR_PRIMEIRA_VISITA", "RAZAO_SOCIAL": "GISELLE_RANGEL_DE_ARAUJO", "ENDERECO": "RUAEUCLIDESDACUNHA_643_CENTRO_SANTACRUZDORIOPARDO", "CIDADE": "SANTA_CRUZ_DO_RIO_PARDO", "LATITUDE": -22.8984106, "LONGITUDE": -49.6256287, "BASE": "URGENTE_" }, "geometry": { "type": "Point", "coordinates": [ -49.6256287, -22.8984106 ] } },
{ "type": "Feature", "properties": { "CNPJ": 5998073000138, "AGENTE": "PAULO_ROGERIO_DE_FREITAS_RAMOS", "ACAO": "URGENTE_REALIZAR_PRIMEIRA_VISITA", "RAZAO_SOCIAL": "ALITAMI_COMERCIO_DE_CONFECCOES_LTDA", "ENDERECO": "RUAEUCLIDESDACUNHA_520_CENTRO_SANTACRUZDORIOPARDO", "CIDADE": "SANTA_CRUZ_DO_RIO_PARDO", "LATITUDE": -22.8993418, "LONGITUDE": -49.6262099, "BASE": "URGENTE_" }, "geometry": { "type": "Point", "coordinates": [ -49.6262099, -22.8993418 ] } },
{ "type": "Feature", "properties": { "CNPJ": 56809247000108, "AGENTE": "PAULO_ROGERIO_DE_FREITAS_RAMOS", "ACAO": "URGENTE_REALIZAR_PRIMEIRA_VISITA", "RAZAO_SOCIAL": "FRANCISCON_&_CIA_LTDA", "ENDERECO": "RUACONSELHEIRODANTAS_828_CENTRO_SANTACRUZDORIOPARDO", "CIDADE": "SANTA_CRUZ_DO_RIO_PARDO", "LATITUDE": -22.9009604, "LONGITUDE": -49.6299889, "BASE": "URGENTE_" }, "geometry": { "type": "Point", "coordinates": [ -49.6299889, -22.9009604 ] } },
{ "type": "Feature", "properties": { "CNPJ": 35035764000105, "AGENTE": "PAULO_ROGERIO_DE_FREITAS_RAMOS", "ACAO": "URGENTE_REALIZAR_PRIMEIRA_VISITA", "RAZAO_SOCIAL": "TIAGO_DE_MELO_BIANCAO", "ENDERECO": "RUAEUCLIDESDACUNHA_166_CENTRO_SANTACRUZDORIOPARDO", "CIDADE": "SANTA_CRUZ_DO_RIO_PARDO", "LATITUDE": -22.9014121, "LONGITUDE": -49.6290879, "BASE": "URGENTE_" }, "geometry": { "type": "Point", "coordinates": [ -49.6290879, -22.9014121 ] } },
{ "type": "Feature", "properties": { "CNPJ": 21946529000253, "AGENTE": "PAULO_ROGERIO_DE_FREITAS_RAMOS", "ACAO": "URGENTE_REALIZAR_PRIMEIRA_VISITA", "RAZAO_SOCIAL": "BELLA_CENTER_OURINHOS_LTDA", "ENDERECO": "RUACONSELHEIRODANTAS_629_CENTRO_SANTACRUZDORIOPARDO", "CIDADE": "SANTA_CRUZ_DO_RIO_PARDO", "LATITUDE": -22.9025596, "LONGITUDE": -49.6288214, "BASE": "URGENTE_" }, "geometry": { "type": "Point", "coordinates": [ -49.6288214, -22.9025596 ] } },
{ "type": "Feature", "properties": { "CNPJ": 13250653000170, "AGENTE": "PAULO_ROGERIO_DE_FREITAS_RAMOS", "ACAO": "URGENTE_REALIZAR_PRIMEIRA_VISITA", "RAZAO_SOCIAL": "GABRIELA_FRANCO_DOS_SANTOS_MAJONI", "ENDERECO": "RUACONSELHEIRODANTAS_539_CENTRO_SANTACRUZDORIOPARDO", "CIDADE": "SANTA_CRUZ_DO_RIO_PARDO", "LATITUDE": -22.9032087, "LONGITUDE": -49.6283548, "BASE": "URGENTE_" }, "geometry": { "type": "Point", "coordinates": [ -49.6283548, -22.9032087 ] } },
{ "type": "Feature", "properties": { "CNPJ": 7592954000260, "AGENTE": "PAULO_ROGERIO_DE_FREITAS_RAMOS", "ACAO": "URGENTE_REALIZAR_PRIMEIRA_VISITA", "RAZAO_SOCIAL": "GBG-GLOBAL_BUSINESS_&_GUARANTIES_CORRETORA_DE_SEGUROS_LTDA.", "ENDERECO": "RUAFARMACEUTICOALZIRIODESOUZASANTOS_466_CENTRO_SANTACRUZDORIOPARDO", "CIDADE": "SANTA_CRUZ_DO_RIO_PARDO", "LATITUDE": -22.9057865, "LONGITUDE": -49.6284797, "BASE": "URGENTE_" }, "geometry": { "type": "Point", "coordinates": [ -49.6284797, -22.9057865 ] } }
]
}
