{
"type": "FeatureCollection",
"name": "PAULO_ROGERIO_DE_FREITAS_RAMOS",
"crs": { "type": "name", "properties": { "name": "urn:ogc:def:crs:OGC:1.3:CRS84" } },
"xy_coordinate_resolution": 1e-15,
"features": [
{ "type": "Feature", "properties": { "CNPJ": 51694755000174, "AGENTE": "PAULO_ROGERIO_DE_FREITAS_RAMOS", "ACAO": "REALIZAR_PRIMEIRA_VISITA", "RAZAO_SOCIAL": "TECMAR_SERVICOS_E_MANUTENCOES_LTDA", "ENDERECO": "RUA_ALEXANDRE_CHAIA_1739_JARDIM_ESPLANADA_MARILIA", "CIDADE": "MARILIA", "LATITUDE": -22.2462386, "LONGITUDE": -49.9192657 }, "geometry": { "type": "Point", "coordinates": [ -49.9192657, -22.2462386 ] } },
{ "type": "Feature", "properties": { "CNPJ": 13250653000170, "AGENTE": "PAULO_ROGERIO_DE_FREITAS_RAMOS", "ACAO": "REALIZAR_PRIMEIRA_VISITA", "RAZAO_SOCIAL": "GABRIELA_FRANCO_DOS_SANTOS_MAJONI", "ENDERECO": "RUA_CONSELHEIRO_DANTAS_539_CENTRO_SANTA_CRUZ_DO_RIO_PARDO", "CIDADE": "SANTA_CRUZ_DO_RIO_PARDO", "LATITUDE": -22.9032087, "LONGITUDE": -49.6283548 }, "geometry": { "type": "Point", "coordinates": [ -49.6283548, -22.9032087 ] } },
{ "type": "Feature", "properties": { "CNPJ": 21946529000253, "AGENTE": "PAULO_ROGERIO_DE_FREITAS_RAMOS", "ACAO": "REALIZAR_PRIMEIRA_VISITA", "RAZAO_SOCIAL": "BELLA_CENTER_OURINHOS_LTDA", "ENDERECO": "RUA_CONSELHEIRO_DANTAS_629_CENTRO_SANTA_CRUZ_DO_RIO_PARDO", "CIDADE": "SANTA_CRUZ_DO_RIO_PARDO", "LATITUDE": -22.9025596, "LONGITUDE": -49.6288214 }, "geometry": { "type": "Point", "coordinates": [ -49.6288214, -22.9025596 ] } },
{ "type": "Feature", "properties": { "CNPJ": 56809247000108, "AGENTE": "PAULO_ROGERIO_DE_FREITAS_RAMOS", "ACAO": "REALIZAR_PRIMEIRA_VISITA", "RAZAO_SOCIAL": "FRANCISCON_&_CIA_LTDA", "ENDERECO": "RUA_CONSELHEIRO_DANTAS_828_CENTRO_SANTA_CRUZ_DO_RIO_PARDO", "CIDADE": "SANTA_CRUZ_DO_RIO_PARDO", "LATITUDE": -22.9009604, "LONGITUDE": -49.6299889 }, "geometry": { "type": "Point", "coordinates": [ -49.6299889, -22.9009604 ] } },
{ "type": "Feature", "properties": { "CNPJ": 30984758000172, "AGENTE": "PAULO_ROGERIO_DE_FREITAS_RAMOS", "ACAO": "REALIZAR_PRIMEIRA_VISITA", "RAZAO_SOCIAL": "ARMAZEM_SANTA_CRUZ_SECOS_E_MOLHADOS_LTDA", "ENDERECO": "RUA_CONSELHEIRO_SARAIVA_516_CENTRO_SANTA_CRUZ_DO_RIO_PARDO", "CIDADE": "SANTA_CRUZ_DO_RIO_PARDO", "LATITUDE": -22.8984026, "LONGITUDE": -49.6245201 }, "geometry": { "type": "Point", "coordinates": [ -49.6245201, -22.8984026 ] } },
{ "type": "Feature", "properties": { "CNPJ": 47898419000176, "AGENTE": "PAULO_ROGERIO_DE_FREITAS_RAMOS", "ACAO": "REALIZAR_PRIMEIRA_VISITA", "RAZAO_SOCIAL": "MONICA_JESUI_FERNANDES_SILVESTRE_LTDA", "ENDERECO": "RUA_CONSELHEIRO_SARAIVA_541_CENTRO_SANTA_CRUZ_DO_RIO_PARDO", "CIDADE": "SANTA_CRUZ_DO_RIO_PARDO", "LATITUDE": -22.8982131, "LONGITUDE": -49.6249546 }, "geometry": { "type": "Point", "coordinates": [ -49.6249546, -22.8982131 ] } },
{ "type": "Feature", "properties": { "CNPJ": 35035764000105, "AGENTE": "PAULO_ROGERIO_DE_FREITAS_RAMOS", "ACAO": "REALIZAR_PRIMEIRA_VISITA", "RAZAO_SOCIAL": "TIAGO_DE_MELO_BIANCAO", "ENDERECO": "RUA_EUCLIDES_DA_CUNHA_166_CENTRO_SANTA_CRUZ_DO_RIO_PARDO", "CIDADE": "SANTA_CRUZ_DO_RIO_PARDO", "LATITUDE": -22.9014121, "LONGITUDE": -49.6290879 }, "geometry": { "type": "Point", "coordinates": [ -49.6290879, -22.9014121 ] } },
{ "type": "Feature", "properties": { "CNPJ": 5998073000138, "AGENTE": "PAULO_ROGERIO_DE_FREITAS_RAMOS", "ACAO": "REALIZAR_PRIMEIRA_VISITA", "RAZAO_SOCIAL": "ALITAMI_COMERCIO_DE_CONFECCOES_LTDA", "ENDERECO": "RUA_EUCLIDES_DA_CUNHA_520_CENTRO_SANTA_CRUZ_DO_RIO_PARDO", "CIDADE": "SANTA_CRUZ_DO_RIO_PARDO", "LATITUDE": -22.8993418, "LONGITUDE": -49.6262099 }, "geometry": { "type": "Point", "coordinates": [ -49.6262099, -22.8993418 ] } },
{ "type": "Feature", "properties": { "CNPJ": 12921232000161, "AGENTE": "PAULO_ROGERIO_DE_FREITAS_RAMOS", "ACAO": "REALIZAR_PRIMEIRA_VISITA", "RAZAO_SOCIAL": "GISELLE_RANGEL_DE_ARAUJO", "ENDERECO": "RUA_EUCLIDES_DA_CUNHA_643_CENTRO_SANTA_CRUZ_DO_RIO_PARDO", "CIDADE": "SANTA_CRUZ_DO_RIO_PARDO", "LATITUDE": -22.8984106, "LONGITUDE": -49.6256287 }, "geometry": { "type": "Point", "coordinates": [ -49.6256287, -22.8984106 ] } },
{ "type": "Feature", "properties": { "CNPJ": 6233558000101, "AGENTE": "PAULO_ROGERIO_DE_FREITAS_RAMOS", "ACAO": "REALIZAR_PRIMEIRA_VISITA", "RAZAO_SOCIAL": "JORGE_DE_ARAUJO_CONFECCOES", "ENDERECO": "RUA_EUCLIDES_DA_CUNHA_699_CENTRO_SANTA_CRUZ_DO_RIO_PARDO", "CIDADE": "SANTA_CRUZ_DO_RIO_PARDO", "LATITUDE": -22.8981899, "LONGITUDE": -49.6251933 }, "geometry": { "type": "Point", "coordinates": [ -49.6251933, -22.8981899 ] } },
{ "type": "Feature", "properties": { "CNPJ": 873146000141, "AGENTE": "PAULO_ROGERIO_DE_FREITAS_RAMOS", "ACAO": "REALIZAR_PRIMEIRA_VISITA", "RAZAO_SOCIAL": "EDVANIA_REGINA_BUZOLIN_ANDRADE", "ENDERECO": "RUA_EUCLIDES_DA_CUNHA_701_CENTRO_SANTA_CRUZ_DO_RIO_PARDO", "CIDADE": "SANTA_CRUZ_DO_RIO_PARDO", "LATITUDE": -22.8981019, "LONGITUDE": -49.6251183 }, "geometry": { "type": "Point", "coordinates": [ -49.6251183, -22.8981019 ] } },
{ "type": "Feature", "properties": { "CNPJ": 7592954000260, "AGENTE": "PAULO_ROGERIO_DE_FREITAS_RAMOS", "ACAO": "REALIZAR_PRIMEIRA_VISITA", "RAZAO_SOCIAL": "GBG-GLOBAL_BUSINESS_&_GUARANTIES_CORRETORA_DE_SEGUROS_LTDA.", "ENDERECO": "RUA_FARMACEUTICO_ALZIRIO_DE_SOUZA_SANTOS_466_CENTRO_SANTA_CRUZ_DO_RIO_PARDO", "CIDADE": "SANTA_CRUZ_DO_RIO_PARDO", "LATITUDE": -22.9057865, "LONGITUDE": -49.6284797 }, "geometry": { "type": "Point", "coordinates": [ -49.6284797, -22.9057865 ] } },
{ "type": "Feature", "properties": { "CNPJ": 44698507000136, "AGENTE": "PAULO_ROGERIO_DE_FREITAS_RAMOS", "ACAO": "REALIZAR_SEGUNDA_VISITA", "RAZAO_SOCIAL": "VANESSA_Y._KANABARA_LTDA_-_KANABARA_ACAI", "ENDERECO": "AVENIDA_BRIGADEIRO_EDUARDO_GOMES_647_JARDIM_MARIA_IZABEL_MARILIA", "CIDADE": "MARILIA", "LATITUDE": -22.2079969, "LONGITUDE": -49.9354623 }, "geometry": { "type": "Point", "coordinates": [ -49.9354623, -22.2079969 ] } },
{ "type": "Feature", "properties": { "CNPJ": 48821711000153, "AGENTE": "PAULO_ROGERIO_DE_FREITAS_RAMOS", "ACAO": "REALIZAR_SEGUNDA_VISITA", "RAZAO_SOCIAL": "48.821.711_EVANDRO_RIBEIRO_-_R2_CENTRO_AUTOMOTIVO", "ENDERECO": "AVENIDA_CARLOS_RIOS_298_CHACARA_PEIXE_SANTA_CRUZ_DO_RIO_PARDO", "CIDADE": "SANTA_CRUZ_DO_RIO_PARDO", "LATITUDE": -22.8921625, "LONGITUDE": -49.6152106 }, "geometry": { "type": "Point", "coordinates": [ -49.6152106, -22.8921625 ] } },
{ "type": "Feature", "properties": { "CNPJ": 32229490000199, "AGENTE": "PAULO_ROGERIO_DE_FREITAS_RAMOS", "ACAO": "REALIZAR_SEGUNDA_VISITA", "RAZAO_SOCIAL": "32.229.490_LUCIANA_PIUBELLI_COELHO_-_RNV_RENOVE_CONCEPT", "ENDERECO": "AVENIDA_DAS_ESMERALDAS_295_JARDIM_TANGARA_MARILIA", "CIDADE": "MARILIA", "LATITUDE": -22.2225616, "LONGITUDE": -49.9364117 }, "geometry": { "type": "Point", "coordinates": [ -49.9364117, -22.2225616 ] } },
{ "type": "Feature", "properties": { "CNPJ": 36055618000104, "AGENTE": "PAULO_ROGERIO_DE_FREITAS_RAMOS", "ACAO": "REALIZAR_SEGUNDA_VISITA", "RAZAO_SOCIAL": "ELEGANCE_LINGERIE_LTDA_-_HOPE", "ENDERECO": "AVENIDA_DAS_ESMERALDAS_353_JARDIM_TANGARA_MARILIA", "CIDADE": "MARILIA", "LATITUDE": -22.2230249, "LONGITUDE": -49.9358558 }, "geometry": { "type": "Point", "coordinates": [ -49.9358558, -22.2230249 ] } },
{ "type": "Feature", "properties": { "CNPJ": 49662009000157, "AGENTE": "PAULO_ROGERIO_DE_FREITAS_RAMOS", "ACAO": "REALIZAR_SEGUNDA_VISITA", "RAZAO_SOCIAL": "49.662.009_CARMEN_LUCIA_CABRINI_COSTA_-_CHEIRO_DE_FLOR", "ENDERECO": "AVENIDA_DAS_ESMERALDAS_355_JARDIM_TANGARA_MARILIA", "CIDADE": "MARILIA", "LATITUDE": -22.2230615, "LONGITUDE": -49.9358326 }, "geometry": { "type": "Point", "coordinates": [ -49.9358326, -22.2230615 ] } },
{ "type": "Feature", "properties": { "CNPJ": 40493730000196, "AGENTE": "PAULO_ROGERIO_DE_FREITAS_RAMOS", "ACAO": "REALIZAR_SEGUNDA_VISITA", "RAZAO_SOCIAL": "LUZ_COMERCIO_E_IMPORTADORA_LTDA_-_LUZ_BABY", "ENDERECO": "AVENIDA_DAS_ESMERALDAS_379_JARDIM_TANGARA_MARILIA", "CIDADE": "MARILIA", "LATITUDE": -22.2231756, "LONGITUDE": -49.9356042 }, "geometry": { "type": "Point", "coordinates": [ -49.9356042, -22.2231756 ] } },
{ "type": "Feature", "properties": { "CNPJ": 28019593000157, "AGENTE": "PAULO_ROGERIO_DE_FREITAS_RAMOS", "ACAO": "REALIZAR_SEGUNDA_VISITA", "RAZAO_SOCIAL": "MAIARA_LORCA_DE_OLIVEIRA_-_MUNDO_VERDE", "ENDERECO": "AVENIDA_DAS_ESMERALDAS_391_JARDIM_TANGARA_MARILIA", "CIDADE": "MARILIA", "LATITUDE": -22.2233749, "LONGITUDE": -49.9354926 }, "geometry": { "type": "Point", "coordinates": [ -49.9354926, -22.2233749 ] } },
{ "type": "Feature", "properties": { "CNPJ": 39383130000196, "AGENTE": "PAULO_ROGERIO_DE_FREITAS_RAMOS", "ACAO": "REALIZAR_SEGUNDA_VISITA", "RAZAO_SOCIAL": "RP_COMERCIAL_LIMITADA_-_BARCELONA_STORE", "ENDERECO": "AVENIDA_DAS_ESMERALDAS_55_JARDIM_TANGARA_MARILIA", "CIDADE": "MARILIA", "LATITUDE": -22.2212125, "LONGITUDE": -49.9388325 }, "geometry": { "type": "Point", "coordinates": [ -49.9388325, -22.2212125 ] } },
{ "type": "Feature", "properties": { "CNPJ": 47962300000115, "AGENTE": "PAULO_ROGERIO_DE_FREITAS_RAMOS", "ACAO": "REALIZAR_SEGUNDA_VISITA", "RAZAO_SOCIAL": "CS_OLIVEIRA_E_MAZIERO_LTDA_-_CARMEN_STEFFENS", "ENDERECO": "AVENIDA_DAS_ESMERALDAS_575_JARDIM_TANGARA_MARILIA", "CIDADE": "MARILIA", "LATITUDE": -22.2235823, "LONGITUDE": -49.9348066 }, "geometry": { "type": "Point", "coordinates": [ -49.9348066, -22.2235823 ] } },
{ "type": "Feature", "properties": { "CNPJ": 61034513000108, "AGENTE": "PAULO_ROGERIO_DE_FREITAS_RAMOS", "ACAO": "REALIZAR_SEGUNDA_VISITA", "RAZAO_SOCIAL": "61.034.513_BRUNO_LOPES_DE_SOUSA_-_BRUNO_EXPRESS_TRANSPORTES", "ENDERECO": "AVENIDA_DO_HIPODROMO_568_JARDIM_CAROLINA_BAURU", "CIDADE": "BAURU", "LATITUDE": -22.3271422, "LONGITUDE": -49.0600779 }, "geometry": { "type": "Point", "coordinates": [ -49.0600779, -22.3271422 ] } },
{ "type": "Feature", "properties": { "CNPJ": 46900903000120, "AGENTE": "PAULO_ROGERIO_DE_FREITAS_RAMOS", "ACAO": "REALIZAR_SEGUNDA_VISITA", "RAZAO_SOCIAL": "GOBLIN_MOTO_PECAS_LTDA_-_GOBLIN_MOTO_PECAS", "ENDERECO": "AVENIDA_DOMINGOS_CARMELINGO_CALO_1225_VILA_SAO_JOSE_OURINHOS", "CIDADE": "OURINHOS", "LATITUDE": -22.9889866, "LONGITUDE": -49.8706567 }, "geometry": { "type": "Point", "coordinates": [ -49.8706567, -22.9889866 ] } },
{ "type": "Feature", "properties": { "CNPJ": 37752592000108, "AGENTE": "PAULO_ROGERIO_DE_FREITAS_RAMOS", "ACAO": "REALIZAR_SEGUNDA_VISITA", "RAZAO_SOCIAL": "CRISTIANO_HENRIQUE_DA_COSTA_-_EMPORIO_DO_GOLE", "ENDERECO": "AVENIDA_DOMINGOS_CARMELINGO_CALO_2239_VILA_SANTA_MARIA_OURINHOS", "CIDADE": "OURINHOS", "LATITUDE": -22.9954367, "LONGITUDE": -49.8782466 }, "geometry": { "type": "Point", "coordinates": [ -49.8782466, -22.9954367 ] } },
{ "type": "Feature", "properties": { "CNPJ": 22862052000100, "AGENTE": "PAULO_ROGERIO_DE_FREITAS_RAMOS", "ACAO": "REALIZAR_SEGUNDA_VISITA", "RAZAO_SOCIAL": "22.862.052_MARCOS_ROGERIO_SACOMAN_-_MARCOS_CABELEIREIRO", "ENDERECO": "AVENIDA_DOUTOR_PEDRO_CAMARINHA_1024_VILASAUL_SANTA_CRUZ_DO_RIO_PARDO", "CIDADE": "SANTA_CRUZ_DO_RIO_PARDO", "LATITUDE": -22.8927044, "LONGITUDE": -49.6377728 }, "geometry": { "type": "Point", "coordinates": [ -49.6377728, -22.8927044 ] } },
{ "type": "Feature", "properties": { "CNPJ": 53499441000146, "AGENTE": "PAULO_ROGERIO_DE_FREITAS_RAMOS", "ACAO": "REALIZAR_SEGUNDA_VISITA", "RAZAO_SOCIAL": "53.499.441_EDSON_GUILHERME_RUFI_GOMES_-_EMPORIO_RUFI", "ENDERECO": "AVENIDA_DOUTOR_PEDRO_CAMARINHA_1064_VILA_SAUL_SANTA_CRUZ_DO_RIO_PARDO", "CIDADE": "SANTA_CRUZ_DO_RIO_PARDO", "LATITUDE": -22.892452, "LONGITUDE": -49.638114 }, "geometry": { "type": "Point", "coordinates": [ -49.638114, -22.892452 ] } },
{ "type": "Feature", "properties": { "CNPJ": 13457014000180, "AGENTE": "PAULO_ROGERIO_DE_FREITAS_RAMOS", "ACAO": "REALIZAR_SEGUNDA_VISITA", "RAZAO_SOCIAL": "SILMAR_CORREA_DE_ASSIS_26771703886_-_CICLOS_BIKE", "ENDERECO": "AVENIDA_DOUTOR_PEDRO_CAMARINHA_576_VILA_MATHIAS_SANTA_CRUZ_DO_RIO_PARDO", "CIDADE": "SANTA_CRUZ_DO_RIO_PARDO", "LATITUDE": -22.8957333, "LONGITUDE": -49.6349787 }, "geometry": { "type": "Point", "coordinates": [ -49.6349787, -22.8957333 ] } },
{ "type": "Feature", "properties": { "CNPJ": 32158368000179, "AGENTE": "PAULO_ROGERIO_DE_FREITAS_RAMOS", "ACAO": "REALIZAR_SEGUNDA_VISITA", "RAZAO_SOCIAL": "LUCIANA_RIBEIRO_DOS_SANTOS_22618193822_-_STOP_SALGADOS", "ENDERECO": "AVENIDA_DOUTOR_PEDRO_CAMARINHA_747_VILA_MATHIAS_SANTA_CRUZ_DO_RIO_PARDO", "CIDADE": "SANTA_CRUZ_DO_RIO_PARDO", "LATITUDE": -22.894679, "LONGITUDE": -49.6362244 }, "geometry": { "type": "Point", "coordinates": [ -49.6362244, -22.894679 ] } },
{ "type": "Feature", "properties": { "CNPJ": 19265181000106, "AGENTE": "PAULO_ROGERIO_DE_FREITAS_RAMOS", "ACAO": "REALIZAR_SEGUNDA_VISITA", "RAZAO_SOCIAL": "19.265.181_DANIEL_SILVA_BARBOSA_-_DRAK_MOTOS", "ENDERECO": "AVENIDA_DOUTOR_PEDRO_CAMARINHA_799_VILA_MATHIAS_SANTA_CRUZ_DO_RIO_PARDO", "CIDADE": "SANTA_CRUZ_DO_RIO_PARDO", "LATITUDE": -22.8943921, "LONGITUDE": -49.6364169 }, "geometry": { "type": "Point", "coordinates": [ -49.6364169, -22.8943921 ] } },
{ "type": "Feature", "properties": { "CNPJ": 53781457000147, "AGENTE": "PAULO_ROGERIO_DE_FREITAS_RAMOS", "ACAO": "REALIZAR_SEGUNDA_VISITA", "RAZAO_SOCIAL": "53.781.457_ANA_CLAUDIA_IBANHES_-_BANCA_BRASIL_10", "ENDERECO": "AVENIDA_JOAO_RAMALHO_2232_NUCLEO_HABITACIONAL_NOVO_MARILIA_MARILIA", "CIDADE": "MARILIA", "LATITUDE": -22.247435, "LONGITUDE": -49.9312196 }, "geometry": { "type": "Point", "coordinates": [ -49.9312196, -22.247435 ] } },
{ "type": "Feature", "properties": { "CNPJ": 52205033000171, "AGENTE": "PAULO_ROGERIO_DE_FREITAS_RAMOS", "ACAO": "REALIZAR_SEGUNDA_VISITA", "RAZAO_SOCIAL": "52.205.033_CARLOS_SERGIO_BIANCHINI_-_CARLOS_SERGIO_BIANCHINI", "ENDERECO": "AVENIDA_NOVE_DE_JULHO_622_CENTRO_GUAICARA", "CIDADE": "GUAICARA", "LATITUDE": -22.2431639, "LONGITUDE": -49.9171662 }, "geometry": { "type": "Point", "coordinates": [ -49.9171662, -22.2431639 ] } },
{ "type": "Feature", "properties": { "CNPJ": 33159656000100, "AGENTE": "PAULO_ROGERIO_DE_FREITAS_RAMOS", "ACAO": "REALIZAR_SEGUNDA_VISITA", "RAZAO_SOCIAL": "33.159.656_MARLOS_SILVA_-_PET_SALON", "ENDERECO": "AVENIDA_REPUBLICA_460_MARILIA_MARILIA", "CIDADE": "MARILIA", "LATITUDE": -22.21593, "LONGITUDE": -49.9427253 }, "geometry": { "type": "Point", "coordinates": [ -49.9427253, -22.21593 ] } },
{ "type": "Feature", "properties": { "CNPJ": 11130807000165, "AGENTE": "PAULO_ROGERIO_DE_FREITAS_RAMOS", "ACAO": "REALIZAR_SEGUNDA_VISITA", "RAZAO_SOCIAL": "SACCARO_PRODUTOS_DE_BELEZA_LTDA_-_ADCOS", "ENDERECO": "AVENIDA_REPUBLICA_5_MARILIA_MARILIA", "CIDADE": "MARILIA", "LATITUDE": -22.2193188, "LONGITUDE": -49.9401366 }, "geometry": { "type": "Point", "coordinates": [ -49.9401366, -22.2193188 ] } },
{ "type": "Feature", "properties": { "CNPJ": 26770510000131, "AGENTE": "PAULO_ROGERIO_DE_FREITAS_RAMOS", "ACAO": "REALIZAR_SEGUNDA_VISITA", "RAZAO_SOCIAL": "LEONEL_FRANCISCO_SIVIERO_-_BAR_DO_LEONEL", "ENDERECO": "AVENIDA_SETE_DE_SETEMBRO_617_CENTRO_SABINO", "CIDADE": "SABINO", "LATITUDE": -21.4614996, "LONGITUDE": -49.5785584 }, "geometry": { "type": "Point", "coordinates": [ -49.5785584, -21.4614996 ] } },
{ "type": "Feature", "properties": { "CNPJ": 7279894000140, "AGENTE": "PAULO_ROGERIO_DE_FREITAS_RAMOS", "ACAO": "REALIZAR_SEGUNDA_VISITA", "RAZAO_SOCIAL": "DIAS_&_CARNEVAL_SUPERMERCADO_LTDA_-_SUPERMERCADO_CARNEVALLI", "ENDERECO": "AVENIDA_SETE_DE_SETEMBRO_747_CENTRO_SABINO", "CIDADE": "SABINO", "LATITUDE": -21.4609908, "LONGITUDE": -49.5775115 }, "geometry": { "type": "Point", "coordinates": [ -49.5775115, -21.4609908 ] } },
{ "type": "Feature", "properties": { "CNPJ": 56182915000110, "AGENTE": "PAULO_ROGERIO_DE_FREITAS_RAMOS", "ACAO": "REALIZAR_SEGUNDA_VISITA", "RAZAO_SOCIAL": "56.182.915_MARCELO_AUGUSTO_HENRIQUE_-_SEU_MARCELLO", "ENDERECO": "AVENIDA_TIRADENTES_140_CENTRO_SANTA_CRUZ_DO_RIO_PARDO", "CIDADE": "SANTA_CRUZ_DO_RIO_PARDO", "LATITUDE": -22.9050783, "LONGITUDE": -49.6282622 }, "geometry": { "type": "Point", "coordinates": [ -49.6282622, -22.9050783 ] } },
{ "type": "Feature", "properties": { "CNPJ": 13456655000110, "AGENTE": "PAULO_ROGERIO_DE_FREITAS_RAMOS", "ACAO": "REALIZAR_SEGUNDA_VISITA", "RAZAO_SOCIAL": "FABRICIO_STEFANO_VERONA_DE_PAULA_32612912819_-_AUTO_ELETRICA_E_MECANICA_SAO_PEDRO", "ENDERECO": "AVENIDA_TIRADENTES_926_CENTRO_SABINO", "CIDADE": "SABINO", "LATITUDE": -21.4606084, "LONGITUDE": -49.5774599 }, "geometry": { "type": "Point", "coordinates": [ -49.5774599, -21.4606084 ] } },
{ "type": "Feature", "properties": { "CNPJ": 43049455000104, "AGENTE": "PAULO_ROGERIO_DE_FREITAS_RAMOS", "ACAO": "REALIZAR_SEGUNDA_VISITA", "RAZAO_SOCIAL": "LAURA_A._PAULIN_QUAGLIATO_-_CARISMA", "ENDERECO": "AVENIDA_TIRADENTES_986_CENTRO_SANTA_CRUZ_DO_RIO_PARDO", "CIDADE": "SANTA_CRUZ_DO_RIO_PARDO", "LATITUDE": -22.9001657, "LONGITUDE": -49.6220745 }, "geometry": { "type": "Point", "coordinates": [ -49.6220745, -22.9001657 ] } },
{ "type": "Feature", "properties": { "CNPJ": 7144973000143, "AGENTE": "PAULO_ROGERIO_DE_FREITAS_RAMOS", "ACAO": "REALIZAR_SEGUNDA_VISITA", "RAZAO_SOCIAL": "JOAO_SILVESTRE_DOS_SANTOS_PRESUMIDO_-_SUPERMERCADO_COMPRE_BEM", "ENDERECO": "AVENIDA_TOME_DE_SOUZA_1060_JARDIM_MONTE_CASTELO_MARILIA", "CIDADE": "MARILIA", "LATITUDE": -22.24808, "LONGITUDE": -49.9391133 }, "geometry": { "type": "Point", "coordinates": [ -49.9391133, -22.24808 ] } },
{ "type": "Feature", "properties": { "CNPJ": 26168677000127, "AGENTE": "PAULO_ROGERIO_DE_FREITAS_RAMOS", "ACAO": "REALIZAR_SEGUNDA_VISITA", "RAZAO_SOCIAL": "ISABEL_CRISTINA_DOS_SANTOS_MATERIAL_DE_CONSTRUCAO_-_DEPOSITO_AZALEIA", "ENDERECO": "AVENIDA_TOME_DE_SOUZA_728_JARDIM_MONTE_CASTELO_MARILIA", "CIDADE": "MARILIA", "LATITUDE": -22.2464292, "LONGITUDE": -49.9371777 }, "geometry": { "type": "Point", "coordinates": [ -49.9371777, -22.2464292 ] } },
{ "type": "Feature", "properties": { "CNPJ": 33864219000198, "AGENTE": "PAULO_ROGERIO_DE_FREITAS_RAMOS", "ACAO": "REALIZAR_SEGUNDA_VISITA", "RAZAO_SOCIAL": "VALDECIR_FERREIRA_DA_SILVA_BEBIDAS_LTDA_-_FERREIRA'S_BIER", "ENDERECO": "AVENIDA_TOME_DE_SOUZA_778_JARDIM_MONTE_CASTELO_MARILIA", "CIDADE": "MARILIA", "LATITUDE": -22.2466946, "LONGITUDE": -49.9376309 }, "geometry": { "type": "Point", "coordinates": [ -49.9376309, -22.2466946 ] } },
{ "type": "Feature", "properties": { "CNPJ": 11227551000109, "AGENTE": "PAULO_ROGERIO_DE_FREITAS_RAMOS", "ACAO": "REALIZAR_SEGUNDA_VISITA", "RAZAO_SOCIAL": "11.227.551_ROSANE_PELOZZO_GOMIDE_-_CLOSET_LOOK", "ENDERECO": "AVENIDA_VICENTE_FERREIRA_677_CASCATA_MARILIA", "CIDADE": "MARILIA", "LATITUDE": -22.2143965, "LONGITUDE": -49.9395737 }, "geometry": { "type": "Point", "coordinates": [ -49.9395737, -22.2143965 ] } },
{ "type": "Feature", "properties": { "CNPJ": 24624764000116, "AGENTE": "PAULO_ROGERIO_DE_FREITAS_RAMOS", "ACAO": "REALIZAR_SEGUNDA_VISITA", "RAZAO_SOCIAL": "24.624.764_MICHELE_BATISTA_DA_SILVA_-_MICHELE_BATISTA", "ENDERECO": "RUA_ABRAHAO_MUSSI_102_JARDIM_ESPLANADA_MARILIA", "CIDADE": "MARILIA", "LATITUDE": -22.2345626, "LONGITUDE": -49.9148298 }, "geometry": { "type": "Point", "coordinates": [ -49.9148298, -22.2345626 ] } },
{ "type": "Feature", "properties": { "CNPJ": 52806586000180, "AGENTE": "PAULO_ROGERIO_DE_FREITAS_RAMOS", "ACAO": "REALIZAR_SEGUNDA_VISITA", "RAZAO_SOCIAL": "52.806.586_SILMARA_JOANA_DE_LIMA_NAVARRO_-_EMPORIO_D&S", "ENDERECO": "RUA_ADALGISA_GRIZZO_102_MARIA_LUIZA_IV_JAU", "CIDADE": "JAU", "LATITUDE": -22.3272656, "LONGITUDE": -49.0602015 }, "geometry": { "type": "Point", "coordinates": [ -49.0602015, -22.3272656 ] } },
{ "type": "Feature", "properties": { "CNPJ": 21343437000106, "AGENTE": "PAULO_ROGERIO_DE_FREITAS_RAMOS", "ACAO": "REALIZAR_SEGUNDA_VISITA", "RAZAO_SOCIAL": "RITA_DE_CASSIA_VERGA_REIS_27705133890_-_NEGAR_RACOES", "ENDERECO": "RUA_ANGELO_TREVELLIN_410_JARDIM_PLANALTO_MARILIA", "CIDADE": "MARILIA", "LATITUDE": -22.2514201, "LONGITUDE": -49.9384623 }, "geometry": { "type": "Point", "coordinates": [ -49.9384623, -22.2514201 ] } },
{ "type": "Feature", "properties": { "CNPJ": 4291636000190, "AGENTE": "PAULO_ROGERIO_DE_FREITAS_RAMOS", "ACAO": "REALIZAR_SEGUNDA_VISITA", "RAZAO_SOCIAL": "JAIME_SANTANA_-_NENO_KAR", "ENDERECO": "RUA_ANTONIO_SOARES_DA_SILVA_483_VILA_BOA_ESPERANCA_OURINHOS", "CIDADE": "OURINHOS", "LATITUDE": -22.9796475, "LONGITUDE": -49.8577407 }, "geometry": { "type": "Point", "coordinates": [ -49.8577407, -22.9796475 ] } },
{ "type": "Feature", "properties": { "CNPJ": 55717303000111, "AGENTE": "PAULO_ROGERIO_DE_FREITAS_RAMOS", "ACAO": "REALIZAR_SEGUNDA_VISITA", "RAZAO_SOCIAL": "GISELE_RAMOS_DA_SILVA_E_CARLOS_JUNIOR_DA_SILVA_SAMPAIO_-_RECANTO_M.O.", "ENDERECO": "RUA_ASSENTAMENTO_ANTONIO_CONSELHEIRO_69_RURAL_GUARANTA", "CIDADE": "GUARANTA", "LATITUDE": -21.8116938, "LONGITUDE": -49.6209551 }, "geometry": { "type": "Point", "coordinates": [ -49.6209551, -21.8116938 ] } },
{ "type": "Feature", "properties": { "CNPJ": 32899731000107, "AGENTE": "PAULO_ROGERIO_DE_FREITAS_RAMOS", "ACAO": "REALIZAR_SEGUNDA_VISITA", "RAZAO_SOCIAL": "32.899.731_CLAUDIA_MONTEIRO_FERREIRA_-_PET_AMIGO_E_CONVENIENCIA", "ENDERECO": "RUA_AURORA_ARTERO_ZANI_501_HELIO_SAVAZZI_SABINO", "CIDADE": "SABINO", "LATITUDE": -21.4627051, "LONGITUDE": -49.5731517 }, "geometry": { "type": "Point", "coordinates": [ -49.5731517, -21.4627051 ] } },
{ "type": "Feature", "properties": { "CNPJ": 54094104000131, "AGENTE": "PAULO_ROGERIO_DE_FREITAS_RAMOS", "ACAO": "REALIZAR_SEGUNDA_VISITA", "RAZAO_SOCIAL": "54.094.104_REJANE_CRISTINA_QUENCHISKY_DE_SOUZA_-_VELLUTINE_GELATO_ARTESANAL", "ENDERECO": "RUA_BAHIA_639_MARILIA_MARILIA", "CIDADE": "MARILIA", "LATITUDE": -22.2184109, "LONGITUDE": -49.9423527 }, "geometry": { "type": "Point", "coordinates": [ -49.9423527, -22.2184109 ] } },
{ "type": "Feature", "properties": { "CNPJ": 7376154000121, "AGENTE": "PAULO_ROGERIO_DE_FREITAS_RAMOS", "ACAO": "REALIZAR_SEGUNDA_VISITA", "RAZAO_SOCIAL": "07.376.154_RONALDO_ROSA_-_MONTE_CASTELO_MERCEARIA", "ENDERECO": "RUA_CAPITAO_SALOMAO_905_JARDIM_MONTE_CASTELO_MARILIA", "CIDADE": "MARILIA", "LATITUDE": -22.2489247, "LONGITUDE": -49.937577 }, "geometry": { "type": "Point", "coordinates": [ -49.937577, -22.2489247 ] } },
{ "type": "Feature", "properties": { "CNPJ": 39392375000180, "AGENTE": "PAULO_ROGERIO_DE_FREITAS_RAMOS", "ACAO": "REALIZAR_SEGUNDA_VISITA", "RAZAO_SOCIAL": "39.392.375_DANIEL_RODRIGUES_DELUCA_-_JOELMA_PRESENTES", "ENDERECO": "RUA_CONSELHEIRO_SARAIVA_625_CENTRO_SANTA_CRUZ_DO_RIO_PARDO", "CIDADE": "SANTA_CRUZ_DO_RIO_PARDO", "LATITUDE": -22.8977678, "LONGITUDE": -49.6253239 }, "geometry": { "type": "Point", "coordinates": [ -49.6253239, -22.8977678 ] } },
{ "type": "Feature", "properties": { "CNPJ": 66123696000151, "AGENTE": "PAULO_ROGERIO_DE_FREITAS_RAMOS", "ACAO": "REALIZAR_SEGUNDA_VISITA", "RAZAO_SOCIAL": "MERCADO_R_SANTOS_DE_MARILIA_LTDA_-_MERCADO_SANTOS", "ENDERECO": "RUA_CORONEL_MOREIRA_CESAR_588_JARDIM_MONTE_CASTELO_MARILIA", "CIDADE": "MARILIA", "LATITUDE": -22.2471597, "LONGITUDE": -49.9347614 }, "geometry": { "type": "Point", "coordinates": [ -49.9347614, -22.2471597 ] } },
{ "type": "Feature", "properties": { "CNPJ": 8098201000185, "AGENTE": "PAULO_ROGERIO_DE_FREITAS_RAMOS", "ACAO": "REALIZAR_SEGUNDA_VISITA", "RAZAO_SOCIAL": "M._R._DE_AVELAR_MOTOS_-_POEIRA_MOTOS", "ENDERECO": "RUA_CORONEL_MOREIRA_CESAR_816_JARDIM_MONTE_CASTELO_MARILIA", "CIDADE": "MARILIA", "LATITUDE": -22.2485422, "LONGITUDE": -49.9363519 }, "geometry": { "type": "Point", "coordinates": [ -49.9363519, -22.2485422 ] } },
{ "type": "Feature", "properties": { "CNPJ": 49157723000198, "AGENTE": "PAULO_ROGERIO_DE_FREITAS_RAMOS", "ACAO": "REALIZAR_SEGUNDA_VISITA", "RAZAO_SOCIAL": "49.157.723_ANDRE_RODRIGUES_DA_LUZ_-_BALADA'S_BURGER", "ENDERECO": "RUA_CORONEL_MOREIRA_CESAR_847_JARDIM_MONTE_CASTELO_MARILIA", "CIDADE": "MARILIA", "LATITUDE": -22.2489223, "LONGITUDE": -49.9365078 }, "geometry": { "type": "Point", "coordinates": [ -49.9365078, -22.2489223 ] } },
{ "type": "Feature", "properties": { "CNPJ": 61038773000151, "AGENTE": "PAULO_ROGERIO_DE_FREITAS_RAMOS", "ACAO": "REALIZAR_SEGUNDA_VISITA", "RAZAO_SOCIAL": "ANDRESSA_BATISTA_THABET_VESTUARIO_LTDA_-_FACHINI_OUTLET", "ENDERECO": "RUA_DAS_TURQUESAS_74_JARDIM_MARIA_IZABEL_MARILIA", "CIDADE": "MARILIA", "LATITUDE": -22.2229467, "LONGITUDE": -49.9348141 }, "geometry": { "type": "Point", "coordinates": [ -49.9348141, -22.2229467 ] } },
{ "type": "Feature", "properties": { "CNPJ": 20716507000153, "AGENTE": "PAULO_ROGERIO_DE_FREITAS_RAMOS", "ACAO": "REALIZAR_SEGUNDA_VISITA", "RAZAO_SOCIAL": "ATHANAZIO_E_ANDRADE_LTDA._-_O_CRAVO_E_A_ROSA", "ENDERECO": "RUA_DAS_TURQUESAS_78_JARDIM_MARIA_IZABEL_MARILIA", "CIDADE": "MARILIA", "LATITUDE": -22.2229169, "LONGITUDE": -49.9347094 }, "geometry": { "type": "Point", "coordinates": [ -49.9347094, -22.2229169 ] } },
{ "type": "Feature", "properties": { "CNPJ": 58164611000155, "AGENTE": "PAULO_ROGERIO_DE_FREITAS_RAMOS", "ACAO": "REALIZAR_SEGUNDA_VISITA", "RAZAO_SOCIAL": "58.164.611_IZABELLE_ROSA_-_LA_BELLE", "ENDERECO": "RUA_DOMINGOS_JORGE_VELHO_467_VILA_REAL_MARILIA", "CIDADE": "MARILIA", "LATITUDE": -22.2490836, "LONGITUDE": -49.937625 }, "geometry": { "type": "Point", "coordinates": [ -49.937625, -22.2490836 ] } },
{ "type": "Feature", "properties": { "CNPJ": 30133616000100, "AGENTE": "PAULO_ROGERIO_DE_FREITAS_RAMOS", "ACAO": "REALIZAR_SEGUNDA_VISITA", "RAZAO_SOCIAL": "E._ROQUE_DA_SILVA_MINIMERCADO_-_SILVA_MATERIAIS", "ENDERECO": "RUA_ERNESTA_MENOIA_BORGUETTI_314_JARDIM_PLANALTO_MARILIA", "CIDADE": "MARILIA", "LATITUDE": -22.2521359, "LONGITUDE": -49.9372872 }, "geometry": { "type": "Point", "coordinates": [ -49.9372872, -22.2521359 ] } },
{ "type": "Feature", "properties": { "CNPJ": 35981488000160, "AGENTE": "PAULO_ROGERIO_DE_FREITAS_RAMOS", "ACAO": "REALIZAR_SEGUNDA_VISITA", "RAZAO_SOCIAL": "SANDRA_REGINA_GARCIA_RANGEL_30071253831_-_OTICA_SANDRA", "ENDERECO": "RUA_EUCLIDES_DA_CUNHA_586_CENTRO_SANTA_CRUZ_DO_RIO_PARDO", "CIDADE": "SANTA_CRUZ_DO_RIO_PARDO", "LATITUDE": -22.8988708, "LONGITUDE": -49.6260526 }, "geometry": { "type": "Point", "coordinates": [ -49.6260526, -22.8988708 ] } },
{ "type": "Feature", "properties": { "CNPJ": 52202770000110, "AGENTE": "PAULO_ROGERIO_DE_FREITAS_RAMOS", "ACAO": "REALIZAR_SEGUNDA_VISITA", "RAZAO_SOCIAL": "RENATO_PIVETA_GIACON_-_DOCELAR_VARIEDADES", "ENDERECO": "RUA_FARMACEUTICO_ALZIRO_DE_SOUZA_SANTOS_130_CENTRO_SANTA_CRUZ_DO_RIO_PARDO", "CIDADE": "SANTA_CRUZ_DO_RIO_PARDO", "LATITUDE": -22.9079421, "LONGITUDE": -49.6263472 }, "geometry": { "type": "Point", "coordinates": [ -49.6263472, -22.9079421 ] } },
{ "type": "Feature", "properties": { "CNPJ": 37489931000105, "AGENTE": "PAULO_ROGERIO_DE_FREITAS_RAMOS", "ACAO": "REALIZAR_SEGUNDA_VISITA", "RAZAO_SOCIAL": "37.489.931_NATHALIA_YASMIN_TUDELA_FREITAS_PRADO_-_NATHALIA_YASMIN_TUDELA_FREITAS_PRADO", "ENDERECO": "RUA_FELICIANO_ANDRADE_NUNES_295_CENTRO_CAFELANDIA", "CIDADE": "CAFELANDIA", "LATITUDE": -22.2431675, "LONGITUDE": -49.9171516 }, "geometry": { "type": "Point", "coordinates": [ -49.9171516, -22.2431675 ] } },
{ "type": "Feature", "properties": { "CNPJ": 49814507000178, "AGENTE": "PAULO_ROGERIO_DE_FREITAS_RAMOS", "ACAO": "REALIZAR_SEGUNDA_VISITA", "RAZAO_SOCIAL": "49.814.507_TIAGO_ANTONIO_LOPES_-_OFICINA_MECANICA_TIAGO_BURU", "ENDERECO": "RUA_FRANCISCO_GONZAGA_DE_OLIVEIRA_452_JARDIM_BRASILIA_SANTA_CRUZ_DO_RIO_PARDO", "CIDADE": "SANTA_CRUZ_DO_RIO_PARDO", "LATITUDE": -22.8937316, "LONGITUDE": -49.6383456 }, "geometry": { "type": "Point", "coordinates": [ -49.6383456, -22.8937316 ] } },
{ "type": "Feature", "properties": { "CNPJ": 17709237000149, "AGENTE": "PAULO_ROGERIO_DE_FREITAS_RAMOS", "ACAO": "REALIZAR_SEGUNDA_VISITA", "RAZAO_SOCIAL": "DP_MARTINS_COMERCIO_DE_CALCADOS_-_DALVA_PANAO_CALCADOS", "ENDERECO": "RUA_GILDO_CASADEI_339_PARQUE_SAO_JORGE_MARILIA", "CIDADE": "MARILIA", "LATITUDE": -22.2407671, "LONGITUDE": -49.9235262 }, "geometry": { "type": "Point", "coordinates": [ -49.9235262, -22.2407671 ] } },
{ "type": "Feature", "properties": { "CNPJ": 58502815000159, "AGENTE": "PAULO_ROGERIO_DE_FREITAS_RAMOS", "ACAO": "REALIZAR_SEGUNDA_VISITA", "RAZAO_SOCIAL": "58.502.815_PAMELA_DE_AGUIAR_RODRIGUES_-_PAMELA_DE_AGUIAR_RODRIGUES", "ENDERECO": "RUA_HUMBERTO_VENTURA_214_PORTAL_FAZENDINHA_II_CAFELANDIA", "CIDADE": "CAFELANDIA", "LATITUDE": -22.2431784, "LONGITUDE": -49.9171452 }, "geometry": { "type": "Point", "coordinates": [ -49.9171452, -22.2431784 ] } },
{ "type": "Feature", "properties": { "CNPJ": 53750757000169, "AGENTE": "PAULO_ROGERIO_DE_FREITAS_RAMOS", "ACAO": "REALIZAR_SEGUNDA_VISITA", "RAZAO_SOCIAL": "53.750.757_GUSTAVO_JOSE_DIAS_-_GC_CALHAS", "ENDERECO": "RUA_LAURO_ZIMMERMANN_FILHO_200_JARDIM_ITAMARATY_OURINHOS", "CIDADE": "OURINHOS", "LATITUDE": -23.0155132, "LONGITUDE": -49.889823 }, "geometry": { "type": "Point", "coordinates": [ -49.889823, -23.0155132 ] } },
{ "type": "Feature", "properties": { "CNPJ": 36701964000104, "AGENTE": "PAULO_ROGERIO_DE_FREITAS_RAMOS", "ACAO": "REALIZAR_SEGUNDA_VISITA", "RAZAO_SOCIAL": "ANTONIO_BATISTA_DOS_SANTOS_JUNIOR_LTDA_-_ALICE_SALGADOS", "ENDERECO": "RUA_MANOEL_SANTOS_CHIEIRA_420_JARDIM_ARAXA_MARILIA", "CIDADE": "MARILIA", "LATITUDE": -22.2372325, "LONGITUDE": -49.9672286 }, "geometry": { "type": "Point", "coordinates": [ -49.9672286, -22.2372325 ] } },
{ "type": "Feature", "properties": { "CNPJ": 23066059000188, "AGENTE": "PAULO_ROGERIO_DE_FREITAS_RAMOS", "ACAO": "REALIZAR_SEGUNDA_VISITA", "RAZAO_SOCIAL": "SILVANA_DE_FATIMA_BUENO_33943857832_-_RESTAURANTE_SABOR_DE_CASA", "ENDERECO": "RUA_MARECHAL_BITENCOURT_769_CENTRO_SANTA_CRUZ_DO_RIO_PARDO", "CIDADE": "SANTA_CRUZ_DO_RIO_PARDO", "LATITUDE": -22.9004894, "LONGITUDE": -49.6295145 }, "geometry": { "type": "Point", "coordinates": [ -49.6295145, -22.9004894 ] } },
{ "type": "Feature", "properties": { "CNPJ": 50540226000153, "AGENTE": "PAULO_ROGERIO_DE_FREITAS_RAMOS", "ACAO": "REALIZAR_SEGUNDA_VISITA", "RAZAO_SOCIAL": "50.540.226_DYONATA_RODRIGUES_CAMPOS_-_DRC_MANUTENCOES_ELETRICAS", "ENDERECO": "RUA_MARECHAL_DEODORO_410_JARDIM_IMPERIAL_SABINO", "CIDADE": "SABINO", "LATITUDE": -21.4629613, "LONGITUDE": -49.5812154 }, "geometry": { "type": "Point", "coordinates": [ -49.5812154, -21.4629613 ] } },
{ "type": "Feature", "properties": { "CNPJ": 67207605000129, "AGENTE": "PAULO_ROGERIO_DE_FREITAS_RAMOS", "ACAO": "REALIZAR_SEGUNDA_VISITA", "RAZAO_SOCIAL": "PANIFICADORA_SANTA_CLARA_DE_MARILIA_LTDA_-_PANIFICADORA_SANTA_CLARA", "ENDERECO": "RUA_PERNAMBUCO_747_BANZATO_MARILIA", "CIDADE": "MARILIA", "LATITUDE": -22.2096836, "LONGITUDE": -49.9422454 }, "geometry": { "type": "Point", "coordinates": [ -49.9422454, -22.2096836 ] } },
{ "type": "Feature", "properties": { "CNPJ": 49210368000173, "AGENTE": "PAULO_ROGERIO_DE_FREITAS_RAMOS", "ACAO": "REALIZAR_SEGUNDA_VISITA", "RAZAO_SOCIAL": "49.210.368_VITOR_SALOMAO_FERREIRA_DE_SOUZA_-_SR_SALOMAO_STUDIO", "ENDERECO": "RUA_PIO_X_455_JARDIM_VITORIA_MARILIA", "CIDADE": "MARILIA", "LATITUDE": -22.2380083, "LONGITUDE": -49.9224526 }, "geometry": { "type": "Point", "coordinates": [ -49.9224526, -22.2380083 ] } },
{ "type": "Feature", "properties": { "CNPJ": 24174479000140, "AGENTE": "PAULO_ROGERIO_DE_FREITAS_RAMOS", "ACAO": "REALIZAR_SEGUNDA_VISITA", "RAZAO_SOCIAL": "24.174.479_ARACELIS_APARECIDA_CESAR_ESPINOSA_-_MENINA_DE_TRANCA_HANDMADE", "ENDERECO": "RUA_PRIMEIRO_DE_MAIO_10106_JARDIM_MARAVILHA_BAURU", "CIDADE": "BAURU", "LATITUDE": -22.3272354, "LONGITUDE": -49.0600803 }, "geometry": { "type": "Point", "coordinates": [ -49.0600803, -22.3272354 ] } },
{ "type": "Feature", "properties": { "CNPJ": 12728751000108, "AGENTE": "PAULO_ROGERIO_DE_FREITAS_RAMOS", "ACAO": "REALIZAR_SEGUNDA_VISITA", "RAZAO_SOCIAL": "V._P._DUTRA_VEICULOS_-_RATINHO_VEICULOS", "ENDERECO": "RUA_PROFESSOR_CANDIDO_BARBOSA_297_PARQUE_MINAS_GERAIS_OURINHOS", "CIDADE": "OURINHOS", "LATITUDE": -22.9798619, "LONGITUDE": -49.8578466 }, "geometry": { "type": "Point", "coordinates": [ -49.8578466, -22.9798619 ] } },
{ "type": "Feature", "properties": { "CNPJ": 9031033000173, "AGENTE": "PAULO_ROGERIO_DE_FREITAS_RAMOS", "ACAO": "REALIZAR_SEGUNDA_VISITA", "RAZAO_SOCIAL": "ALVARO_RODRIGUES_E_OUTRA_-_ALVARO_RODRIGUES", "ENDERECO": "RUA_PROJETO_ASSENTAMENTO_REUNIDAS_AGROVILA_SAO_PEDRO_25_PATINHOS_PROMISSAO", "CIDADE": "PROMISSAO", "LATITUDE": -21.8116807, "LONGITUDE": -49.6209564 }, "geometry": { "type": "Point", "coordinates": [ -49.6209564, -21.8116807 ] } },
{ "type": "Feature", "properties": { "CNPJ": 47870982000136, "AGENTE": "PAULO_ROGERIO_DE_FREITAS_RAMOS", "ACAO": "REALIZAR_SEGUNDA_VISITA", "RAZAO_SOCIAL": "47.870.982_JOAO_MATHEUS_DE_PAULA_CARDOSO_-_JOAO_MATHEUS_DE_PAULA_CARDOSO", "ENDERECO": "RUA_SAO_PAULO_74_CENTRO_CAFELANDIA", "CIDADE": "CAFELANDIA", "LATITUDE": -22.2431506, "LONGITUDE": -49.9171642 }, "geometry": { "type": "Point", "coordinates": [ -49.9171642, -22.2431506 ] } },
{ "type": "Feature", "properties": { "CNPJ": 44714619000133, "AGENTE": "PAULO_ROGERIO_DE_FREITAS_RAMOS", "ACAO": "REALIZAR_SEGUNDA_VISITA", "RAZAO_SOCIAL": "APARECIDA_FATIMA_DE_OLIVEIRA_PAGANELLI_83234640904_-_FATIMA_PAGANELLI", "ENDERECO": "RUA_SHIMPEI_OKIAMA_525_JARDIM_ESPLANADA_BAURU", "CIDADE": "BAURU", "LATITUDE": -22.3271556, "LONGITUDE": -49.0601924 }, "geometry": { "type": "Point", "coordinates": [ -49.0601924, -22.3271556 ] } },
{ "type": "Feature", "properties": { "CNPJ": 55217210000128, "AGENTE": "PAULO_ROGERIO_DE_FREITAS_RAMOS", "ACAO": "REALIZAR_SEGUNDA_VISITA", "RAZAO_SOCIAL": "J.ALENCASTRO_CORRETORA_DE_SEGUROS_LTDA_-_J._ALENCASTRO_CORRETORA_DE_SEGUROS", "ENDERECO": "RUA_TILFRID_HALLGREM_105_JARDIM_MARAJO_MARILIA", "CIDADE": "MARILIA", "LATITUDE": -22.2443892, "LONGITUDE": -49.917599 }, "geometry": { "type": "Point", "coordinates": [ -49.917599, -22.2443892 ] } },
{ "type": "Feature", "properties": { "CNPJ": 57749854000192, "AGENTE": "PAULO_ROGERIO_DE_FREITAS_RAMOS", "ACAO": "REALIZAR_SEGUNDA_VISITA", "RAZAO_SOCIAL": "57.749.854_FERNANDA_DE_ARAUJO_AFONSO_DIAS_-_FERNANDA_DE_ARAUJO_AFONSO_DIAS", "ENDERECO": "RUA_TOMAZ_GONZAGA_137_JARDIM_MARIA_IZABEL_MARILIA", "CIDADE": "MARILIA", "LATITUDE": -22.2162497, "LONGITUDE": -49.9382408 }, "geometry": { "type": "Point", "coordinates": [ -49.9382408, -22.2162497 ] } },
{ "type": "Feature", "properties": { "CNPJ": 56177255000189, "AGENTE": "PAULO_ROGERIO_DE_FREITAS_RAMOS", "ACAO": "REALIZAR_SEGUNDA_VISITA", "RAZAO_SOCIAL": "56.177.255_DYONATAS_RICARDO_LOPES_-_THYTAI_ACESSORIOS_E_PRESENTES", "ENDERECO": "RUA_VEREADOR_GERALDO_BERNARDINI_526_RESIDENCIAL_PARQUE_GABRIELA_OURINHOS", "CIDADE": "OURINHOS", "LATITUDE": -22.983589, "LONGITUDE": -49.8570644 }, "geometry": { "type": "Point", "coordinates": [ -49.8570644, -22.983589 ] } },
{ "type": "Feature", "properties": { "CNPJ": 25212981000161, "AGENTE": "PAULO_ROGERIO_DE_FREITAS_RAMOS", "ACAO": "REALIZAR_SEGUNDA_VISITA", "RAZAO_SOCIAL": "ANTONIO_CARLOS_DOS_SANTOS_GUANDALIM_-_ANTONIO_CARLOS_DOS_SANTOS_GUANDALIM", "ENDERECO": "RUA_VITORIO_BUDOIA_66_RESIDENCIAL_VALE_DO_SALTINHO_CAFELANDIA", "CIDADE": "CAFELANDIA", "LATITUDE": -22.2431808, "LONGITUDE": -49.917196 }, "geometry": { "type": "Point", "coordinates": [ -49.917196, -22.2431808 ] } },
{ "type": "Feature", "properties": { "CNPJ": 52502543000100, "AGENTE": "PAULO_ROGERIO_DE_FREITAS_RAMOS", "ACAO": "REALIZAR_SEGUNDA_VISITA", "RAZAO_SOCIAL": "GILVANIA_BONIFACIO_DA_SILVA_-_GILVANIA_BONIFACIO_DA_SILVA", "ENDERECO": "SITIO_SITIO_RETIRO_EULANDIA_0_BARRA_GRANDE_GUARANTA", "CIDADE": "GUARANTA", "LATITUDE": -21.8116681, "LONGITUDE": -49.6209771 }, "geometry": { "type": "Point", "coordinates": [ -49.6209771, -21.8116681 ] } },
{ "type": "Feature", "properties": { "CNPJ": 26421077000129, "AGENTE": "PAULO_ROGERIO_DE_FREITAS_RAMOS", "ACAO": "REALIZAR_PRIMEIRA_VISITA_POTENCIAL", "RAZAO_SOCIAL": "LEONARDO_GONCALVES_DE_FREITAS_34266339810", "ENDERECO": "AVENIDA_BRIGADEIRO_EDUARDO_GOMES_2353_RESIDENCIAL_VALE_VERDE_MARILIA_BRASIL", "CIDADE": "MARILIA", "LATITUDE": -22.1921537, "LONGITUDE": -49.9293458 }, "geometry": { "type": "Point", "coordinates": [ -49.9293458, -22.1921537 ] } },
{ "type": "Feature", "properties": { "CNPJ": 46889996000139, "AGENTE": "PAULO_ROGERIO_DE_FREITAS_RAMOS", "ACAO": "REALIZAR_PRIMEIRA_VISITA_POTENCIAL", "RAZAO_SOCIAL": "MARCIA_REGINA_DE_SOUZA_CAMARGO_22566504806", "ENDERECO": "RUA_ROGER_WILLIANS_LANE_BATEL_120_JARDIM_DAVID_LEUDER_PEREIRA_ALVES_MARILIA_BRASIL", "CIDADE": "MARILIA", "LATITUDE": -22.1931828, "LONGITUDE": -49.9321722 }, "geometry": { "type": "Point", "coordinates": [ -49.9321722, -22.1931828 ] } },
{ "type": "Feature", "properties": { "CNPJ": 54066932000166, "AGENTE": "PAULO_ROGERIO_DE_FREITAS_RAMOS", "ACAO": "REALIZAR_PRIMEIRA_VISITA_POTENCIAL", "RAZAO_SOCIAL": "REGINATO_REPRESENTACOES_LTDA", "ENDERECO": "RUA_BELEM_839_BETEL_MARILIA_BRASIL", "CIDADE": "MARILIA", "LATITUDE": -22.1993763, "LONGITUDE": -49.9407734 }, "geometry": { "type": "Point", "coordinates": [ -49.9407734, -22.1993763 ] } },
{ "type": "Feature", "properties": { "CNPJ": 28876733000103, "AGENTE": "PAULO_ROGERIO_DE_FREITAS_RAMOS", "ACAO": "REALIZAR_PRIMEIRA_VISITA_POTENCIAL", "RAZAO_SOCIAL": "28.876.733_MONICA_VANESSA_DOS_SANTOS_DE_LIMA", "ENDERECO": "RUA_BELEM_547_BETEL_MARILIA_BRASIL", "CIDADE": "MARILIA", "LATITUDE": -22.2017869, "LONGITUDE": -49.9419038 }, "geometry": { "type": "Point", "coordinates": [ -49.9419038, -22.2017869 ] } },
{ "type": "Feature", "properties": { "CNPJ": 58493047000114, "AGENTE": "PAULO_ROGERIO_DE_FREITAS_RAMOS", "ACAO": "REALIZAR_PRIMEIRA_VISITA_POTENCIAL", "RAZAO_SOCIAL": "58.493.047_VINICIUS_DE_SOUZA_COSTA", "ENDERECO": "RUA_SANTA_HELENA_769_JARDIM_ALVORADA_MARILIA_BRASIL", "CIDADE": "MARILIA", "LATITUDE": -22.2020267, "LONGITUDE": -49.9363713 }, "geometry": { "type": "Point", "coordinates": [ -49.9363713, -22.2020267 ] } },
{ "type": "Feature", "properties": { "CNPJ": 47491605000196, "AGENTE": "PAULO_ROGERIO_DE_FREITAS_RAMOS", "ACAO": "REALIZAR_PRIMEIRA_VISITA_POTENCIAL", "RAZAO_SOCIAL": "GISNAI_DA_SILVA_CARLOS_31382168896", "ENDERECO": "AVENIDA_BRIGADEIRO_EDUARDO_GOMES_751_RESIDENCIAL_VALE_VERDE_MARILIA_BRASIL", "CIDADE": "MARILIA", "LATITUDE": -22.2071094, "LONGITUDE": -49.9349594 }, "geometry": { "type": "Point", "coordinates": [ -49.9349594, -22.2071094 ] } },
{ "type": "Feature", "properties": { "CNPJ": 4738970800014, "AGENTE": "PAULO_ROGERIO_DE_FREITAS_RAMOS", "ACAO": "REALIZAR_PRIMEIRA_VISITA_POTENCIAL", "RAZAO_SOCIAL": "ANTONIO_BUFFONI_JUNIOR_22632157862", "ENDERECO": "RUA_MARQUES_DE_SAO_VICENTE_444_JARDIM_MARIA_IZABEL_MARILIA_BRASIL", "CIDADE": "MARILIA", "LATITUDE": -22.2078909, "LONGITUDE": -49.9364451 }, "geometry": { "type": "Point", "coordinates": [ -49.9364451, -22.2078909 ] } },
{ "type": "Feature", "properties": { "CNPJ": 1103090700011, "AGENTE": "PAULO_ROGERIO_DE_FREITAS_RAMOS", "ACAO": "REALIZAR_PRIMEIRA_VISITA_POTENCIAL", "RAZAO_SOCIAL": "11.030.907_APARECIDA_GONZAGA_DE_ALMEIDA", "ENDERECO": "AVENIDA_SAO_VICENTE_356_BANZATO_MARILIA_BRASIL", "CIDADE": "MARILIA", "LATITUDE": -22.2088824, "LONGITUDE": -49.941343 }, "geometry": { "type": "Point", "coordinates": [ -49.941343, -22.2088824 ] } },
{ "type": "Feature", "properties": { "CNPJ": 24843610000115, "AGENTE": "PAULO_ROGERIO_DE_FREITAS_RAMOS", "ACAO": "REALIZAR_PRIMEIRA_VISITA_POTENCIAL", "RAZAO_SOCIAL": "24.843.610_JEFFERSON_CEZARIO_MOTTA", "ENDERECO": "RUA_PERNAMBUCO_-_DE_462/463_AO_FIM_591_BANZATO_MARILIA_BRASIL", "CIDADE": "MARILIA", "LATITUDE": -22.2097339, "LONGITUDE": -49.9419566 }, "geometry": { "type": "Point", "coordinates": [ -49.9419566, -22.2097339 ] } },
{ "type": "Feature", "properties": { "CNPJ": 236672160001, "AGENTE": "PAULO_ROGERIO_DE_FREITAS_RAMOS", "ACAO": "REALIZAR_PRIMEIRA_VISITA_POTENCIAL", "RAZAO_SOCIAL": "FRANCISCO_DA_SILVA_CHAVES_LTDA", "ENDERECO": "AVENIDA_ITU_271_CASCATA_MARILIA_BRASIL", "CIDADE": "MARILIA", "LATITUDE": -22.2129316, "LONGITUDE": -49.9412142 }, "geometry": { "type": "Point", "coordinates": [ -49.9412142, -22.2129316 ] } },
{ "type": "Feature", "properties": { "CNPJ": 41193064000133, "AGENTE": "PAULO_ROGERIO_DE_FREITAS_RAMOS", "ACAO": "REALIZAR_PRIMEIRA_VISITA_POTENCIAL", "RAZAO_SOCIAL": "41.193.064_EDSON_PEREIRA_SILVA", "ENDERECO": "RUA_NOVE_DE_JULHO_251_BANZATO_MARILIA_BRASIL", "CIDADE": "MARILIA", "LATITUDE": -22.2131801, "LONGITUDE": -49.9411275 }, "geometry": { "type": "Point", "coordinates": [ -49.9411275, -22.2131801 ] } },
{ "type": "Feature", "properties": { "CNPJ": 35076791000118, "AGENTE": "PAULO_ROGERIO_DE_FREITAS_RAMOS", "ACAO": "REALIZAR_PRIMEIRA_VISITA_POTENCIAL", "RAZAO_SOCIAL": "ROTISSERIE_E_CAFE_21_LTDA", "ENDERECO": "RUA_JACINTO_PORTELA_ORMONDE_302_RESIDENCIAL_VIDA_NOVA_MARACA_(PADRE_NOBREGA)_MARILIA_BRASIL", "CIDADE": "MARILIA", "LATITUDE": -22.213242, "LONGITUDE": -49.938122 }, "geometry": { "type": "Point", "coordinates": [ -49.938122, -22.213242 ] } },
{ "type": "Feature", "properties": { "CNPJ": 17800578000125, "AGENTE": "PAULO_ROGERIO_DE_FREITAS_RAMOS", "ACAO": "REALIZAR_PRIMEIRA_VISITA_POTENCIAL", "RAZAO_SOCIAL": "17.800.578_LUCIENE_DUTRA_LEITE", "ENDERECO": "RUA_COMANDANTE_ROMAO_GOMES_135_JARDIM_MARIA_IZABEL_MARILIA_BRASIL", "CIDADE": "MARILIA", "LATITUDE": -22.2143621, "LONGITUDE": -49.9395935 }, "geometry": { "type": "Point", "coordinates": [ -49.9395935, -22.2143621 ] } },
{ "type": "Feature", "properties": { "CNPJ": 23813655000184, "AGENTE": "PAULO_ROGERIO_DE_FREITAS_RAMOS", "ACAO": "REALIZAR_PRIMEIRA_VISITA_POTENCIAL", "RAZAO_SOCIAL": "ANDREIA_APARECIDA_DINALLI_SOLINO_30680163808", "ENDERECO": "AVENIDA_ITU_51_CASCATA_MARILIA_BRASIL", "CIDADE": "MARILIA", "LATITUDE": -22.2144873, "LONGITUDE": -49.940121 }, "geometry": { "type": "Point", "coordinates": [ -49.940121, -22.2144873 ] } },
{ "type": "Feature", "properties": { "CNPJ": 23583011000147, "AGENTE": "PAULO_ROGERIO_DE_FREITAS_RAMOS", "ACAO": "REALIZAR_PRIMEIRA_VISITA_POTENCIAL", "RAZAO_SOCIAL": "MRC_COMERCIO_DE_VESTUARIO_LTDA", "ENDERECO": "RUA_CLAUDIO_MANOEL_DA_COSTA_140_JARDIM_MARIA_IZABEL_MARILIA_BRASIL", "CIDADE": "MARILIA", "LATITUDE": -22.214665, "LONGITUDE": -49.9380717 }, "geometry": { "type": "Point", "coordinates": [ -49.9380717, -22.214665 ] } },
{ "type": "Feature", "properties": { "CNPJ": 13878161000124, "AGENTE": "PAULO_ROGERIO_DE_FREITAS_RAMOS", "ACAO": "REALIZAR_PRIMEIRA_VISITA_POTENCIAL", "RAZAO_SOCIAL": "ANA_CAROLINA_GODOY_BAPTISTELLA_GRECCO_31240370814", "ENDERECO": "RUA_ALVARENGA_PEIXOTO_160_JARDIM_MARIA_IZABEL_MARILIA_BRASIL", "CIDADE": "MARILIA", "LATITUDE": -22.2156497, "LONGITUDE": -49.9378647 }, "geometry": { "type": "Point", "coordinates": [ -49.9378647, -22.2156497 ] } },
{ "type": "Feature", "properties": { "CNPJ": 30940939000105, "AGENTE": "PAULO_ROGERIO_DE_FREITAS_RAMOS", "ACAO": "REALIZAR_PRIMEIRA_VISITA_POTENCIAL", "RAZAO_SOCIAL": "30.940.939_LESSIO_WILLER_DE_REZENDE", "ENDERECO": "AVENIDA_SANTO_ANTONIO_67_BOA_VISTA_MARILIA_BRASIL", "CIDADE": "MARILIA", "LATITUDE": -22.2157207, "LONGITUDE": -49.9372706 }, "geometry": { "type": "Point", "coordinates": [ -49.9372706, -22.2157207 ] } },
{ "type": "Feature", "properties": { "CNPJ": 59611139000114, "AGENTE": "PAULO_ROGERIO_DE_FREITAS_RAMOS", "ACAO": "REALIZAR_PRIMEIRA_VISITA_POTENCIAL", "RAZAO_SOCIAL": "59.611.139_RICHARD_DE_MORAES_DA_SILVA", "ENDERECO": "RUA_DOS_BANCARIOS_51_JARDIM_MARIA_IZABEL_MARILIA_BRASIL", "CIDADE": "MARILIA", "LATITUDE": -22.2178689, "LONGITUDE": -49.9393082 }, "geometry": { "type": "Point", "coordinates": [ -49.9393082, -22.2178689 ] } },
{ "type": "Feature", "properties": { "CNPJ": 318446330001, "AGENTE": "PAULO_ROGERIO_DE_FREITAS_RAMOS", "ACAO": "REALIZAR_PRIMEIRA_VISITA_POTENCIAL", "RAZAO_SOCIAL": "ROSANGELA_FERNANDES_DIAS", "ENDERECO": "RUA_ANTONIO_POLLON_271_VILA_COIMBRA_MARILIA_BRASIL", "CIDADE": "MARILIA", "LATITUDE": -22.2193501, "LONGITUDE": -49.9414359 }, "geometry": { "type": "Point", "coordinates": [ -49.9414359, -22.2193501 ] } },
{ "type": "Feature", "properties": { "CNPJ": 47967293000144, "AGENTE": "PAULO_ROGERIO_DE_FREITAS_RAMOS", "ACAO": "REALIZAR_PRIMEIRA_VISITA_POTENCIAL", "RAZAO_SOCIAL": "47.967.293_GUILHERME_MAGALHAES_DUNDES", "ENDERECO": "RUA_VINTE_E_UM_DE_ABRIL_731_JARDIM_MARIA_IZABEL_MARILIA_BRASIL", "CIDADE": "MARILIA", "LATITUDE": -22.2195118, "LONGITUDE": -49.9386623 }, "geometry": { "type": "Point", "coordinates": [ -49.9386623, -22.2195118 ] } },
{ "type": "Feature", "properties": { "CNPJ": 7332730000139, "AGENTE": "PAULO_ROGERIO_DE_FREITAS_RAMOS", "ACAO": "REALIZAR_PRIMEIRA_VISITA_POTENCIAL", "RAZAO_SOCIAL": "JULIANA_METODIO_TREINAMENTO_E_DESENVOLVIMENTO_PROFISSIONAL", "ENDERECO": "RUA_PARANA_163_MARILIA_MARILIA_BRASIL", "CIDADE": "MARILIA", "LATITUDE": -22.2203839, "LONGITUDE": -49.9340722 }, "geometry": { "type": "Point", "coordinates": [ -49.9340722, -22.2203839 ] } },
{ "type": "Feature", "properties": { "CNPJ": 43246037000107, "AGENTE": "PAULO_ROGERIO_DE_FREITAS_RAMOS", "ACAO": "REALIZAR_PRIMEIRA_VISITA_POTENCIAL", "RAZAO_SOCIAL": "43.246.037_VINICIUS_ROGER_ANJOS_DA_SILVA", "ENDERECO": "RUA_EDUARDO_PRADO_49_JARDIM_MONTE_CASTELO_MARILIA_BRASIL", "CIDADE": "MARILIA", "LATITUDE": -22.2224672, "LONGITUDE": -49.9398805 }, "geometry": { "type": "Point", "coordinates": [ -49.9398805, -22.2224672 ] } },
{ "type": "Feature", "properties": { "CNPJ": 26605254000127, "AGENTE": "PAULO_ROGERIO_DE_FREITAS_RAMOS", "ACAO": "REALIZAR_PRIMEIRA_VISITA_POTENCIAL", "RAZAO_SOCIAL": "26.605.254_CARLA_FERNANDA_DE_MARCO", "ENDERECO": "AVENIDA_DAS_ESMERALDAS_701_JARDIM_TANGARA_MARILIA_BRASIL", "CIDADE": "MARILIA", "LATITUDE": -22.2226186, "LONGITUDE": -49.9364389 }, "geometry": { "type": "Point", "coordinates": [ -49.9364389, -22.2226186 ] } },
{ "type": "Feature", "properties": { "CNPJ": 27357569000165, "AGENTE": "PAULO_ROGERIO_DE_FREITAS_RAMOS", "ACAO": "REALIZAR_PRIMEIRA_VISITA_POTENCIAL", "RAZAO_SOCIAL": "ERE_ALIMENTOS_LTDA", "ENDERECO": "RUA_ATILIO_GOMES_DE_MELLO_50_FRAGATA_MARILIA_BRASIL", "CIDADE": "MARILIA", "LATITUDE": -22.22313, "LONGITUDE": -49.9356733 }, "geometry": { "type": "Point", "coordinates": [ -49.9356733, -22.22313 ] } },
{ "type": "Feature", "properties": { "CNPJ": 22781963000102, "AGENTE": "PAULO_ROGERIO_DE_FREITAS_RAMOS", "ACAO": "REALIZAR_PRIMEIRA_VISITA_POTENCIAL", "RAZAO_SOCIAL": "AMELIA_TOSHIE_OKUDA_TSUDA_16288188832", "ENDERECO": "RUA_ANTONIO_ABDO_90_JARDIM_MARIA_IZABEL_MARILIA_BRASIL", "CIDADE": "MARILIA", "LATITUDE": -22.2234756, "LONGITUDE": -49.9292117 }, "geometry": { "type": "Point", "coordinates": [ -49.9292117, -22.2234756 ] } },
{ "type": "Feature", "properties": { "CNPJ": 45161708000162, "AGENTE": "PAULO_ROGERIO_DE_FREITAS_RAMOS", "ACAO": "REALIZAR_PRIMEIRA_VISITA_POTENCIAL", "RAZAO_SOCIAL": "JOELMA_MARIA_DE_LIMA_26273423806", "ENDERECO": "AVENIDA_PRESIDENTE_TANCREDO_DE_ALMEIDA_NEVES_120_CENTRO_MARILIA_BRASIL", "CIDADE": "MARILIA", "LATITUDE": -22.2235936, "LONGITUDE": -49.9363112 }, "geometry": { "type": "Point", "coordinates": [ -49.9363112, -22.2235936 ] } },
{ "type": "Feature", "properties": { "CNPJ": 6200249000127, "AGENTE": "PAULO_ROGERIO_DE_FREITAS_RAMOS", "ACAO": "REALIZAR_PRIMEIRA_VISITA_POTENCIAL", "RAZAO_SOCIAL": "H&K_LTDA", "ENDERECO": "AVENIDA_DAS_ESMERALDAS_701_JARDIM_TANGARA_MARILIA_BRASIL", "CIDADE": "MARILIA", "LATITUDE": -22.2238774, "LONGITUDE": -49.9338806 }, "geometry": { "type": "Point", "coordinates": [ -49.9338806, -22.2238774 ] } },
{ "type": "Feature", "properties": { "CNPJ": 2977156200011, "AGENTE": "PAULO_ROGERIO_DE_FREITAS_RAMOS", "ACAO": "REALIZAR_PRIMEIRA_VISITA_POTENCIAL", "RAZAO_SOCIAL": "JAPAKITOS_JAPONESE_FOOD_LTDA", "ENDERECO": "RUA_DOUTOR_REINALDO_MACHADO_178_FRAGATA_MARILIA_BRASIL", "CIDADE": "MARILIA", "LATITUDE": -22.226241, "LONGITUDE": -49.9361869 }, "geometry": { "type": "Point", "coordinates": [ -49.9361869, -22.226241 ] } },
{ "type": "Feature", "properties": { "CNPJ": 22811977000121, "AGENTE": "PAULO_ROGERIO_DE_FREITAS_RAMOS", "ACAO": "REALIZAR_PRIMEIRA_VISITA_POTENCIAL", "RAZAO_SOCIAL": "22.811.977_SHEILA_APARECIDA_PEREIRA_DA_SILVA", "ENDERECO": "AVENIDA_FERES_MATTAR_357_FRAGATA_MARILIA_BRASIL", "CIDADE": "MARILIA", "LATITUDE": -22.2263124, "LONGITUDE": -49.9369596 }, "geometry": { "type": "Point", "coordinates": [ -49.9369596, -22.2263124 ] } },
{ "type": "Feature", "properties": { "CNPJ": 77046440001, "AGENTE": "PAULO_ROGERIO_DE_FREITAS_RAMOS", "ACAO": "REALIZAR_PRIMEIRA_VISITA_POTENCIAL", "RAZAO_SOCIAL": "HR_CONSULTORIA_CONTABIL_EMPRESARIAL_LTDA", "ENDERECO": "RUA_PRINCESA_ISABEL_94_BROOKLIN_PAULISTA_SAO_PAULO_BRASIL", "CIDADE": "SAO_PAULO", "LATITUDE": -22.2291362, "LONGITUDE": -49.9177059 }, "geometry": { "type": "Point", "coordinates": [ -49.9177059, -22.2291362 ] } },
{ "type": "Feature", "properties": { "CNPJ": 39475001000128, "AGENTE": "PAULO_ROGERIO_DE_FREITAS_RAMOS", "ACAO": "REALIZAR_PRIMEIRA_VISITA_POTENCIAL", "RAZAO_SOCIAL": "ERMELINDO_SCOLA", "ENDERECO": "RUA_MEXICO_460A_JARDIM_ESPLANADA_MARILIA_BRASIL", "CIDADE": "MARILIA", "LATITUDE": -22.2336894, "LONGITUDE": -49.9201437 }, "geometry": { "type": "Point", "coordinates": [ -49.9201437, -22.2336894 ] } },
{ "type": "Feature", "properties": { "CNPJ": 2619825200016, "AGENTE": "PAULO_ROGERIO_DE_FREITAS_RAMOS", "ACAO": "REALIZAR_PRIMEIRA_VISITA_POTENCIAL", "RAZAO_SOCIAL": "WELLINGTON_DOS_SANTOS_COSTA_33319122800", "ENDERECO": "AVENIDA_JOQUEI_CLUBE_381_JOQUEI_CLUBE_MARILIA_BRASIL", "CIDADE": "MARILIA", "LATITUDE": -22.2350013, "LONGITUDE": -49.9189087 }, "geometry": { "type": "Point", "coordinates": [ -49.9189087, -22.2350013 ] } },
{ "type": "Feature", "properties": { "CNPJ": 54716165000193, "AGENTE": "PAULO_ROGERIO_DE_FREITAS_RAMOS", "ACAO": "REALIZAR_PRIMEIRA_VISITA_POTENCIAL", "RAZAO_SOCIAL": "54.716.165_YASMIM_FEDOCHENKO_PIASSA", "ENDERECO": "RUA_ANDRE_MORON_40_JARDIM_ESPLANADA_MARILIA_BRASIL", "CIDADE": "MARILIA", "LATITUDE": -22.2351304, "LONGITUDE": -49.9154583 }, "geometry": { "type": "Point", "coordinates": [ -49.9154583, -22.2351304 ] } },
{ "type": "Feature", "properties": { "CNPJ": 24319525000152, "AGENTE": "PAULO_ROGERIO_DE_FREITAS_RAMOS", "ACAO": "REALIZAR_PRIMEIRA_VISITA_POTENCIAL", "RAZAO_SOCIAL": "TATIANE_GOMES_PAULO_DE_LIMA_NOVE_LTDA", "ENDERECO": "RUA_JAPAO_208_JOQUEI_CLUBE_MARILIA_BRASIL", "CIDADE": "MARILIA", "LATITUDE": -22.2353728, "LONGITUDE": -49.917885 }, "geometry": { "type": "Point", "coordinates": [ -49.917885, -22.2353728 ] } },
{ "type": "Feature", "properties": { "CNPJ": 7720759000198, "AGENTE": "PAULO_ROGERIO_DE_FREITAS_RAMOS", "ACAO": "REALIZAR_PRIMEIRA_VISITA_POTENCIAL", "RAZAO_SOCIAL": "REGINA_HELENA_GONCALVES_RIBEIRO", "ENDERECO": "RUA_DOS_OPERARIOS_302_VILA_PARAISO_MOGI_GUACU_BRASIL", "CIDADE": "MOGI_GUACU", "LATITUDE": -22.2353728, "LONGITUDE": -49.917885 }, "geometry": { "type": "Point", "coordinates": [ -49.917885, -22.2353728 ] } },
{ "type": "Feature", "properties": { "CNPJ": 3591086300018, "AGENTE": "PAULO_ROGERIO_DE_FREITAS_RAMOS", "ACAO": "REALIZAR_PRIMEIRA_VISITA_POTENCIAL", "RAZAO_SOCIAL": "LUCAS_BORGES_MARQUES_38769621888", "ENDERECO": "RUA_DARCINO_PAES_DE_OLIVEIRA_269_PROFESSOR_ANTONIO_DA_SILVA_PENTEADO_MARILIA_BRASIL", "CIDADE": "MARILIA", "LATITUDE": -22.2355717, "LONGITUDE": -49.9201211 }, "geometry": { "type": "Point", "coordinates": [ -49.9201211, -22.2355717 ] } },
{ "type": "Feature", "properties": { "CNPJ": 48902731000159, "AGENTE": "PAULO_ROGERIO_DE_FREITAS_RAMOS", "ACAO": "REALIZAR_PRIMEIRA_VISITA_POTENCIAL", "RAZAO_SOCIAL": "48.902.731_ANTONIO_CARLOS_DE_SOUZA", "ENDERECO": "RUA_PANAMA_120_JARDIM_VITORIA_MARILIA_BRASIL", "CIDADE": "MARILIA", "LATITUDE": -22.2357003, "LONGITUDE": -49.9222942 }, "geometry": { "type": "Point", "coordinates": [ -49.9222942, -22.2357003 ] } },
{ "type": "Feature", "properties": { "CNPJ": 20452617000155, "AGENTE": "PAULO_ROGERIO_DE_FREITAS_RAMOS", "ACAO": "REALIZAR_PRIMEIRA_VISITA_POTENCIAL", "RAZAO_SOCIAL": "20.452.617_ANA_PAULA_MARTINS_DA_SILVA", "ENDERECO": "RUA_OSCAR_DUARTE_35_PARQUE_SAO_JORGE_MARILIA_BRASIL", "CIDADE": "MARILIA", "LATITUDE": -22.2369313, "LONGITUDE": -49.9227296 }, "geometry": { "type": "Point", "coordinates": [ -49.9227296, -22.2369313 ] } },
{ "type": "Feature", "properties": { "CNPJ": 32986429000196, "AGENTE": "PAULO_ROGERIO_DE_FREITAS_RAMOS", "ACAO": "REALIZAR_PRIMEIRA_VISITA_POTENCIAL", "RAZAO_SOCIAL": "JOCIMAR_DOS_SANTOS_MAXIMIANO_17367149881", "ENDERECO": "RUA_JOSE_PONTELLI_114_JARDIM_DAMASCO_II_MARILIA_BRASIL", "CIDADE": "MARILIA", "LATITUDE": -22.2373634, "LONGITUDE": -49.9138632 }, "geometry": { "type": "Point", "coordinates": [ -49.9138632, -22.2373634 ] } },
{ "type": "Feature", "properties": { "CNPJ": 38712395000128, "AGENTE": "PAULO_ROGERIO_DE_FREITAS_RAMOS", "ACAO": "REALIZAR_PRIMEIRA_VISITA_POTENCIAL", "RAZAO_SOCIAL": "JAQUELINE_APARECIDA_GIROTTO_RIKIMARU_38148858802", "ENDERECO": "RUA_JOSE_GALETTI_67_PARQUE_SAO_JORGE_MARILIA_BRASIL", "CIDADE": "MARILIA", "LATITUDE": -22.2376731, "LONGITUDE": -49.9239419 }, "geometry": { "type": "Point", "coordinates": [ -49.9239419, -22.2376731 ] } },
{ "type": "Feature", "properties": { "CNPJ": 43429941000158, "AGENTE": "PAULO_ROGERIO_DE_FREITAS_RAMOS", "ACAO": "REALIZAR_PRIMEIRA_VISITA_POTENCIAL", "RAZAO_SOCIAL": "43.429.941_TAMYRIS_APARECIDA_BEGNAMI", "ENDERECO": "RUA_CELCINO_ATTILIO_04_JARDIM_VERONA_MARILIA_BRASIL", "CIDADE": "MARILIA", "LATITUDE": -22.2378463, "LONGITUDE": -49.9203631 }, "geometry": { "type": "Point", "coordinates": [ -49.9203631, -22.2378463 ] } },
{ "type": "Feature", "properties": { "CNPJ": 30977637000101, "AGENTE": "PAULO_ROGERIO_DE_FREITAS_RAMOS", "ACAO": "REALIZAR_PRIMEIRA_VISITA_POTENCIAL", "RAZAO_SOCIAL": "30.977.637_ANA_LUCIA_SCALEAO_MASTINI", "ENDERECO": "RUA_PIO_X_459_JARDIM_VITORIA_MARILIA_BRASIL", "CIDADE": "MARILIA", "LATITUDE": -22.2379709, "LONGITUDE": -49.922609 }, "geometry": { "type": "Point", "coordinates": [ -49.922609, -22.2379709 ] } },
{ "type": "Feature", "properties": { "CNPJ": 37257559000101, "AGENTE": "PAULO_ROGERIO_DE_FREITAS_RAMOS", "ACAO": "REALIZAR_PRIMEIRA_VISITA_POTENCIAL", "RAZAO_SOCIAL": "37.257.559_JAQUELINE_TIOSSO_DA_CRUZ", "ENDERECO": "RUA_GUILHERME_SCHEFFER_NETTO_484_JARDIM_ESPLANADA_MARILIA_BRASIL", "CIDADE": "MARILIA", "LATITUDE": -22.2388477, "LONGITUDE": -49.9124034 }, "geometry": { "type": "Point", "coordinates": [ -49.9124034, -22.2388477 ] } },
{ "type": "Feature", "properties": { "CNPJ": 39146079000107, "AGENTE": "PAULO_ROGERIO_DE_FREITAS_RAMOS", "ACAO": "REALIZAR_PRIMEIRA_VISITA_POTENCIAL", "RAZAO_SOCIAL": "PETERSON_DE_SOUZA_RIBEIRO_33746360803", "ENDERECO": "RUA_JOAO_DE_FREITAS_CAYRES_227_HIPICA_PAULISTA_MARILIA_BRASIL", "CIDADE": "MARILIA", "LATITUDE": -22.2427971, "LONGITUDE": -49.9234954 }, "geometry": { "type": "Point", "coordinates": [ -49.9234954, -22.2427971 ] } },
{ "type": "Feature", "properties": { "CNPJ": 349212090001, "AGENTE": "PAULO_ROGERIO_DE_FREITAS_RAMOS", "ACAO": "REALIZAR_PRIMEIRA_VISITA_POTENCIAL", "RAZAO_SOCIAL": "ENGETRIZ_ENGENHARIA_DE_FUNDACOES_LTDA", "ENDERECO": "RUA_VICENTE_RITA_DO_NASCIMENTO_61_VILA_OPERARIA_ALIMENTACAO_II_MARILIA_BRASIL", "CIDADE": "MARILIA", "LATITUDE": -22.2453896, "LONGITUDE": -49.915397 }, "geometry": { "type": "Point", "coordinates": [ -49.915397, -22.2453896 ] } },
{ "type": "Feature", "properties": { "CNPJ": 35487938000162, "AGENTE": "PAULO_ROGERIO_DE_FREITAS_RAMOS", "ACAO": "REALIZAR_PRIMEIRA_VISITA_POTENCIAL", "RAZAO_SOCIAL": "35.487.938_ISRAEL_PEREIRA_DOMINGOS_DA_CRUZ", "ENDERECO": "RUA_TACITO_DE_CAMARGO_BICUDO_150_CONJUNTO_HABITACIONAL_MONSENHOR_JOAO_BATISTA_TOFFO_MARILIA_BRASIL", "CIDADE": "MARILIA", "LATITUDE": -22.2466791, "LONGITUDE": -49.9411455 }, "geometry": { "type": "Point", "coordinates": [ -49.9411455, -22.2466791 ] } },
{ "type": "Feature", "properties": { "CNPJ": 2345373600011, "AGENTE": "PAULO_ROGERIO_DE_FREITAS_RAMOS", "ACAO": "REALIZAR_PRIMEIRA_VISITA_POTENCIAL", "RAZAO_SOCIAL": "MATEUS_LELES_DA_SILVA", "ENDERECO": "AVENIDA_DAS_ESMERALDAS_821_JARDIM_TANGARA_MARILIA_BRASIL", "CIDADE": "MARILIA", "LATITUDE": -22.2468035, "LONGITUDE": -49.9326752 }, "geometry": { "type": "Point", "coordinates": [ -49.9326752, -22.2468035 ] } },
{ "type": "Feature", "properties": { "CNPJ": 33443695000135, "AGENTE": "PAULO_ROGERIO_DE_FREITAS_RAMOS", "ACAO": "REALIZAR_PRIMEIRA_VISITA_POTENCIAL", "RAZAO_SOCIAL": "33.443.695_DORIVAL_JOSE_DA_SILVA", "ENDERECO": "AVENIDA_MARTIM_AFONSO_87_JARDIM_MONTE_CASTELO_MARILIA_BRASIL", "CIDADE": "MARILIA", "LATITUDE": -22.2468035, "LONGITUDE": -49.9326752 }, "geometry": { "type": "Point", "coordinates": [ -49.9326752, -22.2468035 ] } },
{ "type": "Feature", "properties": { "CNPJ": 58745184000107, "AGENTE": "PAULO_ROGERIO_DE_FREITAS_RAMOS", "ACAO": "REALIZAR_PRIMEIRA_VISITA_POTENCIAL", "RAZAO_SOCIAL": "58.745.184_JAQUELINE_MERLIM_SAMUEL", "ENDERECO": "AVENIDA_MARTIM_AFONSO_87_JARDIM_MONTE_CASTELO_MARILIA_BRASIL", "CIDADE": "MARILIA", "LATITUDE": -22.2468035, "LONGITUDE": -49.9326752 }, "geometry": { "type": "Point", "coordinates": [ -49.9326752, -22.2468035 ] } },
{ "type": "Feature", "properties": { "CNPJ": 36467242000137, "AGENTE": "PAULO_ROGERIO_DE_FREITAS_RAMOS", "ACAO": "REALIZAR_PRIMEIRA_VISITA_POTENCIAL", "RAZAO_SOCIAL": "FABIANO_LUIS_RODRIGUES_DE_GOIS_26009476801", "ENDERECO": "RUA_CLOTILDE_CALABRESI_MAGALHAES_343_JARDIM_CONTINENTAL_MARILIA_BRASIL", "CIDADE": "MARILIA", "LATITUDE": -22.247425, "LONGITUDE": -49.931230499999899 }, "geometry": { "type": "Point", "coordinates": [ -49.931230499999899, -22.247425 ] } },
{ "type": "Feature", "properties": { "CNPJ": 23486314000141, "AGENTE": "PAULO_ROGERIO_DE_FREITAS_RAMOS", "ACAO": "REALIZAR_PRIMEIRA_VISITA_POTENCIAL", "RAZAO_SOCIAL": "23.486.314_CLAUDECIR_DIAS_DA_ROCHA", "ENDERECO": "AVENIDA_JOAO_RAMALHO_2247_NUCLEO_HABITACIONAL_NOVA_MARILIA_MARILIA_BRASIL", "CIDADE": "MARILIA", "LATITUDE": -22.24744, "LONGITUDE": -49.930875 }, "geometry": { "type": "Point", "coordinates": [ -49.930875, -22.24744 ] } },
{ "type": "Feature", "properties": { "CNPJ": 8009936000195, "AGENTE": "PAULO_ROGERIO_DE_FREITAS_RAMOS", "ACAO": "REALIZAR_PRIMEIRA_VISITA_POTENCIAL", "RAZAO_SOCIAL": "PET_SHOP_DOG_CHARME_LTDA", "ENDERECO": "AVENIDA_JOAO_RAMALHO_2307_NUCLEO_HABITACIONAL_NOVA_MARILIA_MARILIA_BRASIL", "CIDADE": "MARILIA", "LATITUDE": -22.2480222, "LONGITUDE": -49.9312843 }, "geometry": { "type": "Point", "coordinates": [ -49.9312843, -22.2480222 ] } },
{ "type": "Feature", "properties": { "CNPJ": 50567000000146, "AGENTE": "PAULO_ROGERIO_DE_FREITAS_RAMOS", "ACAO": "REALIZAR_PRIMEIRA_VISITA_POTENCIAL", "RAZAO_SOCIAL": "50.567.000_CASSIO_AUGUSTO_LIMA_DE_SANTANA", "ENDERECO": "RUA_ANTONIO_MARCONATTO_99_NUCLEO_HABITACIONAL_NOVA_MARILIA_MARILIA_BRASIL", "CIDADE": "MARILIA", "LATITUDE": -22.2498612, "LONGITUDE": -49.92795 }, "geometry": { "type": "Point", "coordinates": [ -49.92795, -22.2498612 ] } },
{ "type": "Feature", "properties": { "CNPJ": 20325389000152, "AGENTE": "PAULO_ROGERIO_DE_FREITAS_RAMOS", "ACAO": "REALIZAR_PRIMEIRA_VISITA_POTENCIAL", "RAZAO_SOCIAL": "MARIA_LEOPOLDINA_PEREIRA_05324638897", "ENDERECO": "RUA_ITOROROS_228_JARDIM_MONTE_CASTELO_MARILIA_BRASIL", "CIDADE": "MARILIA", "LATITUDE": -22.2498788, "LONGITUDE": -49.9349378 }, "geometry": { "type": "Point", "coordinates": [ -49.9349378, -22.2498788 ] } },
{ "type": "Feature", "properties": { "CNPJ": 45277145000172, "AGENTE": "PAULO_ROGERIO_DE_FREITAS_RAMOS", "ACAO": "REALIZAR_PRIMEIRA_VISITA_POTENCIAL", "RAZAO_SOCIAL": "ROSI_SOARES_DOS_SANTOS_DE_SOUZA_34161292880", "ENDERECO": "RUA_CLAUDIONOR_SANTOS_311_JARDIM_SANTA_PAULA_MARILIA_BRASIL", "CIDADE": "MARILIA", "LATITUDE": -22.2508677, "LONGITUDE": -49.9170353 }, "geometry": { "type": "Point", "coordinates": [ -49.9170353, -22.2508677 ] } },
{ "type": "Feature", "properties": { "CNPJ": 28571028000106, "AGENTE": "PAULO_ROGERIO_DE_FREITAS_RAMOS", "ACAO": "REALIZAR_PRIMEIRA_VISITA_POTENCIAL", "RAZAO_SOCIAL": "MARCELO_RIBEIRO_DA_SILVA_30783791836", "ENDERECO": "RUA_NILO_CONCEICAO_CABRAL_52_NUCLEO_HABITACIONAL_NOVA_MARILIA_MARILIA_BRASIL", "CIDADE": "MARILIA", "LATITUDE": -22.2509997, "LONGITUDE": -49.9224732 }, "geometry": { "type": "Point", "coordinates": [ -49.9224732, -22.2509997 ] } },
{ "type": "Feature", "properties": { "CNPJ": 5312759000123, "AGENTE": "PAULO_ROGERIO_DE_FREITAS_RAMOS", "ACAO": "REALIZAR_PRIMEIRA_VISITA_POTENCIAL", "RAZAO_SOCIAL": "ALAN_BENTO_DOS_SANTOS_REFRIGERACAO", "ENDERECO": "RUA_ANGELO_TREVELLIN_416_JARDIM_PLANALTO_MARILIA_BRASIL", "CIDADE": "MARILIA", "LATITUDE": -22.2513532, "LONGITUDE": -49.9387177 }, "geometry": { "type": "Point", "coordinates": [ -49.9387177, -22.2513532 ] } },
{ "type": "Feature", "properties": { "CNPJ": 61294864000158, "AGENTE": "PAULO_ROGERIO_DE_FREITAS_RAMOS", "ACAO": "REALIZAR_PRIMEIRA_VISITA_POTENCIAL", "RAZAO_SOCIAL": "AYRES_&_AYRES_LTDA", "ENDERECO": "RUA_SEVERINO_ZAMBON_453_NOVA_MARILIA_MARILIA_BRASIL", "CIDADE": "MARILIA", "LATITUDE": -22.2518007, "LONGITUDE": -49.9310233 }, "geometry": { "type": "Point", "coordinates": [ -49.9310233, -22.2518007 ] } },
{ "type": "Feature", "properties": { "CNPJ": 35518888000133, "AGENTE": "PAULO_ROGERIO_DE_FREITAS_RAMOS", "ACAO": "REALIZAR_PRIMEIRA_VISITA_POTENCIAL", "RAZAO_SOCIAL": "35.518.888_KAREN_CRISTINA_PEREIRA_DE_TOLEDO", "ENDERECO": "AVENIDA_FREDIANO_GIOMETTI_145A_JARDIM_TEOTONIO_VILELA_MARILIA_BRASIL", "CIDADE": "MARILIA", "LATITUDE": -22.2542169, "LONGITUDE": -49.9411801 }, "geometry": { "type": "Point", "coordinates": [ -49.9411801, -22.2542169 ] } },
{ "type": "Feature", "properties": { "CNPJ": 33838447000193, "AGENTE": "PAULO_ROGERIO_DE_FREITAS_RAMOS", "ACAO": "REALIZAR_PRIMEIRA_VISITA_POTENCIAL", "RAZAO_SOCIAL": "33.838.447_LUIZ_SIMONATO_ALEXANDRONI", "ENDERECO": "RUA_JAYME_MONTEIRO_259_NUCLEO_HABITACIONAL_NOVA_MARILIA_MARILIA_BRASIL", "CIDADE": "MARILIA", "LATITUDE": -22.2552009, "LONGITUDE": -49.9285806 }, "geometry": { "type": "Point", "coordinates": [ -49.9285806, -22.2552009 ] } },
{ "type": "Feature", "properties": { "CNPJ": 55777331000124, "AGENTE": "PAULO_ROGERIO_DE_FREITAS_RAMOS", "ACAO": "REALIZAR_PRIMEIRA_VISITA_POTENCIAL", "RAZAO_SOCIAL": "55.777.331_ALEXANDRE_DOMINGUES_FREIRE", "ENDERECO": "RUA_JAYME_MONTEIRO_282_NUCLEO_HABITACIONAL_NOVA_MARILIA_MARILIA_BRASIL", "CIDADE": "MARILIA", "LATITUDE": -22.2554021, "LONGITUDE": -49.9282503 }, "geometry": { "type": "Point", "coordinates": [ -49.9282503, -22.2554021 ] } },
{ "type": "Feature", "properties": { "CNPJ": 44696171000172, "AGENTE": "PAULO_ROGERIO_DE_FREITAS_RAMOS", "ACAO": "REALIZAR_PRIMEIRA_VISITA_POTENCIAL", "RAZAO_SOCIAL": "LUCAS_ZINETTI_DA_SILVA", "ENDERECO": "RUA_VITORIO_TOSIN_220_JARDIM_NACIONAL_MARILIA_BRASIL", "CIDADE": "MARILIA", "LATITUDE": -22.2558403, "LONGITUDE": -49.9351387 }, "geometry": { "type": "Point", "coordinates": [ -49.9351387, -22.2558403 ] } },
{ "type": "Feature", "properties": { "CNPJ": 2712809300019, "AGENTE": "PAULO_ROGERIO_DE_FREITAS_RAMOS", "ACAO": "REALIZAR_PRIMEIRA_VISITA_POTENCIAL", "RAZAO_SOCIAL": "SEBASTIAO_FELIX_DA_SILVA_13820359850", "ENDERECO": "RUA_JOSE_RODRIGUES_PINAR_156_JARDIM_NACIONAL_MARILIA_BRASIL", "CIDADE": "MARILIA", "LATITUDE": -22.2566022, "LONGITUDE": -49.9328335 }, "geometry": { "type": "Point", "coordinates": [ -49.9328335, -22.2566022 ] } },
{ "type": "Feature", "properties": { "CNPJ": 13578586000118, "AGENTE": "PAULO_ROGERIO_DE_FREITAS_RAMOS", "ACAO": "REALIZAR_PRIMEIRA_VISITA_POTENCIAL", "RAZAO_SOCIAL": "13.578.586_ROSANGELA_TOLENTINO_VARGAS", "ENDERECO": "RUA_FERDINANDO_MARCONATO_225_JARDIM_DOMINGOS_DE_LEO_MARILIA_BRASIL", "CIDADE": "MARILIA", "LATITUDE": -22.257567, "LONGITUDE": -49.923354 }, "geometry": { "type": "Point", "coordinates": [ -49.923354, -22.257567 ] } },
{ "type": "Feature", "properties": { "CNPJ": 46121904000176, "AGENTE": "PAULO_ROGERIO_DE_FREITAS_RAMOS", "ACAO": "REALIZAR_PRIMEIRA_VISITA_POTENCIAL", "RAZAO_SOCIAL": "46.121.904_MARIA_APARECIDA_DE_LIMA", "ENDERECO": "RUA_DOMINGOS_BASTA_254_NUCLEO_HABITACIONAL_NOVA_MARILIA_MARILIA_BRASIL", "CIDADE": "MARILIA", "LATITUDE": -22.2576861, "LONGITUDE": -49.9267691 }, "geometry": { "type": "Point", "coordinates": [ -49.9267691, -22.2576861 ] } },
{ "type": "Feature", "properties": { "CNPJ": 3648575500017, "AGENTE": "PAULO_ROGERIO_DE_FREITAS_RAMOS", "ACAO": "REALIZAR_PRIMEIRA_VISITA_POTENCIAL", "RAZAO_SOCIAL": "CRISTIANE_BILAR_RELVAS_DE_ALMEIDA_41429335823", "ENDERECO": "RUA_ROMILDO_MARCONATTO_760_JARDIM_SANTA_CLARA_MARILIA_BRASIL", "CIDADE": "MARILIA", "LATITUDE": -22.2581541, "LONGITUDE": -49.9370114 }, "geometry": { "type": "Point", "coordinates": [ -49.9370114, -22.2581541 ] } },
{ "type": "Feature", "properties": { "CNPJ": 53080993000115, "AGENTE": "PAULO_ROGERIO_DE_FREITAS_RAMOS", "ACAO": "REALIZAR_PRIMEIRA_VISITA_POTENCIAL", "RAZAO_SOCIAL": "53.080.993_GUSTAVO_HENRIQUE_GUEDES_RODRIGUES", "ENDERECO": "RUA_TENENTE_DORACI_MARQUES_668_JARDIM_DOMINGOS_DE_LEO_MARILIA_BRASIL", "CIDADE": "MARILIA", "LATITUDE": -22.258675, "LONGITUDE": -49.9366685 }, "geometry": { "type": "Point", "coordinates": [ -49.9366685, -22.258675 ] } },
{ "type": "Feature", "properties": { "CNPJ": 44271546000152, "AGENTE": "PAULO_ROGERIO_DE_FREITAS_RAMOS", "ACAO": "REALIZAR_PRIMEIRA_VISITA_POTENCIAL", "RAZAO_SOCIAL": "44.271.546_LUCIA_HELENA_LOPES_DA_SILVA_JULIANI", "ENDERECO": "RUA_TENENTE_DORACI_MARQUES_684_JARDIM_DOMINGOS_DE_LEO_MARILIA_BRASIL", "CIDADE": "MARILIA", "LATITUDE": -22.2587495, "LONGITUDE": -49.9368751 }, "geometry": { "type": "Point", "coordinates": [ -49.9368751, -22.2587495 ] } },
{ "type": "Feature", "properties": { "CNPJ": 56202887000155, "AGENTE": "PAULO_ROGERIO_DE_FREITAS_RAMOS", "ACAO": "REALIZAR_PRIMEIRA_VISITA_POTENCIAL", "RAZAO_SOCIAL": "RICARDO_PAULINO_DE_LIRA", "ENDERECO": "RUA_ABRAHAO_GATTAS_08_PROFESSOR_ANTONIO_DA_SILVA_PENTEADO_MARILIA_BRASIL", "CIDADE": "MARILIA", "LATITUDE": -22.2588941, "LONGITUDE": -49.937098 }, "geometry": { "type": "Point", "coordinates": [ -49.937098, -22.2588941 ] } },
{ "type": "Feature", "properties": { "CNPJ": 29887348000124, "AGENTE": "PAULO_ROGERIO_DE_FREITAS_RAMOS", "ACAO": "REALIZAR_PRIMEIRA_VISITA_POTENCIAL", "RAZAO_SOCIAL": "LUCIANO_DEMORI_28393340896", "ENDERECO": "RUA_TENENTE_DORACI_MARQUES_536_JARDIM_DOMINGOS_DE_LEO_MARILIA_BRASIL", "CIDADE": "MARILIA", "LATITUDE": -22.2589391, "LONGITUDE": -49.9353052 }, "geometry": { "type": "Point", "coordinates": [ -49.9353052, -22.2589391 ] } },
{ "type": "Feature", "properties": { "CNPJ": 17633844000172, "AGENTE": "PAULO_ROGERIO_DE_FREITAS_RAMOS", "ACAO": "REALIZAR_PRIMEIRA_VISITA_POTENCIAL", "RAZAO_SOCIAL": "17.633.844_ELLEN_TATIANA_DE_OLIVEIRA_DE_MORAES_BRITO", "ENDERECO": "RUA_GALDINO_ZAROS_371_JARDIM_DOMINGOS_DE_LEO_MARILIA_BRASIL", "CIDADE": "MARILIA", "LATITUDE": -22.2593607, "LONGITUDE": -49.9330746 }, "geometry": { "type": "Point", "coordinates": [ -49.9330746, -22.2593607 ] } },
{ "type": "Feature", "properties": { "CNPJ": 27353587000179, "AGENTE": "PAULO_ROGERIO_DE_FREITAS_RAMOS", "ACAO": "REALIZAR_PRIMEIRA_VISITA_POTENCIAL", "RAZAO_SOCIAL": "JOAQUIM_CARMELO_DOS_SANTOS_PEREIRA_25283195848", "ENDERECO": "RUA_MARIO_BATAIOLA_371_CONJUNTO_HABITACIONAL_PAULO_LUCIO_NOGUEIRA_MARILIA_BRASIL", "CIDADE": "MARILIA", "LATITUDE": -22.2611407, "LONGITUDE": -49.92743979 }, "geometry": { "type": "Point", "coordinates": [ -49.92743979, -22.2611407 ] } },
{ "type": "Feature", "properties": { "CNPJ": 57755986000127, "AGENTE": "PAULO_ROGERIO_DE_FREITAS_RAMOS", "ACAO": "REALIZAR_PRIMEIRA_VISITA_POTENCIAL", "RAZAO_SOCIAL": "57.755.986_ALINE_ROSA_DA_SILVA_PRATA_DE_OLIVEIRA", "ENDERECO": "RUA_IONEU_CARVALHO_DOMINGOS_000_PAULO_CORREA_DE_LARA_MARILIA_BRASIL", "CIDADE": "MARILIA", "LATITUDE": -22.2615588, "LONGITUDE": -49.923725 }, "geometry": { "type": "Point", "coordinates": [ -49.923725, -22.2615588 ] } },
{ "type": "Feature", "properties": { "CNPJ": 28274878000134, "AGENTE": "PAULO_ROGERIO_DE_FREITAS_RAMOS", "ACAO": "REALIZAR_PRIMEIRA_VISITA_POTENCIAL", "RAZAO_SOCIAL": "JAILSON_LEO_19855889860", "ENDERECO": "RUA_MARIO_BATAIOLA_501_CONJUNTO_HABITACIONAL_PAULO_LUCIO_NOGUEIRA_MARILIA_BRASIL", "CIDADE": "MARILIA", "LATITUDE": -22.2624418, "LONGITUDE": -49.9269417 }, "geometry": { "type": "Point", "coordinates": [ -49.9269417, -22.2624418 ] } },
{ "type": "Feature", "properties": { "CNPJ": 11007686000169, "AGENTE": "PAULO_ROGERIO_DE_FREITAS_RAMOS", "ACAO": "REALIZAR_PRIMEIRA_VISITA_POTENCIAL", "RAZAO_SOCIAL": "GOBECHE_INDUSTRIA_E_COMERCIO_DE_CHOCOLATES_LTDA", "ENDERECO": "RODOVIA_PLACIDO_LORENZETTI_0_ZONA_RURAL_SANTA_CRUZ_DO_RIO_PARDO_BRASIL", "CIDADE": "SANTA_CRUZ_DO_RIO_PARDO", "LATITUDE": -22.8800937, "LONGITUDE": -49.6510611 }, "geometry": { "type": "Point", "coordinates": [ -49.6510611, -22.8800937 ] } },
{ "type": "Feature", "properties": { "CNPJ": 2828152700015, "AGENTE": "PAULO_ROGERIO_DE_FREITAS_RAMOS", "ACAO": "REALIZAR_PRIMEIRA_VISITA_POTENCIAL", "RAZAO_SOCIAL": "JOSE_ISIDORO_BORGES_YANAGUIZAWA", "ENDERECO": "RUA_BALTAZAR_ORTEGA_GARCIA_-_DE_500/501_A_698/699_105_BOSQUE_LORENZETTI_SANTA_CRUZ_DO_RIO_PARDO_BRASIL", "CIDADE": "SANTA_CRUZ_DO_RIO_PARDO", "LATITUDE": -22.886584, "LONGITUDE": -49.6477135 }, "geometry": { "type": "Point", "coordinates": [ -49.6477135, -22.886584 ] } },
{ "type": "Feature", "properties": { "CNPJ": 26184746000196, "AGENTE": "PAULO_ROGERIO_DE_FREITAS_RAMOS", "ACAO": "REALIZAR_PRIMEIRA_VISITA_POTENCIAL", "RAZAO_SOCIAL": "AGRO_FERDIN_LTDA", "ENDERECO": "AVENIDA_DOUTOR_PEDRO_CAMARINHA_1050_VILA_SAUL_SANTA_CRUZ_DO_RIO_PARDO_BRASIL", "CIDADE": "SANTA_CRUZ_DO_RIO_PARDO", "LATITUDE": -22.8926117, "LONGITUDE": -49.6379733 }, "geometry": { "type": "Point", "coordinates": [ -49.6379733, -22.8926117 ] } },
{ "type": "Feature", "properties": { "CNPJ": 30349783000184, "AGENTE": "PAULO_ROGERIO_DE_FREITAS_RAMOS", "ACAO": "REALIZAR_PRIMEIRA_VISITA_POTENCIAL", "RAZAO_SOCIAL": "MARCUS_VINICIUS_RODRIGUES_PIMENTEL", "ENDERECO": "RUA_CONSELHEIRO_SARAIVA_647_CENTRO_SANTA_CRUZ_DO_RIO_PARDO_BRASIL", "CIDADE": "SANTA_CRUZ_DO_RIO_PARDO", "LATITUDE": -22.8976713, "LONGITUDE": -49.6255534 }, "geometry": { "type": "Point", "coordinates": [ -49.6255534, -22.8976713 ] } },
{ "type": "Feature", "properties": { "CNPJ": 21260709000104, "AGENTE": "PAULO_ROGERIO_DE_FREITAS_RAMOS", "ACAO": "REALIZAR_PRIMEIRA_VISITA_POTENCIAL", "RAZAO_SOCIAL": "CARLOS_ROBERTO_GOMES", "ENDERECO": "RUA_FABRICIO_GONCALVES_RODRIGUES_1525_JARDIM_SANT'ANNA_II_SANTA_CRUZ_DO_RIO_PARDO_BRASIL", "CIDADE": "SANTA_CRUZ_DO_RIO_PARDO", "LATITUDE": -22.898748, "LONGITUDE": -49.635853 }, "geometry": { "type": "Point", "coordinates": [ -49.635853, -22.898748 ] } },
{ "type": "Feature", "properties": { "CNPJ": 47579818000174, "AGENTE": "PAULO_ROGERIO_DE_FREITAS_RAMOS", "ACAO": "REALIZAR_PRIMEIRA_VISITA_POTENCIAL", "RAZAO_SOCIAL": "ARMARINHOS_3_PATETAS_LTDA", "ENDERECO": "RUA_EUCLIDES_DA_CUNHA_553_CENTRO_SANTA_CRUZ_DO_RIO_PARDO_BRASIL", "CIDADE": "SANTA_CRUZ_DO_RIO_PARDO", "LATITUDE": -22.898916, "LONGITUDE": -49.62633 }, "geometry": { "type": "Point", "coordinates": [ -49.62633, -22.898916 ] } },
{ "type": "Feature", "properties": { "CNPJ": 3449908600016, "AGENTE": "PAULO_ROGERIO_DE_FREITAS_RAMOS", "ACAO": "REALIZAR_PRIMEIRA_VISITA_POTENCIAL", "RAZAO_SOCIAL": "ORALCLINIQUE_ODONTOLOGIA_LTDA", "ENDERECO": "RUA_QUINTINO_BOCAIUVA_594_CENTRO_SANTA_CRUZ_DO_RIO_PARDO_BRASIL", "CIDADE": "SANTA_CRUZ_DO_RIO_PARDO", "LATITUDE": -22.899557, "LONGITUDE": -49.6252315 }, "geometry": { "type": "Point", "coordinates": [ -49.6252315, -22.899557 ] } },
{ "type": "Feature", "properties": { "CNPJ": 27129603000144, "AGENTE": "PAULO_ROGERIO_DE_FREITAS_RAMOS", "ACAO": "REALIZAR_PRIMEIRA_VISITA_POTENCIAL", "RAZAO_SOCIAL": "GELLA_COMERCIO_DE_SORVETES_LTDA", "ENDERECO": "RUA_MARECHAL_BITENCOURT_768_CENTRO_SANTA_CRUZ_DO_RIO_PARDO_BRASIL", "CIDADE": "SANTA_CRUZ_DO_RIO_PARDO", "LATITUDE": -22.9004511, "LONGITUDE": -49.6293912 }, "geometry": { "type": "Point", "coordinates": [ -49.6293912, -22.9004511 ] } },
{ "type": "Feature", "properties": { "CNPJ": 46173498000195, "AGENTE": "PAULO_ROGERIO_DE_FREITAS_RAMOS", "ACAO": "REALIZAR_PRIMEIRA_VISITA_POTENCIAL", "RAZAO_SOCIAL": "BAR_E_SORVETERIA_SANTA_CRUZ_LTDA", "ENDERECO": "RUA_CONSELHEIRO_DANTAS_675_CENTRO_SANTA_CRUZ_DO_RIO_PARDO_BRASIL", "CIDADE": "SANTA_CRUZ_DO_RIO_PARDO", "LATITUDE": -22.9022108, "LONGITUDE": -49.6292275 }, "geometry": { "type": "Point", "coordinates": [ -49.6292275, -22.9022108 ] } },
{ "type": "Feature", "properties": { "CNPJ": 40104841000163, "AGENTE": "PAULO_ROGERIO_DE_FREITAS_RAMOS", "ACAO": "REALIZAR_PRIMEIRA_VISITA_POTENCIAL", "RAZAO_SOCIAL": "CAROLINE_ALVES_SALES_SAO_MIGUEL", "ENDERECO": "TRAVESSA_ANTONIO_GASPARINI_430_VILA_FABIANO_SANTA_CRUZ_DO_RIO_PARDO_BRASIL", "CIDADE": "SANTA_CRUZ_DO_RIO_PARDO", "LATITUDE": -22.9034728, "LONGITUDE": -49.6329611 }, "geometry": { "type": "Point", "coordinates": [ -49.6329611, -22.9034728 ] } },
{ "type": "Feature", "properties": { "CNPJ": 31288618000122, "AGENTE": "PAULO_ROGERIO_DE_FREITAS_RAMOS", "ACAO": "REALIZAR_PRIMEIRA_VISITA_POTENCIAL", "RAZAO_SOCIAL": "LUCIANA_CRISTINA_DE_DEUS", "ENDERECO": "RUA_CONSELHEIRO_DANTAS_596_CENTRO_SANTA_CRUZ_DO_RIO_PARDO_BRASIL", "CIDADE": "SANTA_CRUZ_DO_RIO_PARDO", "LATITUDE": -22.9038069, "LONGITUDE": -49.6279706 }, "geometry": { "type": "Point", "coordinates": [ -49.6279706, -22.9038069 ] } },
{ "type": "Feature", "properties": { "CNPJ": 9323138000104, "AGENTE": "PAULO_ROGERIO_DE_FREITAS_RAMOS", "ACAO": "REALIZAR_PRIMEIRA_VISITA_POTENCIAL", "RAZAO_SOCIAL": "THAIS_BOTINI_GUENKA_PAULINO_TAVARES", "ENDERECO": "PRACA_DEP_LEONIDAS_CAMARINHA_64_CENTRO_SANTA_CRUZ_DO_RIO_PARDO_BRASIL", "CIDADE": "SANTA_CRUZ_DO_RIO_PARDO", "LATITUDE": -22.906473, "LONGITUDE": -49.6269833 }, "geometry": { "type": "Point", "coordinates": [ -49.6269833, -22.906473 ] } },
{ "type": "Feature", "properties": { "CNPJ": 12234386000185, "AGENTE": "PAULO_ROGERIO_DE_FREITAS_RAMOS", "ACAO": "REALIZAR_PRIMEIRA_VISITA_POTENCIAL", "RAZAO_SOCIAL": "BUSCARINI_SUPRIMENTOS_DE_INFORMATICA_LTDA", "ENDERECO": "RUA_CATARINA_ETSUCO_UMEZU_171_CENTRO_SANTA_CRUZ_DO_RIO_PARDO_BRASIL", "CIDADE": "SANTA_CRUZ_DO_RIO_PARDO", "LATITUDE": -22.9067448, "LONGITUDE": -49.6264656 }, "geometry": { "type": "Point", "coordinates": [ -49.6264656, -22.9067448 ] } },
{ "type": "Feature", "properties": { "CNPJ": 65874653000145, "AGENTE": "PAULO_ROGERIO_DE_FREITAS_RAMOS", "ACAO": "REALIZAR_PRIMEIRA_VISITA_POTENCIAL", "RAZAO_SOCIAL": "M_D_C_LOCALI_GOMES_ME", "ENDERECO": "RUA_FARMACEUTICO_ALZIRO_DE_SOUZA_SANTOS_245_CENTRO_SANTA_CRUZ_DO_RIO_PARDO_BRASIL", "CIDADE": "SANTA_CRUZ_DO_RIO_PARDO", "LATITUDE": -22.9073041, "LONGITUDE": -49.6272906 }, "geometry": { "type": "Point", "coordinates": [ -49.6272906, -22.9073041 ] } },
{ "type": "Feature", "properties": { "CNPJ": 483034480001, "AGENTE": "PAULO_ROGERIO_DE_FREITAS_RAMOS", "ACAO": "REALIZAR_PRIMEIRA_VISITA_POTENCIAL", "RAZAO_SOCIAL": "ANTONIO_CARLOS_DOS_SANTOS", "ENDERECO": "RUA_DOUTOR_ANTONIO_PRADO_622_VILA_RECREIO_OURINHOS_BRASIL", "CIDADE": "OURINHOS", "LATITUDE": -22.9659571, "LONGITUDE": -49.8686642 }, "geometry": { "type": "Point", "coordinates": [ -49.8686642, -22.9659571 ] } },
{ "type": "Feature", "properties": { "CNPJ": 42399486000122, "AGENTE": "PAULO_ROGERIO_DE_FREITAS_RAMOS", "ACAO": "REALIZAR_PRIMEIRA_VISITA_POTENCIAL", "RAZAO_SOCIAL": "KAREN_SUELEN_TIRONI_SABINO", "ENDERECO": "RUA_MANOEL_VIEIRA_JUNIOR_611_JARDIM_EUROPA_OURINHOS_BRASIL", "CIDADE": "OURINHOS", "LATITUDE": -22.9676477, "LONGITUDE": -49.8606463 }, "geometry": { "type": "Point", "coordinates": [ -49.8606463, -22.9676477 ] } },
{ "type": "Feature", "properties": { "CNPJ": 43119065000163, "AGENTE": "PAULO_ROGERIO_DE_FREITAS_RAMOS", "ACAO": "REALIZAR_PRIMEIRA_VISITA_POTENCIAL", "RAZAO_SOCIAL": "RICARDO_MARTINS_RODRIGUES", "ENDERECO": "RUA_FLORIANO_PEIXOTO_329_VILA_PERINO_OURINHOS_BRASIL", "CIDADE": "RIBEIRAO_DO_SUL", "LATITUDE": -22.9691175, "LONGITUDE": -49.8672637 }, "geometry": { "type": "Point", "coordinates": [ -49.8672637, -22.9691175 ] } },
{ "type": "Feature", "properties": { "CNPJ": 16855791000171, "AGENTE": "PAULO_ROGERIO_DE_FREITAS_RAMOS", "ACAO": "REALIZAR_PRIMEIRA_VISITA_POTENCIAL", "RAZAO_SOCIAL": "ANDRE_LUIZ_MARQUES", "ENDERECO": "RUA_FLORIANO_PEIXOTO_339_VILA_PERINO_OURINHOS_BRASIL", "CIDADE": "OURINHOS", "LATITUDE": -22.9691503, "LONGITUDE": -49.8671547 }, "geometry": { "type": "Point", "coordinates": [ -49.8671547, -22.9691503 ] } },
{ "type": "Feature", "properties": { "CNPJ": 19619645000135, "AGENTE": "PAULO_ROGERIO_DE_FREITAS_RAMOS", "ACAO": "REALIZAR_PRIMEIRA_VISITA_POTENCIAL", "RAZAO_SOCIAL": "MARIA_MADALENA_BEZERRA_DA_SILVA", "ENDERECO": "RUA_JOSE_FELIPE_DO_AMARAL_986_VILA_PERINO_OURINHOS_BRASIL", "CIDADE": "OURINHOS", "LATITUDE": -22.9703656, "LONGITUDE": -49.8641859 }, "geometry": { "type": "Point", "coordinates": [ -49.8641859, -22.9703656 ] } },
{ "type": "Feature", "properties": { "CNPJ": 33562412000174, "AGENTE": "PAULO_ROGERIO_DE_FREITAS_RAMOS", "ACAO": "REALIZAR_PRIMEIRA_VISITA_POTENCIAL", "RAZAO_SOCIAL": "JOAO_VITOR_FERREIRA_SIQUEIRA", "ENDERECO": "RUA_ANTONIO_ZAKI_ABUCHAM_235_JARDIM_OURO_FINO_OURINHOS_BRASIL", "CIDADE": "OURINHOS", "LATITUDE": -22.9741417, "LONGITUDE": -49.855078 }, "geometry": { "type": "Point", "coordinates": [ -49.855078, -22.9741417 ] } },
{ "type": "Feature", "properties": { "CNPJ": 44415464000134, "AGENTE": "PAULO_ROGERIO_DE_FREITAS_RAMOS", "ACAO": "REALIZAR_PRIMEIRA_VISITA_POTENCIAL", "RAZAO_SOCIAL": "METROPOLE_PINTURAS_&_CONSTRUCOES_LTDA", "ENDERECO": "RUA_PARA_953_VILA_PERINO_OURINHOS_BRASIL", "CIDADE": "OURINHOS", "LATITUDE": -22.974873, "LONGITUDE": -49.868579 }, "geometry": { "type": "Point", "coordinates": [ -49.868579, -22.974873 ] } },
{ "type": "Feature", "properties": { "CNPJ": 28268314000199, "AGENTE": "PAULO_ROGERIO_DE_FREITAS_RAMOS", "ACAO": "REALIZAR_PRIMEIRA_VISITA_POTENCIAL", "RAZAO_SOCIAL": "FERNANDO_ALVES_ALVIM", "ENDERECO": "RUA_MARECHAL_CANDIDO_MARIANO_DA_SILVA_RONDON_544_VILA_BOA_ESPERANCA_OURINHOS_BRASIL", "CIDADE": "OURINHOS", "LATITUDE": -22.9775225, "LONGITUDE": -49.8564031 }, "geometry": { "type": "Point", "coordinates": [ -49.8564031, -22.9775225 ] } },
{ "type": "Feature", "properties": { "CNPJ": 11513148000146, "AGENTE": "PAULO_ROGERIO_DE_FREITAS_RAMOS", "ACAO": "REALIZAR_PRIMEIRA_VISITA_POTENCIAL", "RAZAO_SOCIAL": "SAMIRA_A._MODENEIS_ROUPAS", "ENDERECO": "RUA_VICENTE_PASCHOAL_771_CENTRO_BEBEDOURO_BRASIL", "CIDADE": "BEBEDOURO", "LATITUDE": -22.9777521, "LONGITUDE": -49.8657596 }, "geometry": { "type": "Point", "coordinates": [ -49.8657596, -22.9777521 ] } },
{ "type": "Feature", "properties": { "CNPJ": 361048090001, "AGENTE": "PAULO_ROGERIO_DE_FREITAS_RAMOS", "ACAO": "REALIZAR_PRIMEIRA_VISITA_POTENCIAL", "RAZAO_SOCIAL": "ACADEMIA_KEEP_FITNESS_LTDA", "ENDERECO": "RUA_NOVE_DE_JULHO_658_CENTRO_OURINHOS_BRASIL", "CIDADE": "OURINHOS", "LATITUDE": -22.9777521, "LONGITUDE": -49.8657596 }, "geometry": { "type": "Point", "coordinates": [ -49.8657596, -22.9777521 ] } },
{ "type": "Feature", "properties": { "CNPJ": 5368350000129, "AGENTE": "PAULO_ROGERIO_DE_FREITAS_RAMOS", "ACAO": "REALIZAR_PRIMEIRA_VISITA_POTENCIAL", "RAZAO_SOCIAL": "A._DE_P._TREVISAN_FILHO", "ENDERECO": "RUA_9_DE_JULHO_320_CENTRO_OURINHOS_BRASIL", "CIDADE": "OURINHOS", "LATITUDE": -22.9780346, "LONGITUDE": -49.8692155 }, "geometry": { "type": "Point", "coordinates": [ -49.8692155, -22.9780346 ] } },
{ "type": "Feature", "properties": { "CNPJ": 13976797000109, "AGENTE": "PAULO_ROGERIO_DE_FREITAS_RAMOS", "ACAO": "REALIZAR_PRIMEIRA_VISITA_POTENCIAL", "RAZAO_SOCIAL": "FRANCASS_COMERCIO_DE_PRODUTOS_OTICOS_LTDA", "ENDERECO": "RUA_ANTONIO_CARLOS_MORI_497_CENTRO_OURINHOS_BRASIL", "CIDADE": "OURINHOS", "LATITUDE": -22.9786322, "LONGITUDE": -49.8675365 }, "geometry": { "type": "Point", "coordinates": [ -49.8675365, -22.9786322 ] } },
{ "type": "Feature", "properties": { "CNPJ": 48388298000185, "AGENTE": "PAULO_ROGERIO_DE_FREITAS_RAMOS", "ACAO": "REALIZAR_PRIMEIRA_VISITA_POTENCIAL", "RAZAO_SOCIAL": "L_G_DA_FONSECA_IMOBILIARIA", "ENDERECO": "RUA_JOAQUIM_BERNARDO_DE_MENDONCA_288_CENTRO_CANITAR_BRASIL", "CIDADE": "CANITAR", "LATITUDE": -22.97922, "LONGITUDE": -49.8645724 }, "geometry": { "type": "Point", "coordinates": [ -49.8645724, -22.97922 ] } },
{ "type": "Feature", "properties": { "CNPJ": 27128824000106, "AGENTE": "PAULO_ROGERIO_DE_FREITAS_RAMOS", "ACAO": "REALIZAR_PRIMEIRA_VISITA_POTENCIAL", "RAZAO_SOCIAL": "EDIVAN_LOPES", "ENDERECO": "RUA_CARDOSO_RIBEIRO_462_CENTRO_OURINHOS_BRASIL", "CIDADE": "OURINHOS", "LATITUDE": -22.9798303, "LONGITUDE": -49.8676973 }, "geometry": { "type": "Point", "coordinates": [ -49.8676973, -22.9798303 ] } },
{ "type": "Feature", "properties": { "CNPJ": 11552851000163, "AGENTE": "PAULO_ROGERIO_DE_FREITAS_RAMOS", "ACAO": "REALIZAR_PRIMEIRA_VISITA_POTENCIAL", "RAZAO_SOCIAL": "EDILAINE_APARECIDA_RAMOS_14861850886", "ENDERECO": "RUA_PARAJU_110_JAGUARE_SAO_PAULO_BRASIL", "CIDADE": "SAO_PAULO", "LATITUDE": -22.9798303, "LONGITUDE": -49.8676973 }, "geometry": { "type": "Point", "coordinates": [ -49.8676973, -22.9798303 ] } },
{ "type": "Feature", "properties": { "CNPJ": 3807587400018, "AGENTE": "PAULO_ROGERIO_DE_FREITAS_RAMOS", "ACAO": "REALIZAR_PRIMEIRA_VISITA_POTENCIAL", "RAZAO_SOCIAL": "HANGAR_COMERCIO_DE_ROUPAS_LTDA", "ENDERECO": "RUA_CARDOSO_RIBEIRO_464_CENTRO_OURINHOS_BRASIL", "CIDADE": "OURINHOS", "LATITUDE": -22.9798836, "LONGITUDE": -49.8676901 }, "geometry": { "type": "Point", "coordinates": [ -49.8676901, -22.9798836 ] } },
{ "type": "Feature", "properties": { "CNPJ": 24550794000125, "AGENTE": "PAULO_ROGERIO_DE_FREITAS_RAMOS", "ACAO": "REALIZAR_PRIMEIRA_VISITA_POTENCIAL", "RAZAO_SOCIAL": "ANA_PAULA_TEODORO_LOUZADA_FERRAZOLLI", "ENDERECO": "RUA_PARANA_276_CENTRO_OURINHOS_BRASIL", "CIDADE": "OURINHOS", "LATITUDE": -22.9804094, "LONGITUDE": -49.8667019 }, "geometry": { "type": "Point", "coordinates": [ -49.8667019, -22.9804094 ] } },
{ "type": "Feature", "properties": { "CNPJ": 14193319000195, "AGENTE": "PAULO_ROGERIO_DE_FREITAS_RAMOS", "ACAO": "REALIZAR_PRIMEIRA_VISITA_POTENCIAL", "RAZAO_SOCIAL": "SONIA_REGINA_BORGES_CRISTONI", "ENDERECO": "SITIO_BAIRRO_RIBEIRAO_GRANDE_NOSSA_SENHORA_DE_APARECIDA_127_CENTRO_OURINHOS_BRASIL", "CIDADE": "OURINHOS", "LATITUDE": -22.9806071, "LONGITUDE": -49.8655093 }, "geometry": { "type": "Point", "coordinates": [ -49.8655093, -22.9806071 ] } },
{ "type": "Feature", "properties": { "CNPJ": 8678917000151, "AGENTE": "PAULO_ROGERIO_DE_FREITAS_RAMOS", "ACAO": "REALIZAR_PRIMEIRA_VISITA_POTENCIAL", "RAZAO_SOCIAL": "ROSELENE_VALDEREZ_DINIZ", "ENDERECO": "TRAVESSA_TREZE_DE_DEZEMBRO_98_CENTRO_OURINHOS_BRASIL", "CIDADE": "OURINHOS", "LATITUDE": -22.9807275, "LONGITUDE": -49.8679785 }, "geometry": { "type": "Point", "coordinates": [ -49.8679785, -22.9807275 ] } },
{ "type": "Feature", "properties": { "CNPJ": 47144839000167, "AGENTE": "PAULO_ROGERIO_DE_FREITAS_RAMOS", "ACAO": "REALIZAR_PRIMEIRA_VISITA_POTENCIAL", "RAZAO_SOCIAL": "H_H_M_ATACADO_E_VAREJO_LTDA", "ENDERECO": "AVENIDA_HORST_FREDERICO_JOAO_HEER_4573_JARDIM_DAS_GAIVOTAS_INDAIATUBA_BRASIL", "CIDADE": "INDAIATUBA", "LATITUDE": -22.9808413, "LONGITUDE": -49.8691765 }, "geometry": { "type": "Point", "coordinates": [ -49.8691765, -22.9808413 ] } },
{ "type": "Feature", "properties": { "CNPJ": 34656453000192, "AGENTE": "PAULO_ROGERIO_DE_FREITAS_RAMOS", "ACAO": "REALIZAR_PRIMEIRA_VISITA_POTENCIAL", "RAZAO_SOCIAL": "MIRELA_DOS_SANTOS_SMANIA", "ENDERECO": "RUA_FRANCISCO_DE_VECCHI_FILHO_712_JARDIM_OURO_VERDE_OURINHOS_BRASIL", "CIDADE": "OURINHOS", "LATITUDE": -22.9815325, "LONGITUDE": -49.8678867 }, "geometry": { "type": "Point", "coordinates": [ -49.8678867, -22.9815325 ] } },
{ "type": "Feature", "properties": { "CNPJ": 26963262000145, "AGENTE": "PAULO_ROGERIO_DE_FREITAS_RAMOS", "ACAO": "REALIZAR_PRIMEIRA_VISITA_POTENCIAL", "RAZAO_SOCIAL": "R._N._SANTIAGO", "ENDERECO": "RUA_SEBASTIAO_DOMINGUES_ARANTES_11_PARQUE_MINAS_GERAIS_OURINHOS_BRASIL", "CIDADE": "OURINHOS", "LATITUDE": -22.983066, "LONGITUDE": -49.8533341 }, "geometry": { "type": "Point", "coordinates": [ -49.8533341, -22.983066 ] } },
{ "type": "Feature", "properties": { "CNPJ": 26672963000125, "AGENTE": "PAULO_ROGERIO_DE_FREITAS_RAMOS", "ACAO": "REALIZAR_PRIMEIRA_VISITA_POTENCIAL", "RAZAO_SOCIAL": "LUANA_DUARTE_DA_SILVA", "ENDERECO": "RUA_OSORIO_ALVES_DA_SILVA_-_DE_202/203_AO_FIM_576_PARQUE_MINAS_GERAIS_OURINHOS_BRASIL", "CIDADE": "OURINHOS", "LATITUDE": -22.9832258, "LONGITUDE": -49.8534286 }, "geometry": { "type": "Point", "coordinates": [ -49.8534286, -22.9832258 ] } },
{ "type": "Feature", "properties": { "CNPJ": 115587680001, "AGENTE": "PAULO_ROGERIO_DE_FREITAS_RAMOS", "ACAO": "REALIZAR_PRIMEIRA_VISITA_POTENCIAL", "RAZAO_SOCIAL": "ELISANGELA_BORGUESAO_COSTA", "ENDERECO": "RUA_CAMBE_101_JARDIM_PARANA_ASSIS_BRASIL", "CIDADE": "ASSIS", "LATITUDE": -22.9832653, "LONGITUDE": -49.8664158 }, "geometry": { "type": "Point", "coordinates": [ -49.8664158, -22.9832653 ] } },
{ "type": "Feature", "properties": { "CNPJ": 29849352000106, "AGENTE": "PAULO_ROGERIO_DE_FREITAS_RAMOS", "ACAO": "REALIZAR_PRIMEIRA_VISITA_POTENCIAL", "RAZAO_SOCIAL": "BRAGA_&_PRETEL_LTDA", "ENDERECO": "RUA_DO_EXPEDICIONARIO_820_CENTRO_OURINHOS_BRASIL", "CIDADE": "OURINHOS", "LATITUDE": -22.9832653, "LONGITUDE": -49.8664158 }, "geometry": { "type": "Point", "coordinates": [ -49.8664158, -22.9832653 ] } },
{ "type": "Feature", "properties": { "CNPJ": 33239466000101, "AGENTE": "PAULO_ROGERIO_DE_FREITAS_RAMOS", "ACAO": "REALIZAR_PRIMEIRA_VISITA_POTENCIAL", "RAZAO_SOCIAL": "PRISCILA_GETCO_MIYAMOTO_NOMOTO", "ENDERECO": "RUA_ALEIXO_GARCIA_62_JARDIM_DOS_BANDEIRANTES_OURINHOS_BRASIL", "CIDADE": "OURINHOS", "LATITUDE": -22.9880382, "LONGITUDE": -49.885132 }, "geometry": { "type": "Point", "coordinates": [ -49.885132, -22.9880382 ] } },
{ "type": "Feature", "properties": { "CNPJ": 36580882000159, "AGENTE": "PAULO_ROGERIO_DE_FREITAS_RAMOS", "ACAO": "REALIZAR_PRIMEIRA_VISITA_POTENCIAL", "RAZAO_SOCIAL": "WESLEY_DE_LIMA_NASCIMENTO", "ENDERECO": "AREA_RURAL_0_AREA_RURAL_DE_ALVARO_DE_CARVALHO_ALVARO_DE_CARVALHO_BRASIL", "CIDADE": "OURINHOS", "LATITUDE": -22.9898352, "LONGITUDE": -49.8791678 }, "geometry": { "type": "Point", "coordinates": [ -49.8791678, -22.9898352 ] } },
{ "type": "Feature", "properties": { "CNPJ": 22771977000145, "AGENTE": "PAULO_ROGERIO_DE_FREITAS_RAMOS", "ACAO": "REALIZAR_PRIMEIRA_VISITA_POTENCIAL", "RAZAO_SOCIAL": "C_MOREIRA_COSMETICOS", "ENDERECO": "RUA_CAMBARA_1210_VILA_SAO_JOSE_OURINHOS_BRASIL", "CIDADE": "OURINHOS", "LATITUDE": -22.9899238, "LONGITUDE": -49.8790082 }, "geometry": { "type": "Point", "coordinates": [ -49.8790082, -22.9899238 ] } },
{ "type": "Feature", "properties": { "CNPJ": 784799500017, "AGENTE": "PAULO_ROGERIO_DE_FREITAS_RAMOS", "ACAO": "REALIZAR_PRIMEIRA_VISITA_POTENCIAL", "RAZAO_SOCIAL": "LEANDRO_FERNANDES_CASSIOLATO", "ENDERECO": "AVENIDA_DOMINGOS_CAMERLINGO_CALO_2115_LOTEAMENTO_DOMINGOS_GARCIA_OURINHOS_BRASIL", "CIDADE": "OURINHOS", "LATITUDE": -22.9946078, "LONGITUDE": -49.8774955 }, "geometry": { "type": "Point", "coordinates": [ -49.8774955, -22.9946078 ] } },
{ "type": "Feature", "properties": { "CNPJ": 1155978200011, "AGENTE": "PAULO_ROGERIO_DE_FREITAS_RAMOS", "ACAO": "REALIZAR_PRIMEIRA_VISITA_POTENCIAL", "RAZAO_SOCIAL": "11.559.782_BEATRIZ_GUEIROS_BARROS", "ENDERECO": "RUA_BUCUITUBA_1319_VILA_MARGARIDA_SAO_PAULO_BRASIL", "CIDADE": "SAO_PAULO", "LATITUDE": -22.9946078, "LONGITUDE": -49.8774955 }, "geometry": { "type": "Point", "coordinates": [ -49.8774955, -22.9946078 ] } },
{ "type": "Feature", "properties": { "CNPJ": 54387677000153, "AGENTE": "PAULO_ROGERIO_DE_FREITAS_RAMOS", "ACAO": "REALIZAR_PRIMEIRA_VISITA_POTENCIAL", "RAZAO_SOCIAL": "LUCAS_SILVA_DE_OLIVEIRA", "ENDERECO": "RUA_SEBASTIAO_NUNES_DINIZ_324_CONJUNTO_RESIDENCIAL_PADRE_EDUARDO_MURANTE_OURINHOS_BRASIL", "CIDADE": "OURINHOS", "LATITUDE": -22.999005, "LONGITUDE": -49.8849495 }, "geometry": { "type": "Point", "coordinates": [ -49.8849495, -22.999005 ] } },
{ "type": "Feature", "properties": { "CNPJ": 55646347000106, "AGENTE": "PAULO_ROGERIO_DE_FREITAS_RAMOS", "ACAO": "REALIZAR_PRIMEIRA_VISITA_POTENCIAL", "RAZAO_SOCIAL": "CARLOS_FERREIRA_DA_SILVA", "ENDERECO": "RUA_PADRE_RUI_CANDIDO_DA_SILVA_1401_VILA_ODILON_OURINHOS_BRASIL", "CIDADE": "OURINHOS", "LATITUDE": -23.000329, "LONGITUDE": -49.884422 }, "geometry": { "type": "Point", "coordinates": [ -49.884422, -23.000329 ] } },
{ "type": "Feature", "properties": { "CNPJ": 50444933000146, "AGENTE": "PAULO_ROGERIO_DE_FREITAS_RAMOS", "ACAO": "REALIZAR_PRIMEIRA_VISITA_POTENCIAL", "RAZAO_SOCIAL": "SONIA_MARIA_TOREZIN_REYNALDO", "ENDERECO": "RUA_MORADAS_OURINHOS_II_CASA_16_JARDIM_ITAMARATY_OURINHOS_BRASIL", "CIDADE": "OURINHOS", "LATITUDE": -23.0125662, "LONGITUDE": -49.8899058 }, "geometry": { "type": "Point", "coordinates": [ -49.8899058, -23.0125662 ] } },
{ "type": "Feature", "properties": { "CNPJ": 36333498000151, "AGENTE": "PAULO_ROGERIO_DE_FREITAS_RAMOS", "ACAO": "REALIZAR_PRIMEIRA_VISITA_POTENCIAL", "RAZAO_SOCIAL": "LEONIDAS_DE_PADUA_JUNIOR_21810569869", "ENDERECO": "RUA_JATOBAS_64_RECANTO_VISTA_ALEGRE_SABINO_BRASIL", "CIDADE": "SABINO", "LATITUDE": -21.4462541, "LONGITUDE": -49.5918868 }, "geometry": { "type": "Point", "coordinates": [ -49.5918868, -21.4462541 ] } },
{ "type": "Feature", "properties": { "CNPJ": 5771638600015, "AGENTE": "PAULO_ROGERIO_DE_FREITAS_RAMOS", "ACAO": "REALIZAR_PRIMEIRA_VISITA_POTENCIAL", "RAZAO_SOCIAL": "57.716.386_JOSE_ANTONIO_DIAS", "ENDERECO": "AVENIDA_MARECHAL_RONDON_921_CENTRO_SABINO_BRASIL", "CIDADE": "SABINO", "LATITUDE": -21.455877, "LONGITUDE": -49.5769926 }, "geometry": { "type": "Point", "coordinates": [ -49.5769926, -21.455877 ] } },
{ "type": "Feature", "properties": { "CNPJ": 29369100000171, "AGENTE": "PAULO_ROGERIO_DE_FREITAS_RAMOS", "ACAO": "REALIZAR_PRIMEIRA_VISITA_POTENCIAL", "RAZAO_SOCIAL": "29.369.100_GUIOMAR_MEIRA_BONFIETTI", "ENDERECO": "AVENIDA_OLAVO_BILAC_424_CENTRO_SABINO_BRASIL", "CIDADE": "SABINO", "LATITUDE": -21.4576076, "LONGITUDE": -49.574618 }, "geometry": { "type": "Point", "coordinates": [ -49.574618, -21.4576076 ] } },
{ "type": "Feature", "properties": { "CNPJ": 32431258000139, "AGENTE": "PAULO_ROGERIO_DE_FREITAS_RAMOS", "ACAO": "REALIZAR_PRIMEIRA_VISITA_POTENCIAL", "RAZAO_SOCIAL": "32.431.258_ANGELICA_CAMILLO_GOMES_DOS_SANTOS", "ENDERECO": "10A_RUA_JOSE_BONIFACIO_1121_CENTRO_SABINO_BRASIL", "CIDADE": "SABINO", "LATITUDE": -21.4597683, "LONGITUDE": -49.579954 }, "geometry": { "type": "Point", "coordinates": [ -49.579954, -21.4597683 ] } },
{ "type": "Feature", "properties": { "CNPJ": 2729583000014, "AGENTE": "PAULO_ROGERIO_DE_FREITAS_RAMOS", "ACAO": "REALIZAR_PRIMEIRA_VISITA_POTENCIAL", "RAZAO_SOCIAL": "VINICIUS_PINHEIRO_DE_SOUZA_38239152821", "ENDERECO": "AVENIDA_MARECHAL_RONDON_1155_CENTRO_SABINO_BRASIL", "CIDADE": "SABINO", "LATITUDE": -21.4597891, "LONGITUDE": -49.5732949 }, "geometry": { "type": "Point", "coordinates": [ -49.5732949, -21.4597891 ] } },
{ "type": "Feature", "properties": { "CNPJ": 53336036000107, "AGENTE": "PAULO_ROGERIO_DE_FREITAS_RAMOS", "ACAO": "REALIZAR_PRIMEIRA_VISITA_POTENCIAL", "RAZAO_SOCIAL": "53.336.036_MARCELO_LACERDA_DA_SILVA", "ENDERECO": "RUA_CARLOS_GOMES_1248_CENTRO_SABINO_BRASIL", "CIDADE": "SABINO", "LATITUDE": -21.459814, "LONGITUDE": -49.5760018 }, "geometry": { "type": "Point", "coordinates": [ -49.5760018, -21.459814 ] } },
{ "type": "Feature", "properties": { "CNPJ": 17667990000119, "AGENTE": "PAULO_ROGERIO_DE_FREITAS_RAMOS", "ACAO": "REALIZAR_PRIMEIRA_VISITA_POTENCIAL", "RAZAO_SOCIAL": "MARLENE_DOS_SANTOS_SANTIAGO_19141282817", "ENDERECO": "AVENIDA_PADRE_ANCHIETA_795_CENTRO_SABINO_BRASIL", "CIDADE": "SABINO", "LATITUDE": -21.460091, "LONGITUDE": -49.5775582 }, "geometry": { "type": "Point", "coordinates": [ -49.5775582, -21.460091 ] } },
{ "type": "Feature", "properties": { "CNPJ": 9054742000174, "AGENTE": "PAULO_ROGERIO_DE_FREITAS_RAMOS", "ACAO": "REALIZAR_PRIMEIRA_VISITA_POTENCIAL", "RAZAO_SOCIAL": "SCHUNAK_&_SCHUNAK_DROGARIA_LTDA", "ENDERECO": "RUA_MARECHAL_DEODORO_645_JARDIM_IMPERIAL_SABINO_BRASIL", "CIDADE": "SABINO", "LATITUDE": -21.4619332, "LONGITUDE": -49.5744371 }, "geometry": { "type": "Point", "coordinates": [ -49.5744371, -21.4619332 ] } },
{ "type": "Feature", "properties": { "CNPJ": 44736850000128, "AGENTE": "PAULO_ROGERIO_DE_FREITAS_RAMOS", "ACAO": "REALIZAR_PRIMEIRA_VISITA_POTENCIAL", "RAZAO_SOCIAL": "44.736.850_FABRICIO_CARNEVALE_REIS", "ENDERECO": "AVENIDA_SETE_DE_SETEMBRO_264_CENTRO_SABINO_BRASIL", "CIDADE": "SABINO", "LATITUDE": -21.462904, "LONGITUDE": -49.5816583 }, "geometry": { "type": "Point", "coordinates": [ -49.5816583, -21.462904 ] } },
{ "type": "Feature", "properties": { "CNPJ": 30250529000124, "AGENTE": "PAULO_ROGERIO_DE_FREITAS_RAMOS", "ACAO": "REALIZAR_PRIMEIRA_VISITA_POTENCIAL", "RAZAO_SOCIAL": "EVERALDO_DE_JESUS_NERES_63059274134", "ENDERECO": "RUA_CARLOS_FERREIRA_DA_ROCHA_384_VILA_SIMOES_CAFELANDIA_BRASIL", "CIDADE": "CAFELANDIA", "LATITUDE": -21.6651321, "LONGITUDE": -49.4393425 }, "geometry": { "type": "Point", "coordinates": [ -49.4393425, -21.6651321 ] } },
{ "type": "Feature", "properties": { "CNPJ": 10926493000149, "AGENTE": "PAULO_ROGERIO_DE_FREITAS_RAMOS", "ACAO": "REALIZAR_PRIMEIRA_VISITA_POTENCIAL", "RAZAO_SOCIAL": "OZEIAS_DOS_SANTOS_LEITE", "ENDERECO": "RUA_JOANA_ALVES_HERCULANO_7_JARDIM_MOACYRA_CAFELANDIA_BRASIL", "CIDADE": "CAFELANDIA", "LATITUDE": -21.799876, "LONGITUDE": -49.6045371 }, "geometry": { "type": "Point", "coordinates": [ -49.6045371, -21.799876 ] } },
{ "type": "Feature", "properties": { "CNPJ": 4694471200016, "AGENTE": "PAULO_ROGERIO_DE_FREITAS_RAMOS", "ACAO": "REALIZAR_PRIMEIRA_VISITA_POTENCIAL", "RAZAO_SOCIAL": "SIDNEIA_HERMETERIO_BONIFACIO_NAVARRO", "ENDERECO": "RUA_ELIAS_ARUT_186_JARDIM_HELCIO_MORILLAS_PECCI_CAFELANDIA_BRASIL", "CIDADE": "CAFELANDIA", "LATITUDE": -21.8011591, "LONGITUDE": -49.6030999 }, "geometry": { "type": "Point", "coordinates": [ -49.6030999, -21.8011591 ] } },
{ "type": "Feature", "properties": { "CNPJ": 2760572300017, "AGENTE": "PAULO_ROGERIO_DE_FREITAS_RAMOS", "ACAO": "REALIZAR_PRIMEIRA_VISITA_POTENCIAL", "RAZAO_SOCIAL": "HOTEL_CAFE_EIRELI", "ENDERECO": "AVENIDA_PIZA_SOBRINHO_134_PENA_CAFELANDIA_BRASIL", "CIDADE": "CAFELANDIA", "LATITUDE": -21.801703, "LONGITUDE": -49.6071866 }, "geometry": { "type": "Point", "coordinates": [ -49.6071866, -21.801703 ] } },
{ "type": "Feature", "properties": { "CNPJ": 14883051000113, "AGENTE": "PAULO_ROGERIO_DE_FREITAS_RAMOS", "ACAO": "REALIZAR_PRIMEIRA_VISITA_POTENCIAL", "RAZAO_SOCIAL": "ROBERTO_RODRIGUES_DOS_SANTOS", "ENDERECO": "RUA_DOUTOR_EDGARDO_DE_AZEVEDO_MOSS_230_JARDIM_BENEDICTA_CONTRERA_CAFELANDIA_BRASIL", "CIDADE": "CAFELANDIA", "LATITUDE": -21.8018526, "LONGITUDE": -49.6148775 }, "geometry": { "type": "Point", "coordinates": [ -49.6148775, -21.8018526 ] } },
{ "type": "Feature", "properties": { "CNPJ": 43653573000127, "AGENTE": "PAULO_ROGERIO_DE_FREITAS_RAMOS", "ACAO": "REALIZAR_PRIMEIRA_VISITA_POTENCIAL", "RAZAO_SOCIAL": "LINIKKER_AUGUSTO_MOREIRA_BENTO", "ENDERECO": "RUA_LEALDINO_ZUCCHI_230_JARDIM_BENEDICTA_CONTRERA_CAFELANDIA_BRASIL", "CIDADE": "CAFELANDIA", "LATITUDE": -21.8018526, "LONGITUDE": -49.6148775 }, "geometry": { "type": "Point", "coordinates": [ -49.6148775, -21.8018526 ] } },
{ "type": "Feature", "properties": { "CNPJ": 42441764000162, "AGENTE": "PAULO_ROGERIO_DE_FREITAS_RAMOS", "ACAO": "REALIZAR_PRIMEIRA_VISITA_POTENCIAL", "RAZAO_SOCIAL": "CESAR_HENRIQUE_TEIXEIRA_ALVES", "ENDERECO": "RUA_JOANA_DE_ALMEIDA_PEREIRA_150_VILA_BELEM_CAFELANDIA_BRASIL", "CIDADE": "CAFELANDIA", "LATITUDE": -21.8028125, "LONGITUDE": -49.5876735 }, "geometry": { "type": "Point", "coordinates": [ -49.5876735, -21.8028125 ] } },
{ "type": "Feature", "properties": { "CNPJ": 5098324000128, "AGENTE": "PAULO_ROGERIO_DE_FREITAS_RAMOS", "ACAO": "REALIZAR_PRIMEIRA_VISITA_POTENCIAL", "RAZAO_SOCIAL": "S._R._P._GREGORIO_COMERCIO_E_MANUTENCAO_DE_MAQUINAS", "ENDERECO": "AVENIDA_DIONIZIA_ZUCCHI_251_PENA_CAFELANDIA_BRASIL", "CIDADE": "CAFELANDIA", "LATITUDE": -21.8032352, "LONGITUDE": -49.6113884 }, "geometry": { "type": "Point", "coordinates": [ -49.6113884, -21.8032352 ] } },
{ "type": "Feature", "properties": { "CNPJ": 1808818200016, "AGENTE": "PAULO_ROGERIO_DE_FREITAS_RAMOS", "ACAO": "REALIZAR_PRIMEIRA_VISITA_POTENCIAL", "RAZAO_SOCIAL": "MARTA_REGINA_CAPARROZ", "ENDERECO": "AVENIDA_DOM_PEDRO_II_296_CENTRO_CAFELANDIA_BRASIL", "CIDADE": "CAFELANDIA", "LATITUDE": -21.8059102, "LONGITUDE": -49.6010154 }, "geometry": { "type": "Point", "coordinates": [ -49.6010154, -21.8059102 ] } },
{ "type": "Feature", "properties": { "CNPJ": 22032293000121, "AGENTE": "PAULO_ROGERIO_DE_FREITAS_RAMOS", "ACAO": "REALIZAR_PRIMEIRA_VISITA_POTENCIAL", "RAZAO_SOCIAL": "JULIANA_IDINO_AFONSO", "ENDERECO": "AVENIDA_TIRADENTES_795_PENA_CAFELANDIA_BRASIL", "CIDADE": "CAFELANDIA", "LATITUDE": -21.8061684, "LONGITUDE": -49.6141223 }, "geometry": { "type": "Point", "coordinates": [ -49.6141223, -21.8061684 ] } },
{ "type": "Feature", "properties": { "CNPJ": 169748700001, "AGENTE": "PAULO_ROGERIO_DE_FREITAS_RAMOS", "ACAO": "REALIZAR_PRIMEIRA_VISITA_POTENCIAL", "RAZAO_SOCIAL": "ROBERTO_DE_OLIVEIRA_COSTA", "ENDERECO": "AVENIDA_TIRADENTES_573_PENA_CAFELANDIA_BRASIL", "CIDADE": "CAFELANDIA", "LATITUDE": -21.8065481, "LONGITUDE": -49.6120528 }, "geometry": { "type": "Point", "coordinates": [ -49.6120528, -21.8065481 ] } },
{ "type": "Feature", "properties": { "CNPJ": 51132862000109, "AGENTE": "PAULO_ROGERIO_DE_FREITAS_RAMOS", "ACAO": "REALIZAR_PRIMEIRA_VISITA_POTENCIAL", "RAZAO_SOCIAL": "DANIEL_VICTOR_LOPES_DA_SILVA_GAZETA", "ENDERECO": "RUA_VEREADOR_AVELINO_DE_CASTRO_54_JARDIM_BENEDICTA_CONTRERA_CAFELANDIA_BRASIL", "CIDADE": "CAFELANDIA", "LATITUDE": -21.8067177, "LONGITUDE": -49.6185139 }, "geometry": { "type": "Point", "coordinates": [ -49.6185139, -21.8067177 ] } },
{ "type": "Feature", "properties": { "CNPJ": 44522132000159, "AGENTE": "PAULO_ROGERIO_DE_FREITAS_RAMOS", "ACAO": "REALIZAR_PRIMEIRA_VISITA_POTENCIAL", "RAZAO_SOCIAL": "LUANA_CASTILHO_DA_SILVA", "ENDERECO": "RUA_MARCOS_NOGUEIRA_COBRA_478_PENA_CAFELANDIA_BRASIL", "CIDADE": "CAFELANDIA", "LATITUDE": -21.8068199, "LONGITUDE": -49.6068237 }, "geometry": { "type": "Point", "coordinates": [ -49.6068237, -21.8068199 ] } },
{ "type": "Feature", "properties": { "CNPJ": 46763733000189, "AGENTE": "PAULO_ROGERIO_DE_FREITAS_RAMOS", "ACAO": "REALIZAR_PRIMEIRA_VISITA_POTENCIAL", "RAZAO_SOCIAL": "ANDERSON_RICARDO_SOLER_PARRA", "ENDERECO": "RUA_GENERAL_MARCONDES_SALGADO_714_PENA_CAFELANDIA_BRASIL", "CIDADE": "CAFELANDIA", "LATITUDE": -21.8073381, "LONGITUDE": -49.6092808 }, "geometry": { "type": "Point", "coordinates": [ -49.6092808, -21.8073381 ] } },
{ "type": "Feature", "properties": { "CNPJ": 17470319000183, "AGENTE": "PAULO_ROGERIO_DE_FREITAS_RAMOS", "ACAO": "REALIZAR_PRIMEIRA_VISITA_POTENCIAL", "RAZAO_SOCIAL": "P._DE_S._BISOLATTE", "ENDERECO": "RUA_SIQUEIRA_CAMPOS_88_CENTRO_CAFELANDIA_BRASIL", "CIDADE": "CAFELANDIA", "LATITUDE": -21.8073511, "LONGITUDE": -49.6020709 }, "geometry": { "type": "Point", "coordinates": [ -49.6020709, -21.8073511 ] } },
{ "type": "Feature", "properties": { "CNPJ": 2372863400016, "AGENTE": "PAULO_ROGERIO_DE_FREITAS_RAMOS", "ACAO": "REALIZAR_PRIMEIRA_VISITA_POTENCIAL", "RAZAO_SOCIAL": "ELIANA_PIZANI_RIBEIRO_DIAS", "ENDERECO": "AVENIDA_MARIA_MARTINEZ_TORRES_136_JARDIM_SALATHIEL_SOARES_DA_SILVA_CAFELANDIA_BRASIL", "CIDADE": "CAFELANDIA", "LATITUDE": -21.8073966, "LONGITUDE": -49.6170731 }, "geometry": { "type": "Point", "coordinates": [ -49.6170731, -21.8073966 ] } },
{ "type": "Feature", "properties": { "CNPJ": 514559810001, "AGENTE": "PAULO_ROGERIO_DE_FREITAS_RAMOS", "ACAO": "REALIZAR_PRIMEIRA_VISITA_POTENCIAL", "RAZAO_SOCIAL": "JULIA_LAZARO_SANCHEZ", "ENDERECO": "RUA_DRAUZIO_MARCONDES_215_CENTRO_CAFELANDIA_BRASIL", "CIDADE": "CAFELANDIA", "LATITUDE": -21.807845, "LONGITUDE": -49.6023503 }, "geometry": { "type": "Point", "coordinates": [ -49.6023503, -21.807845 ] } },
{ "type": "Feature", "properties": { "CNPJ": 26703337000159, "AGENTE": "PAULO_ROGERIO_DE_FREITAS_RAMOS", "ACAO": "REALIZAR_PRIMEIRA_VISITA_POTENCIAL", "RAZAO_SOCIAL": "ELISEU_VAZ_SERRANO", "ENDERECO": "RUA_DOUTOR_ORLANDO_GOULART_PENTEADO_46_JARDIM_BENEDICTA_CONTRERA_CAFELANDIA_BRASIL", "CIDADE": "CAFELANDIA", "LATITUDE": -21.8080363, "LONGITUDE": -49.6170651 }, "geometry": { "type": "Point", "coordinates": [ -49.6170651, -21.8080363 ] } },
{ "type": "Feature", "properties": { "CNPJ": 50819833000157, "AGENTE": "PAULO_ROGERIO_DE_FREITAS_RAMOS", "ACAO": "REALIZAR_PRIMEIRA_VISITA_POTENCIAL", "RAZAO_SOCIAL": "WILLER_DIAS_VIEIRA", "ENDERECO": "RUA_APARECIDO_DOS_SANTOS_46_JARDIM_PLANALTO_ITAI_BRASIL", "CIDADE": "ITAI", "LATITUDE": -21.808208, "LONGITUDE": -49.6052631 }, "geometry": { "type": "Point", "coordinates": [ -49.6052631, -21.808208 ] } },