{
"type": "FeatureCollection",
"name": "PEDRO_VITOR_FERNANDES_VENCHIARUTTI",
"crs": { "type": "name", "properties": { "name": "urn:ogc:def:crs:OGC:1.3:CRS84" } },
"xy_coordinate_resolution": 1e-15,
"features": [
{ "type": "Feature", "properties": { "CNPJ": 58086330000121, "AGENTE": "PEDRO_VITOR_FERNANDES_VENCHIARUTTI", "ACAO": "REALIZAR_PRIMEIRA_VISITA", "RAZAO_SOCIAL": "PATRICIA_DE_SOUSA_CASTELLAO_LTDA", "ENDERECO": "AVENIDA_MARECHAL_FLORIANO_PEIXOTO_67_GONZAGA_SANTOS", "CIDADE": "SANTOS", "LATITUDE": -23.9675624, "LONGITUDE": -46.335149 }, "geometry": { "type": "Point", "coordinates": [ -46.335149, -23.9675624 ] } },
{ "type": "Feature", "properties": { "CNPJ": 54226003000177, "AGENTE": "PEDRO_VITOR_FERNANDES_VENCHIARUTTI", "ACAO": "REALIZAR_PRIMEIRA_VISITA", "RAZAO_SOCIAL": "VIEIRA_E_VIEIRA_SORVETERIA_EMISSARIO_LTDA", "ENDERECO": "AVENIDA_PRESIDENTE_WILSON_174_JOSE_MENINO_SANTOS", "CIDADE": "SANTOS", "LATITUDE": -23.96794, "LONGITUDE": -46.3509133 }, "geometry": { "type": "Point", "coordinates": [ -46.3509133, -23.96794 ] } },
{ "type": "Feature", "properties": { "CNPJ": 4981642000170, "AGENTE": "PEDRO_VITOR_FERNANDES_VENCHIARUTTI", "ACAO": "REALIZAR_PRIMEIRA_VISITA", "RAZAO_SOCIAL": "BONO_PRECO_DO_JOSE_MENINO_LTDA", "ENDERECO": "AVENIDA_PRESIDENTE_WILSON_1935_JOSE_MENINO_SANTOS", "CIDADE": "SANTOS", "LATITUDE": -23.968668, "LONGITUDE": -46.3522436 }, "geometry": { "type": "Point", "coordinates": [ -46.3522436, -23.968668 ] } },
{ "type": "Feature", "properties": { "CNPJ": 39557084000102, "AGENTE": "PEDRO_VITOR_FERNANDES_VENCHIARUTTI", "ACAO": "REALIZAR_PRIMEIRA_VISITA", "RAZAO_SOCIAL": "K._R._S._KLEINPAUL_INTERMEDIACOES_DE_VEICULOS", "ENDERECO": "RUA_DOUTOR_GUILHERME_ALVARO_76_MARAPE_SANTOS", "CIDADE": "SANTOS", "LATITUDE": -23.9643611, "LONGITUDE": -46.3495284 }, "geometry": { "type": "Point", "coordinates": [ -46.3495284, -23.9643611 ] } },
{ "type": "Feature", "properties": { "CNPJ": 5416211000123, "AGENTE": "PEDRO_VITOR_FERNANDES_VENCHIARUTTI", "ACAO": "REALIZAR_PRIMEIRA_VISITA", "RAZAO_SOCIAL": "ESTACAO_DOS_GAMES_LTDA", "ENDERECO": "RUA_OTHON_FELICIANO_2_GONZAGA_SANTOS", "CIDADE": "SANTOS", "LATITUDE": -23.9680663, "LONGITUDE": -46.3339702 }, "geometry": { "type": "Point", "coordinates": [ -46.3339702, -23.9680663 ] } },
{ "type": "Feature", "properties": { "CNPJ": 13559127000430, "AGENTE": "PEDRO_VITOR_FERNANDES_VENCHIARUTTI", "ACAO": "REALIZAR_SEGUNDA_VISITA", "RAZAO_SOCIAL": "M_D_M_GAGLIARDO_-_ROUPAS_-_DHEMY", "ENDERECO": "AVENIDA_ANA_COSTA_549_GONZAGA_SANTOS", "CIDADE": "SANTOS", "LATITUDE": -23.9686624, "LONGITUDE": -46.3326156 }, "geometry": { "type": "Point", "coordinates": [ -46.3326156, -23.9686624 ] } },
{ "type": "Feature", "properties": { "CNPJ": 5204427000206, "AGENTE": "PEDRO_VITOR_FERNANDES_VENCHIARUTTI", "ACAO": "REALIZAR_SEGUNDA_VISITA", "RAZAO_SOCIAL": "MIAB_OTICA_LTDA_-_OTICA_IX", "ENDERECO": "AVENIDA_ANA_COSTA_549_GONZAGA_SANTOS", "CIDADE": "SANTOS", "LATITUDE": -23.9686711, "LONGITUDE": -46.3327147 }, "geometry": { "type": "Point", "coordinates": [ -46.3327147, -23.9686711 ] } },
{ "type": "Feature", "properties": { "CNPJ": 10268669000384, "AGENTE": "PEDRO_VITOR_FERNANDES_VENCHIARUTTI", "ACAO": "REALIZAR_SEGUNDA_VISITA", "RAZAO_SOCIAL": "SWART_&_MIRANDA_LTDA_-_MANDALA", "ENDERECO": "AVENIDA_ANA_COSTA_549_GONZAGA_SANTOS", "CIDADE": "SANTOS", "LATITUDE": -23.9686743, "LONGITUDE": -46.3326349 }, "geometry": { "type": "Point", "coordinates": [ -46.3326349, -23.9686743 ] } },
{ "type": "Feature", "properties": { "CNPJ": 20938786000108, "AGENTE": "PEDRO_VITOR_FERNANDES_VENCHIARUTTI", "ACAO": "REALIZAR_SEGUNDA_VISITA", "RAZAO_SOCIAL": "IZABELLA_GONCALVES_DE_MENDONCA_LAWALL_LTDA_-_BENDITO_SER", "ENDERECO": "AVENIDA_ANA_COSTA_549_GONZAGA_SANTOS", "CIDADE": "SANTOS", "LATITUDE": -23.9686913, "LONGITUDE": -46.3325975 }, "geometry": { "type": "Point", "coordinates": [ -46.3325975, -23.9686913 ] } },
{ "type": "Feature", "properties": { "CNPJ": 11414476000195, "AGENTE": "PEDRO_VITOR_FERNANDES_VENCHIARUTTI", "ACAO": "REALIZAR_SEGUNDA_VISITA", "RAZAO_SOCIAL": "ALZEMIRO_RAMIRES_FILHO_VESTUARIO_LTDA_-_PES_E_CIA", "ENDERECO": "AVENIDA_ANA_COSTA_549_GONZAGA_SANTOS", "CIDADE": "SANTOS", "LATITUDE": -23.968717, "LONGITUDE": -46.3327424 }, "geometry": { "type": "Point", "coordinates": [ -46.3327424, -23.968717 ] } },
{ "type": "Feature", "properties": { "CNPJ": 5623762000168, "AGENTE": "PEDRO_VITOR_FERNANDES_VENCHIARUTTI", "ACAO": "REALIZAR_SEGUNDA_VISITA", "RAZAO_SOCIAL": "MARIA_JOSE_O._SOUSA_-_CHAMPS_ELYSEES", "ENDERECO": "AVENIDA_ANA_COSTA_549_GONZAGA_SANTOS", "CIDADE": "SANTOS", "LATITUDE": -23.9687374, "LONGITUDE": -46.332724 }, "geometry": { "type": "Point", "coordinates": [ -46.332724, -23.9687374 ] } },
{ "type": "Feature", "properties": { "CNPJ": 34213265000190, "AGENTE": "PEDRO_VITOR_FERNANDES_VENCHIARUTTI", "ACAO": "REALIZAR_SEGUNDA_VISITA", "RAZAO_SOCIAL": "J._E._ALMEIDA_VESTUARIO_-_MANIA_DE_CRIANCA", "ENDERECO": "AVENIDA_ANA_COSTA_549_GONZAGA_SANTOS", "CIDADE": "SANTOS", "LATITUDE": -23.9687813, "LONGITUDE": -46.3326578 }, "geometry": { "type": "Point", "coordinates": [ -46.3326578, -23.9687813 ] } },
{ "type": "Feature", "properties": { "CNPJ": 45470910000176, "AGENTE": "PEDRO_VITOR_FERNANDES_VENCHIARUTTI", "ACAO": "REALIZAR_SEGUNDA_VISITA", "RAZAO_SOCIAL": "ANA_KELLY_DE_ARAUJO_SILVA_09900931408_-_ANA_KELLY_DE_ARAUJO_SILVA", "ENDERECO": "AVENIDA_ANA_COSTA_549_GONZAGA_SANTOS", "CIDADE": "SANTOS", "LATITUDE": -23.9688351, "LONGITUDE": -46.3327517 }, "geometry": { "type": "Point", "coordinates": [ -46.3327517, -23.9688351 ] } },
{ "type": "Feature", "properties": { "CNPJ": 53739998000107, "AGENTE": "PEDRO_VITOR_FERNANDES_VENCHIARUTTI", "ACAO": "REALIZAR_SEGUNDA_VISITA", "RAZAO_SOCIAL": "53.739.998_PALOMA_SOARES_TEIXEIRA_-_PALOMA_SOARES_TEIXEIRA", "ENDERECO": "AVENIDA_ANA_COSTA_549_GONZAGA_SANTOS", "CIDADE": "SANTOS", "LATITUDE": -23.9688443, "LONGITUDE": -46.3327386 }, "geometry": { "type": "Point", "coordinates": [ -46.3327386, -23.9688443 ] } },
{ "type": "Feature", "properties": { "CNPJ": 40221866000147, "AGENTE": "PEDRO_VITOR_FERNANDES_VENCHIARUTTI", "ACAO": "REALIZAR_SEGUNDA_VISITA", "RAZAO_SOCIAL": "CEMAVIE_-_COMERCIO_DE_PERFUMES_E_VESTUARIO_LTDA_-_LORD_GIFTS", "ENDERECO": "AVENIDA_ANA_COSTA_549_GONZAGA_SANTOS", "CIDADE": "SANTOS", "LATITUDE": -23.9688557, "LONGITUDE": -46.3326161 }, "geometry": { "type": "Point", "coordinates": [ -46.3326161, -23.9688557 ] } },
{ "type": "Feature", "properties": { "CNPJ": 334159000142, "AGENTE": "PEDRO_VITOR_FERNANDES_VENCHIARUTTI", "ACAO": "REALIZAR_SEGUNDA_VISITA", "RAZAO_SOCIAL": "PURA_VAIDADE-COSMETICOS_E_PRESENTES_LTDA_-_PURA_VAIDADE", "ENDERECO": "AVENIDA_ANA_COSTA_549_GONZAGA_SANTOS", "CIDADE": "SANTOS", "LATITUDE": -23.9688583, "LONGITUDE": -46.332311 }, "geometry": { "type": "Point", "coordinates": [ -46.332311, -23.9688583 ] } },
{ "type": "Feature", "properties": { "CNPJ": 53047465000164, "AGENTE": "PEDRO_VITOR_FERNANDES_VENCHIARUTTI", "ACAO": "REALIZAR_SEGUNDA_VISITA", "RAZAO_SOCIAL": "53.047.465_JOSE_LUCIANO_TAPIA_URETA_-_JOSE_LUCIANO_TAPIA_URETA", "ENDERECO": "AVENIDA_ANA_COSTA_549_GONZAGA_SANTOS", "CIDADE": "SANTOS", "LATITUDE": -23.9688602, "LONGITUDE": -46.3325866 }, "geometry": { "type": "Point", "coordinates": [ -46.3325866, -23.9688602 ] } },
{ "type": "Feature", "properties": { "CNPJ": 20728535000190, "AGENTE": "PEDRO_VITOR_FERNANDES_VENCHIARUTTI", "ACAO": "REALIZAR_SEGUNDA_VISITA", "RAZAO_SOCIAL": "CAFE_TARANTINO_LTDA_-_CAFE_TARANTINO", "ENDERECO": "AVENIDA_ANA_COSTA_549_GONZAGA_SANTOS", "CIDADE": "SANTOS", "LATITUDE": -23.9688942, "LONGITUDE": -46.3324215 }, "geometry": { "type": "Point", "coordinates": [ -46.3324215, -23.9688942 ] } },
{ "type": "Feature", "properties": { "CNPJ": 24925304000209, "AGENTE": "PEDRO_VITOR_FERNANDES_VENCHIARUTTI", "ACAO": "REALIZAR_SEGUNDA_VISITA", "RAZAO_SOCIAL": "EPIC_GAME_-_LOJA_DE_BRINQUEDOS_LTDA_-_EPIC_GAMES", "ENDERECO": "AVENIDA_ANA_COSTA_549_GONZAGA_SANTOS", "CIDADE": "SANTOS", "LATITUDE": -23.9689563, "LONGITUDE": -46.332509 }, "geometry": { "type": "Point", "coordinates": [ -46.332509, -23.9689563 ] } },
{ "type": "Feature", "properties": { "CNPJ": 20394879000100, "AGENTE": "PEDRO_VITOR_FERNANDES_VENCHIARUTTI", "ACAO": "REALIZAR_SEGUNDA_VISITA", "RAZAO_SOCIAL": "OTICA_KLIVER_LTDA_-_OTICA_KLIVER", "ENDERECO": "AVENIDA_ANA_COSTA_549_GONZAGA_SANTOS", "CIDADE": "SANTOS", "LATITUDE": -23.9689701, "LONGITUDE": -46.3322644 }, "geometry": { "type": "Point", "coordinates": [ -46.3322644, -23.9689701 ] } },
{ "type": "Feature", "properties": { "CNPJ": 54764070000145, "AGENTE": "PEDRO_VITOR_FERNANDES_VENCHIARUTTI", "ACAO": "REALIZAR_SEGUNDA_VISITA", "RAZAO_SOCIAL": "GISELLE_MARIA_MARINO_LARANJEIRA_LTDA_-_VILLA_CASARINO", "ENDERECO": "AVENIDA_ANA_COSTA_549_GONZAGA_SANTOS", "CIDADE": "SANTOS", "LATITUDE": -23.9690714, "LONGITUDE": -46.332485 }, "geometry": { "type": "Point", "coordinates": [ -46.332485, -23.9690714 ] } },
{ "type": "Feature", "properties": { "CNPJ": 55001558000183, "AGENTE": "PEDRO_VITOR_FERNANDES_VENCHIARUTTI", "ACAO": "REALIZAR_SEGUNDA_VISITA", "RAZAO_SOCIAL": "55.001.558_LETICIA_DE_BARROS_FRANCISCO_-_LETICIA_DE_BARROS_FRANCISCO", "ENDERECO": "AVENIDA_PRESIDENTE_WILSON_143_JOSE_MENINO_SANTOS", "CIDADE": "SANTOS", "LATITUDE": -23.9676012, "LONGITUDE": -46.3474922 }, "geometry": { "type": "Point", "coordinates": [ -46.3474922, -23.9676012 ] } },
{ "type": "Feature", "properties": { "CNPJ": 591506000112, "AGENTE": "PEDRO_VITOR_FERNANDES_VENCHIARUTTI", "ACAO": "REALIZAR_SEGUNDA_VISITA", "RAZAO_SOCIAL": "TIAGO_TOLEDO_CAPPARELLI_-_SOS_BEBIDAS", "ENDERECO": "AVENIDA_PRESIDENTE_WILSON_1967_JOSE_MENINO_SANTOS", "CIDADE": "SANTOS", "LATITUDE": -23.968679, "LONGITUDE": -46.3527036 }, "geometry": { "type": "Point", "coordinates": [ -46.3527036, -23.968679 ] } },
{ "type": "Feature", "properties": { "CNPJ": 44353386000190, "AGENTE": "PEDRO_VITOR_FERNANDES_VENCHIARUTTI", "ACAO": "REALIZAR_SEGUNDA_VISITA", "RAZAO_SOCIAL": "ACAI_E_SORVETES_LTDA_-_ACAI_DA_BARRA", "ENDERECO": "RUA_DOUTOR_GALEAO_CARVALHAL_50_GONZAGA_SANTOS", "CIDADE": "SANTOS", "LATITUDE": -23.9674389, "LONGITUDE": -46.3319516 }, "geometry": { "type": "Point", "coordinates": [ -46.3319516, -23.9674389 ] } },
{ "type": "Feature", "properties": { "CNPJ": 52463095000183, "AGENTE": "PEDRO_VITOR_FERNANDES_VENCHIARUTTI", "ACAO": "REALIZAR_SEGUNDA_VISITA", "RAZAO_SOCIAL": "52.463.095_CAMILA_SILVA_DE_OLIVEIRA_-_MODELLIZ_MODA_E_ESTETICA", "ENDERECO": "RUA_JARANAS_46_MARE_MANSA_GUARUJA", "CIDADE": "GUARUJA", "LATITUDE": -23.9762129, "LONGITUDE": -46.1945077 }, "geometry": { "type": "Point", "coordinates": [ -46.1945077, -23.9762129 ] } },
{ "type": "Feature", "properties": { "CNPJ": 14991448000129, "AGENTE": "PEDRO_VITOR_FERNANDES_VENCHIARUTTI", "ACAO": "REALIZAR_SEGUNDA_VISITA", "RAZAO_SOCIAL": "FABIANO_DA_COSTA_VIEIRA_TELECOM_-_INOVA_FIBRA", "ENDERECO": "RUA_LUIZ_CUSTODIO_DO_VALLE_428_BALNEARIO_PRAIA_DO_PERNAMBUCO_GUARUJA", "CIDADE": "GUARUJA", "LATITUDE": -23.9767359, "LONGITUDE": -46.1936987 }, "geometry": { "type": "Point", "coordinates": [ -46.1936987, -23.9767359 ] } },
{ "type": "Feature", "properties": { "CNPJ": 30578557000175, "AGENTE": "PEDRO_VITOR_FERNANDES_VENCHIARUTTI", "ACAO": "REALIZAR_SEGUNDA_VISITA", "RAZAO_SOCIAL": "LUCAS_GONCALVES_PAULO_DOS_SANTOS_-_CANTINHO_DOCE_DRINKS", "ENDERECO": "RUA_LUIZ_CUSTODIO_DO_VALLE_644_BALNEARIO_PRAIA_DO_PERNAMBUCO_GUARUJA", "CIDADE": "GUARUJA", "LATITUDE": -23.9751679, "LONGITUDE": -46.1954682 }, "geometry": { "type": "Point", "coordinates": [ -46.1954682, -23.9751679 ] } },
{ "type": "Feature", "properties": { "CNPJ": 12829908000191, "AGENTE": "PEDRO_VITOR_FERNANDES_VENCHIARUTTI", "ACAO": "REALIZAR_SEGUNDA_VISITA", "RAZAO_SOCIAL": "LIDIMARCO_BARRETO_JARDIM_30996831835_-_MUNDIAL_ELETRONICOS", "ENDERECO": "RUA_LUIZ_CUSTODIO_DO_VALLE_674_BALNEARIO_PRAIA_DO_PERNAMBUCO_GUARUJA", "CIDADE": "GUARUJA", "LATITUDE": -23.9750743, "LONGITUDE": -46.1956901 }, "geometry": { "type": "Point", "coordinates": [ -46.1956901, -23.9750743 ] } },
{ "type": "Feature", "properties": { "CNPJ": 12831523000169, "AGENTE": "PEDRO_VITOR_FERNANDES_VENCHIARUTTI", "ACAO": "REALIZAR_SEGUNDA_VISITA", "RAZAO_SOCIAL": "ROSIANE_ALVES_NASCIMENTO_-_RESTAURANTE_-_RESTAURANTE_SABOR_CASEIRO", "ENDERECO": "RUA_NEWTON_PRADO_25_JOSE_MENINO_SANTOS", "CIDADE": "SANTOS", "LATITUDE": -23.9671523, "LONGITUDE": -46.3507182 }, "geometry": { "type": "Point", "coordinates": [ -46.3507182, -23.9671523 ] } },
{ "type": "Feature", "properties": { "CNPJ": 60288550000180, "AGENTE": "PEDRO_VITOR_FERNANDES_VENCHIARUTTI", "ACAO": "REALIZAR_SEGUNDA_VISITA", "RAZAO_SOCIAL": "60.288.550_YASMIN_NOGUEIRA_DE_JESUS_-_YASMIN_NOGUEIRA_DE_JESUS", "ENDERECO": "RUA_RIO_GRANDE_DO_NORTE_70_POMPEIA_SANTOS", "CIDADE": "SANTOS", "LATITUDE": -23.9646242, "LONGITUDE": -46.3409553 }, "geometry": { "type": "Point", "coordinates": [ -46.3409553, -23.9646242 ] } },
{ "type": "Feature", "properties": { "CNPJ": 4977296700018, "AGENTE": "PEDRO_VITOR_FERNANDES_VENCHIARUTTI", "ACAO": "REALIZAR_PRIMEIRA_VISITA_POTENCIAL", "RAZAO_SOCIAL": "ANA_RITA_LEOPOLDINA", "ENDERECO": "ESTRADA_BERTIOGA_-_DO_KM_14401_AO_FIM_0_BALNEARIO_PRAIA_DO_PEREQUE_GUARUJA_BRASIL", "CIDADE": "GUARUJA", "LATITUDE": -23.9115947, "LONGITUDE": -46.1808588 }, "geometry": { "type": "Point", "coordinates": [ -46.1808588, -23.9115947 ] } },
{ "type": "Feature", "properties": { "CNPJ": 36666190000128, "AGENTE": "PEDRO_VITOR_FERNANDES_VENCHIARUTTI", "ACAO": "REALIZAR_PRIMEIRA_VISITA_POTENCIAL", "RAZAO_SOCIAL": "M._M._ADMINISTRADORA_DE_BENS_SERVICOS_E_IMOVEIS_LTDA", "ENDERECO": "RUA_JOSEFA_HERMINIA_CALDA_4_JARDIM_PROGRESSO_(VICENTE_DE_CARVALHO)_GUARUJA_BRASIL", "CIDADE": "SANTOS", "LATITUDE": -23.9348264, "LONGITUDE": -46.2891766 }, "geometry": { "type": "Point", "coordinates": [ -46.2891766, -23.9348264 ] } },
{ "type": "Feature", "properties": { "CNPJ": 32151216000144, "AGENTE": "PEDRO_VITOR_FERNANDES_VENCHIARUTTI", "ACAO": "REALIZAR_PRIMEIRA_VISITA_POTENCIAL", "RAZAO_SOCIAL": "ALESSANDRA_DE_GOES_MACIEL", "ENDERECO": "RUA_JOSE_FREIRE_56_JARDIM_PROGRESSO_(VICENTE_DE_CARVALHO)_GUARUJA_BRASIL", "CIDADE": "GUARUJA", "LATITUDE": -23.9368692, "LONGITUDE": -46.2844722 }, "geometry": { "type": "Point", "coordinates": [ -46.2844722, -23.9368692 ] } },
{ "type": "Feature", "properties": { "CNPJ": 3671595000014, "AGENTE": "PEDRO_VITOR_FERNANDES_VENCHIARUTTI", "ACAO": "REALIZAR_PRIMEIRA_VISITA_POTENCIAL", "RAZAO_SOCIAL": "J._M._DA_SILVA_PLACAS_AUTOMOTIVAS", "ENDERECO": "AVENIDA_CASTELO_BRANCO_302_JARDIM_CUNHAMBEBE_(VICENTE_DE_CARVALHO)_GUARUJA_BRASIL", "CIDADE": "BAURU", "LATITUDE": -23.937563, "LONGITUDE": -46.3053317 }, "geometry": { "type": "Point", "coordinates": [ -46.3053317, -23.937563 ] } },
{ "type": "Feature", "properties": { "CNPJ": 1259437600015, "AGENTE": "PEDRO_VITOR_FERNANDES_VENCHIARUTTI", "ACAO": "REALIZAR_PRIMEIRA_VISITA_POTENCIAL", "RAZAO_SOCIAL": "JOCELMA_PEREIRA_DA_SILVA_GOMES", "ENDERECO": "AVENIDA_THIAGO_FERREIRA_-_ATE_491_-_LADO_IMPAR_0_VILA_ALICE_(VICENTE_DE_CARVALHO)_GUARUJA_BRASIL", "CIDADE": "GUARUJA", "LATITUDE": -23.9402249, "LONGITUDE": -46.3059219 }, "geometry": { "type": "Point", "coordinates": [ -46.3059219, -23.9402249 ] } },
{ "type": "Feature", "properties": { "CNPJ": 23606138000134, "AGENTE": "PEDRO_VITOR_FERNANDES_VENCHIARUTTI", "ACAO": "REALIZAR_PRIMEIRA_VISITA_POTENCIAL", "RAZAO_SOCIAL": "AXIOS_SERVICOS_EDUCACIONAIS_LTDA", "ENDERECO": "RUA_PADRE_ANCHIETA_168_VILA_ALICE_(VICENTE_DE_CARVALHO)_GUARUJA_BRASIL", "CIDADE": "GUARUJA", "LATITUDE": -23.940293, "LONGITUDE": -46.3033573 }, "geometry": { "type": "Point", "coordinates": [ -46.3033573, -23.940293 ] } },
{ "type": "Feature", "properties": { "CNPJ": 4352841600019, "AGENTE": "PEDRO_VITOR_FERNANDES_VENCHIARUTTI", "ACAO": "REALIZAR_PRIMEIRA_VISITA_POTENCIAL", "RAZAO_SOCIAL": "DANIELA_ALVES_DE_OLIVEIRA_40224280821", "ENDERECO": "RUA_MATO_GROSSO_164_VILA_ALICE_(VICENTE_DE_CARVALHO)_GUARUJA_BRASIL", "CIDADE": "GUARUJA", "LATITUDE": -23.9403009, "LONGITUDE": -46.2979455 }, "geometry": { "type": "Point", "coordinates": [ -46.2979455, -23.9403009 ] } },
{ "type": "Feature", "properties": { "CNPJ": 52507784000142, "AGENTE": "PEDRO_VITOR_FERNANDES_VENCHIARUTTI", "ACAO": "REALIZAR_PRIMEIRA_VISITA_POTENCIAL", "RAZAO_SOCIAL": "GABRIELA_PEREIRA_DE_SOUZA", "ENDERECO": "RUA_BAURU_71_VILA_AUREA_(VICENTE_DE_CARVALHO)_GUARUJA_BRASIL", "CIDADE": "GUARUJA", "LATITUDE": -23.9408084, "LONGITUDE": -46.2844871 }, "geometry": { "type": "Point", "coordinates": [ -46.2844871, -23.9408084 ] } },
{ "type": "Feature", "properties": { "CNPJ": 25063062000173, "AGENTE": "PEDRO_VITOR_FERNANDES_VENCHIARUTTI", "ACAO": "REALIZAR_PRIMEIRA_VISITA_POTENCIAL", "RAZAO_SOCIAL": "MINIMERCADO_PRESIDENTE_VARGAS_LTDA", "ENDERECO": "AVENIDA_PRESIDENTE_VARGAS_515_PARQUE_ESTUARIO_(VICENTE_DE_CARVALHO)_GUARUJA_BRASIL", "CIDADE": "GUARUJA", "LATITUDE": -23.9413476, "LONGITUDE": -46.293774 }, "geometry": { "type": "Point", "coordinates": [ -46.293774, -23.9413476 ] } },
{ "type": "Feature", "properties": { "CNPJ": 26718802000125, "AGENTE": "PEDRO_VITOR_FERNANDES_VENCHIARUTTI", "ACAO": "REALIZAR_PRIMEIRA_VISITA_POTENCIAL", "RAZAO_SOCIAL": "OLIVER_LIFE_LTDA", "ENDERECO": "RUA_OTELO_RODRIGUES_FRANCO_563_CANTO_DO_FORTE_PRAIA_GRANDE_BRASIL", "CIDADE": "PRAIA_GRANDE", "LATITUDE": -23.9418059, "LONGITUDE": -46.2955986 }, "geometry": { "type": "Point", "coordinates": [ -46.2955986, -23.9418059 ] } },
{ "type": "Feature", "properties": { "CNPJ": 10281688000189, "AGENTE": "PEDRO_VITOR_FERNANDES_VENCHIARUTTI", "ACAO": "REALIZAR_PRIMEIRA_VISITA_POTENCIAL", "RAZAO_SOCIAL": "RICARDO_DA_COSTA_FREITAS", "ENDERECO": "RUA_MARANHAO_87_JARDIM_SANTENSE_GUARUJA_BRASIL", "CIDADE": "GUARUJA", "LATITUDE": -23.9433, "LONGITUDE": -46.3026781 }, "geometry": { "type": "Point", "coordinates": [ -46.3026781, -23.9433 ] } },
{ "type": "Feature", "properties": { "CNPJ": 39792913000123, "AGENTE": "PEDRO_VITOR_FERNANDES_VENCHIARUTTI", "ACAO": "REALIZAR_PRIMEIRA_VISITA_POTENCIAL", "RAZAO_SOCIAL": "PEDRO_AZEVEDO_DOS_SANTOS", "ENDERECO": "RUA_HENCHI_MATSUMOTO_103_SITIO_PAECARA_(VICENTE_DE_CARVALHO)_GUARUJA_BRASIL", "CIDADE": "GUARUJA", "LATITUDE": -23.9447059, "LONGITUDE": -46.3027936 }, "geometry": { "type": "Point", "coordinates": [ -46.3027936, -23.9447059 ] } },
{ "type": "Feature", "properties": { "CNPJ": 235168010001, "AGENTE": "PEDRO_VITOR_FERNANDES_VENCHIARUTTI", "ACAO": "REALIZAR_PRIMEIRA_VISITA_POTENCIAL", "RAZAO_SOCIAL": "ANDREA_DURAN_MARTINS", "ENDERECO": "RUA_RUI_BARBOSA_345_SITIO_PAECARA_(VICENTE_DE_CARVALHO)_GUARUJA_BRASIL", "CIDADE": "SANTOS", "LATITUDE": -23.9465815, "LONGITUDE": -46.2936525 }, "geometry": { "type": "Point", "coordinates": [ -46.2936525, -23.9465815 ] } },
{ "type": "Feature", "properties": { "CNPJ": 1673769300013, "AGENTE": "PEDRO_VITOR_FERNANDES_VENCHIARUTTI", "ACAO": "REALIZAR_PRIMEIRA_VISITA_POTENCIAL", "RAZAO_SOCIAL": "JAQUELINE_DANTAS_DE_SOUZA_COSTA", "ENDERECO": "RUA_FRANCA_100_VILA_AUREA_(VICENTE_DE_CARVALHO)_GUARUJA_BRASIL", "CIDADE": "GUARUJA", "LATITUDE": -23.9469288, "LONGITUDE": -46.2839396 }, "geometry": { "type": "Point", "coordinates": [ -46.2839396, -23.9469288 ] } },
{ "type": "Feature", "properties": { "CNPJ": 4452636300013, "AGENTE": "PEDRO_VITOR_FERNANDES_VENCHIARUTTI", "ACAO": "REALIZAR_PRIMEIRA_VISITA_POTENCIAL", "RAZAO_SOCIAL": "NILZA_DINIZ_DA_SILVA", "ENDERECO": "RUA_SAO_MIGUEL_-_DE_605/606_AO_FIM_623_SITIO_PAECARA_(VICENTE_DE_CARVALHO)_GUARUJA_BRASIL", "CIDADE": "GUARUJA", "LATITUDE": -23.9493301, "LONGITUDE": -46.2911063 }, "geometry": { "type": "Point", "coordinates": [ -46.2911063, -23.9493301 ] } },
{ "type": "Feature", "properties": { "CNPJ": 42743050000109, "AGENTE": "PEDRO_VITOR_FERNANDES_VENCHIARUTTI", "ACAO": "REALIZAR_PRIMEIRA_VISITA_POTENCIAL", "RAZAO_SOCIAL": "ANDREWS_FLORENCIO_DE_ANDRADE", "ENDERECO": "RUA_SAO_JORGE_428_SITIO_PAECARA_(VICENTE_DE_CARVALHO)_GUARUJA_BRASIL", "CIDADE": "GUARUJA", "LATITUDE": -23.9495478, "LONGITUDE": -46.2978736 }, "geometry": { "type": "Point", "coordinates": [ -46.2978736, -23.9495478 ] } },
{ "type": "Feature", "properties": { "CNPJ": 38425205000191, "AGENTE": "PEDRO_VITOR_FERNANDES_VENCHIARUTTI", "ACAO": "REALIZAR_PRIMEIRA_VISITA_POTENCIAL", "RAZAO_SOCIAL": "EVERTON_SIQUEIRA_SOUZA", "ENDERECO": "RUA_SANTA_HELENA_36_SITIO_PAECARA_(VICENTE_DE_CARVALHO)_GUARUJA_BRASIL", "CIDADE": "GUARUJA", "LATITUDE": -23.9502043, "LONGITUDE": -46.2965292 }, "geometry": { "type": "Point", "coordinates": [ -46.2965292, -23.9502043 ] } },
{ "type": "Feature", "properties": { "CNPJ": 49268434000166, "AGENTE": "PEDRO_VITOR_FERNANDES_VENCHIARUTTI", "ACAO": "REALIZAR_PRIMEIRA_VISITA_POTENCIAL", "RAZAO_SOCIAL": "49.268.434_FERNANDA_DOS_SANTOS", "ENDERECO": "RUA_SAO_FRANCISCO_67_SITIO_PAECARA_(VICENTE_DE_CARVALHO)_GUARUJA_BRASIL", "CIDADE": "GUARUJA", "LATITUDE": -23.9513858, "LONGITUDE": -46.2984082 }, "geometry": { "type": "Point", "coordinates": [ -46.2984082, -23.9513858 ] } },
{ "type": "Feature", "properties": { "CNPJ": 46048362000153, "AGENTE": "PEDRO_VITOR_FERNANDES_VENCHIARUTTI", "ACAO": "REALIZAR_PRIMEIRA_VISITA_POTENCIAL", "RAZAO_SOCIAL": "REINALDO_ALVES_TENORIO", "ENDERECO": "AVENIDA_GUARUJA_505_SITIO_PAECARA_(VICENTE_DE_CARVALHO)_GUARUJA_BRASIL", "CIDADE": "GUARUJA", "LATITUDE": -23.9514882, "LONGITUDE": -46.2884652 }, "geometry": { "type": "Point", "coordinates": [ -46.2884652, -23.9514882 ] } },
{ "type": "Feature", "properties": { "CNPJ": 440525240001, "AGENTE": "PEDRO_VITOR_FERNANDES_VENCHIARUTTI", "ACAO": "REALIZAR_PRIMEIRA_VISITA_POTENCIAL", "RAZAO_SOCIAL": "SANDRO_ROGERIO_FARIAS_FAGUNDES", "ENDERECO": "RUA_SAO_JOSE_DOS_CAMPOS_39_VILA_AUREA_(VICENTE_DE_CARVALHO)_GUARUJA_BRASIL", "CIDADE": "GUARUJA", "LATITUDE": -23.9523842, "LONGITUDE": -46.2801467 }, "geometry": { "type": "Point", "coordinates": [ -46.2801467, -23.9523842 ] } },
{ "type": "Feature", "properties": { "CNPJ": 22641822000194, "AGENTE": "PEDRO_VITOR_FERNANDES_VENCHIARUTTI", "ACAO": "REALIZAR_PRIMEIRA_VISITA_POTENCIAL", "RAZAO_SOCIAL": "LUCIANO_DIONISIO_CAVALCANTI", "ENDERECO": "RUA_MARAJOARA_205_SITIO_PAECARA_(VICENTE_DE_CARVALHO)_GUARUJA_BRASIL", "CIDADE": "GUARUJA", "LATITUDE": -23.9533062, "LONGITUDE": -46.2852877 }, "geometry": { "type": "Point", "coordinates": [ -46.2852877, -23.9533062 ] } },
{ "type": "Feature", "properties": { "CNPJ": 4314901300013, "AGENTE": "PEDRO_VITOR_FERNANDES_VENCHIARUTTI", "ACAO": "REALIZAR_PRIMEIRA_VISITA_POTENCIAL", "RAZAO_SOCIAL": "SUELLEN_PAZ_FRANCISCO", "ENDERECO": "RUA_MARAJOARA_235_SITIO_PAECARA_(VICENTE_DE_CARVALHO)_GUARUJA_BRASIL", "CIDADE": "GUARUJA", "LATITUDE": -23.9535762, "LONGITUDE": -46.2852848 }, "geometry": { "type": "Point", "coordinates": [ -46.2852848, -23.9535762 ] } },
{ "type": "Feature", "properties": { "CNPJ": 20439083000127, "AGENTE": "PEDRO_VITOR_FERNANDES_VENCHIARUTTI", "ACAO": "REALIZAR_PRIMEIRA_VISITA_POTENCIAL", "RAZAO_SOCIAL": "JAQUELINE_SUSAN_DE_CAMPOS", "ENDERECO": "RUA_TIRADENTES_12_SITIO_PAECARA_(VICENTE_DE_CARVALHO)_GUARUJA_BRASIL", "CIDADE": "GUARUJA", "LATITUDE": -23.9537908, "LONGITUDE": -46.2992485 }, "geometry": { "type": "Point", "coordinates": [ -46.2992485, -23.9537908 ] } },
{ "type": "Feature", "properties": { "CNPJ": 44193257000182, "AGENTE": "PEDRO_VITOR_FERNANDES_VENCHIARUTTI", "ACAO": "REALIZAR_PRIMEIRA_VISITA_POTENCIAL", "RAZAO_SOCIAL": "SHEILA_ARAUJO_BAIRRADAS", "ENDERECO": "RUA_ANTONIO_MONTEIRO_DA_CRUZ_825_JARDIM_MONTEIRO_DA_CRUZ_(VICENTE_DE_CARVALHO)_GUARUJA_BRASIL", "CIDADE": "GUARUJA", "LATITUDE": -23.9548752, "LONGITUDE": -46.2814175 }, "geometry": { "type": "Point", "coordinates": [ -46.2814175, -23.9548752 ] } },
{ "type": "Feature", "properties": { "CNPJ": 13108061000119, "AGENTE": "PEDRO_VITOR_FERNANDES_VENCHIARUTTI", "ACAO": "REALIZAR_PRIMEIRA_VISITA_POTENCIAL", "RAZAO_SOCIAL": "MAURICIO_VICENTE_SANTOS_DE_SOUZA", "ENDERECO": "AVENIDA_ALVORADA_585_JARDIM_ALVORADA_(VICENTE_DE_CARVALHO)_GUARUJA_BRASIL", "CIDADE": "GUARUJA", "LATITUDE": -23.9567432, "LONGITUDE": -46.2838708 }, "geometry": { "type": "Point", "coordinates": [ -46.2838708, -23.9567432 ] } },
{ "type": "Feature", "properties": { "CNPJ": 43645367000175, "AGENTE": "PEDRO_VITOR_FERNANDES_VENCHIARUTTI", "ACAO": "REALIZAR_PRIMEIRA_VISITA_POTENCIAL", "RAZAO_SOCIAL": "43.645.367_PAULO_PROL_MEDEIROS", "ENDERECO": "AVENIDA_DOUTOR_MOURA_RIBEIRO_125_MARAPE_SANTOS_BRASIL", "CIDADE": "SANTOS", "LATITUDE": -23.9575384, "LONGITUDE": -46.3505954 }, "geometry": { "type": "Point", "coordinates": [ -46.3505954, -23.9575384 ] } },
{ "type": "Feature", "properties": { "CNPJ": 47029289000135, "AGENTE": "PEDRO_VITOR_FERNANDES_VENCHIARUTTI", "ACAO": "REALIZAR_PRIMEIRA_VISITA_POTENCIAL", "RAZAO_SOCIAL": "ANDERSON_ATILA_MORI_DIEHL", "ENDERECO": "RUA_SATURNINO_DE_BRITO_-_DE_157/158_AO_FIM_226_MARAPE_SANTOS_BRASIL", "CIDADE": "SANTOS", "LATITUDE": -23.9580867, "LONGITUDE": -46.3461168 }, "geometry": { "type": "Point", "coordinates": [ -46.3461168, -23.9580867 ] } },
{ "type": "Feature", "properties": { "CNPJ": 44333103000149, "AGENTE": "PEDRO_VITOR_FERNANDES_VENCHIARUTTI", "ACAO": "REALIZAR_PRIMEIRA_VISITA_POTENCIAL", "RAZAO_SOCIAL": "FLAVIA_CAETANA_RODRIGUES_SOUZA", "ENDERECO": "RUA_CAPITAO_ALBERTO_MENDES_JUNIOR_631_JARDIM_BOA_ESPERANCA_(VICENTE_DE_CARVALHO)_GUARUJA_BRASIL", "CIDADE": "GUARUJA", "LATITUDE": -23.9585474, "LONGITUDE": -46.2803077 }, "geometry": { "type": "Point", "coordinates": [ -46.2803077, -23.9585474 ] } },
{ "type": "Feature", "properties": { "CNPJ": 41066933000169, "AGENTE": "PEDRO_VITOR_FERNANDES_VENCHIARUTTI", "ACAO": "REALIZAR_PRIMEIRA_VISITA_POTENCIAL", "RAZAO_SOCIAL": "41.066.933_FABIO_HERDY_MOURA", "ENDERECO": "RUA_CARLOS_GOMES_215_MARAPE_SANTOS_BRASIL", "CIDADE": "SANTOS", "LATITUDE": -23.9587552, "LONGITUDE": -46.344 }, "geometry": { "type": "Point", "coordinates": [ -46.344, -23.9587552 ] } },
{ "type": "Feature", "properties": { "CNPJ": 11841029000112, "AGENTE": "PEDRO_VITOR_FERNANDES_VENCHIARUTTI", "ACAO": "REALIZAR_PRIMEIRA_VISITA_POTENCIAL", "RAZAO_SOCIAL": "11.841.029_RAFAEL_AMANCIO_DOS_SANTOS", "ENDERECO": "RUA_CAPITAO_ALBERTO_MENDES_JUNIOR_405_JARDIM_BOA_ESPERANCA_(VICENTE_DE_CARVALHO)_GUARUJA_BRASIL", "CIDADE": "GUARUJA", "LATITUDE": -23.9591105, "LONGITUDE": -46.282363 }, "geometry": { "type": "Point", "coordinates": [ -46.282363, -23.9591105 ] } },
{ "type": "Feature", "properties": { "CNPJ": 475169310001, "AGENTE": "PEDRO_VITOR_FERNANDES_VENCHIARUTTI", "ACAO": "REALIZAR_PRIMEIRA_VISITA_POTENCIAL", "RAZAO_SOCIAL": "47.516.931_LARISSA_CAMARGO_NASCIMENTO", "ENDERECO": "RUA_GODOFREDO_FRAGA_10_MARAPE_SANTOS_BRASIL", "CIDADE": "SANTOS", "LATITUDE": -23.9592614, "LONGITUDE": -46.3488633 }, "geometry": { "type": "Point", "coordinates": [ -46.3488633, -23.9592614 ] } },
{ "type": "Feature", "properties": { "CNPJ": 51598769000194, "AGENTE": "PEDRO_VITOR_FERNANDES_VENCHIARUTTI", "ACAO": "REALIZAR_PRIMEIRA_VISITA_POTENCIAL", "RAZAO_SOCIAL": "PORTAL_CONSORCIO_FACIL_LTDA", "ENDERECO": "RUA_GODOFREDO_FRAGA_10_MARAPE_SANTOS_BRASIL", "CIDADE": "SANTOS", "LATITUDE": -23.9592614, "LONGITUDE": -46.3488633 }, "geometry": { "type": "Point", "coordinates": [ -46.3488633, -23.9592614 ] } },
{ "type": "Feature", "properties": { "CNPJ": 45143376000193, "AGENTE": "PEDRO_VITOR_FERNANDES_VENCHIARUTTI", "ACAO": "REALIZAR_PRIMEIRA_VISITA_POTENCIAL", "RAZAO_SOCIAL": "THALITA_RODRIGUES_DE_SOUZA", "ENDERECO": "RUA_JOAO_VENEZIANO_357_JARDIM_BOA_ESPERANCA_(VICENTE_DE_CARVALHO)_GUARUJA_BRASIL", "CIDADE": "GUARUJA", "LATITUDE": -23.9597312, "LONGITUDE": -46.2847935 }, "geometry": { "type": "Point", "coordinates": [ -46.2847935, -23.9597312 ] } },
{ "type": "Feature", "properties": { "CNPJ": 36235354000162, "AGENTE": "PEDRO_VITOR_FERNANDES_VENCHIARUTTI", "ACAO": "REALIZAR_PRIMEIRA_VISITA_POTENCIAL", "RAZAO_SOCIAL": "ALINE_DOS_SANTOS_DE_ABREU", "ENDERECO": "AVENIDA_CORONEL_AVIADOR_JOAO_TORRES_LEITE_345_JARDIM_BOA_ESPERANCA_(VICENTE_DE_CARVALHO)_GUARUJA_BRASIL", "CIDADE": "GUARUJA", "LATITUDE": -23.9603508, "LONGITUDE": -46.2859726 }, "geometry": { "type": "Point", "coordinates": [ -46.2859726, -23.9603508 ] } },
{ "type": "Feature", "properties": { "CNPJ": 39928453000118, "AGENTE": "PEDRO_VITOR_FERNANDES_VENCHIARUTTI", "ACAO": "REALIZAR_PRIMEIRA_VISITA_POTENCIAL", "RAZAO_SOCIAL": "RODRIGUES_ANDRADE_LTDA", "ENDERECO": "RUA_ALFREDO_ALBERTINI_272_MARAPE_SANTOS_BRASIL", "CIDADE": "SANTOS", "LATITUDE": -23.9605113, "LONGITUDE": -46.3474799 }, "geometry": { "type": "Point", "coordinates": [ -46.3474799, -23.9605113 ] } },
{ "type": "Feature", "properties": { "CNPJ": 38328404000181, "AGENTE": "PEDRO_VITOR_FERNANDES_VENCHIARUTTI", "ACAO": "REALIZAR_PRIMEIRA_VISITA_POTENCIAL", "RAZAO_SOCIAL": "VALERIA_DA_SILVA_PEREIRA", "ENDERECO": "RUA_MINISTRO_XAVIER_DE_TOLEDO_124_CAMPO_GRANDE_SANTOS_BRASIL", "CIDADE": "SANTOS", "LATITUDE": -23.9606744, "LONGITUDE": -46.3432378 }, "geometry": { "type": "Point", "coordinates": [ -46.3432378, -23.9606744 ] } },
{ "type": "Feature", "properties": { "CNPJ": 41762476000147, "AGENTE": "PEDRO_VITOR_FERNANDES_VENCHIARUTTI", "ACAO": "REALIZAR_PRIMEIRA_VISITA_POTENCIAL", "RAZAO_SOCIAL": "ERIK_GOMES_ARIAS", "ENDERECO": "RUA_GODOFREDO_FRAGA_66_MARAPE_SANTOS_BRASIL", "CIDADE": "SANTOS", "LATITUDE": -23.9610788, "LONGITUDE": -46.3492659 }, "geometry": { "type": "Point", "coordinates": [ -46.3492659, -23.9610788 ] } },
{ "type": "Feature", "properties": { "CNPJ": 3570407000142, "AGENTE": "PEDRO_VITOR_FERNANDES_VENCHIARUTTI", "ACAO": "REALIZAR_PRIMEIRA_VISITA_POTENCIAL", "RAZAO_SOCIAL": "RIZZIERI_LOCACAO_E_COMERCIO_DE_EQUIPAMENTOS_LTDA_ME", "ENDERECO": "RUA_JOAO_CAETANO_175_CAMPO_GRANDE_SANTOS_BRASIL", "CIDADE": "SANTOS", "LATITUDE": -23.9614819, "LONGITUDE": -46.3487784 }, "geometry": { "type": "Point", "coordinates": [ -46.3487784, -23.9614819 ] } },
{ "type": "Feature", "properties": { "CNPJ": 40422264000158, "AGENTE": "PEDRO_VITOR_FERNANDES_VENCHIARUTTI", "ACAO": "REALIZAR_PRIMEIRA_VISITA_POTENCIAL", "RAZAO_SOCIAL": "40.422.264_CHRISTIANO_CAVALLARO", "ENDERECO": "RUA_ALFREDO_SHAMMASS_22_MARAPE_SANTOS_BRASIL", "CIDADE": "SANTOS", "LATITUDE": -23.9622227, "LONGITUDE": -46.3474704 }, "geometry": { "type": "Point", "coordinates": [ -46.3474704, -23.9622227 ] } },
{ "type": "Feature", "properties": { "CNPJ": 2236224700019, "AGENTE": "PEDRO_VITOR_FERNANDES_VENCHIARUTTI", "ACAO": "REALIZAR_PRIMEIRA_VISITA_POTENCIAL", "RAZAO_SOCIAL": "IVAN_BARBOSA_DOS_SANTOS", "ENDERECO": "RUA_ALFREDO_SHAMMASS_65_MARAPE_SANTOS_BRASIL", "CIDADE": "SANTOS", "LATITUDE": -23.9623486, "LONGITUDE": -46.3500051 }, "geometry": { "type": "Point", "coordinates": [ -46.3500051, -23.9623486 ] } },
{ "type": "Feature", "properties": { "CNPJ": 24442677000148, "AGENTE": "PEDRO_VITOR_FERNANDES_VENCHIARUTTI", "ACAO": "REALIZAR_PRIMEIRA_VISITA_POTENCIAL", "RAZAO_SOCIAL": "GABRIELA_ARMESTO_BELLINI", "ENDERECO": "RUA_SATURNINO_DE_BRITO_329_MARAPE_SANTOS_BRASIL", "CIDADE": "SANTOS", "LATITUDE": -23.9626512, "LONGITUDE": -46.3462182 }, "geometry": { "type": "Point", "coordinates": [ -46.3462182, -23.9626512 ] } },
{ "type": "Feature", "properties": { "CNPJ": 52121216000109, "AGENTE": "PEDRO_VITOR_FERNANDES_VENCHIARUTTI", "ACAO": "REALIZAR_PRIMEIRA_VISITA_POTENCIAL", "RAZAO_SOCIAL": "ALEXANDRE_ANGRIMANI_LARGACHA", "ENDERECO": "AVENIDA_SENADOR_PINHEIRO_MACHADO_934_MARAPE_SANTOS_BRASIL", "CIDADE": "SANTOS", "LATITUDE": -23.9626542, "LONGITUDE": -46.3457327 }, "geometry": { "type": "Point", "coordinates": [ -46.3457327, -23.9626542 ] } },
{ "type": "Feature", "properties": { "CNPJ": 45905374000194, "AGENTE": "PEDRO_VITOR_FERNANDES_VENCHIARUTTI", "ACAO": "REALIZAR_PRIMEIRA_VISITA_POTENCIAL", "RAZAO_SOCIAL": "RODRIGO_FELIX_DA_SILVA", "ENDERECO": "RUA_MARQUES_DE_SAO_VICENTE_182_CAMPO_GRANDE_SANTOS_BRASIL", "CIDADE": "SANTOS", "LATITUDE": -23.9627765, "LONGITUDE": -46.3437008 }, "geometry": { "type": "Point", "coordinates": [ -46.3437008, -23.9627765 ] } },
{ "type": "Feature", "properties": { "CNPJ": 56334391000135, "AGENTE": "PEDRO_VITOR_FERNANDES_VENCHIARUTTI", "ACAO": "REALIZAR_PRIMEIRA_VISITA_POTENCIAL", "RAZAO_SOCIAL": "EDUARDO_FERNANDES_DE_ALMEIDA", "ENDERECO": "RUA_MANOEL_VICENTE_DE_BRITO_116_MORRINHOS_GUARUJA_BRASIL", "CIDADE": "GUARUJA", "LATITUDE": -23.9628403, "LONGITUDE": -46.2485662 }, "geometry": { "type": "Point", "coordinates": [ -46.2485662, -23.9628403 ] } },
{ "type": "Feature", "properties": { "CNPJ": 39547373000112, "AGENTE": "PEDRO_VITOR_FERNANDES_VENCHIARUTTI", "ACAO": "REALIZAR_PRIMEIRA_VISITA_POTENCIAL", "RAZAO_SOCIAL": "IRINEIA_PAULA_VIEIRA_SOUTO", "ENDERECO": "RUA_GODOFREDO_FRAGA_-_ATE_97/98_10_MARAPE_SANTOS_BRASIL", "CIDADE": "SANTOS", "LATITUDE": -23.9628456, "LONGITUDE": -46.349987 }, "geometry": { "type": "Point", "coordinates": [ -46.349987, -23.9628456 ] } },
{ "type": "Feature", "properties": { "CNPJ": 35258026000119, "AGENTE": "PEDRO_VITOR_FERNANDES_VENCHIARUTTI", "ACAO": "REALIZAR_PRIMEIRA_VISITA_POTENCIAL", "RAZAO_SOCIAL": "EMERSON_DOS_SANTOS_LOPES", "ENDERECO": "RUA_SAO_JOAO_BATISTA_239_MORRINHOS_GUARUJA_BRASIL", "CIDADE": "GUARUJA", "LATITUDE": -23.9629834, "LONGITUDE": -46.2541369 }, "geometry": { "type": "Point", "coordinates": [ -46.2541369, -23.9629834 ] } },
{ "type": "Feature", "properties": { "CNPJ": 40342667000197, "AGENTE": "PEDRO_VITOR_FERNANDES_VENCHIARUTTI", "ACAO": "REALIZAR_PRIMEIRA_VISITA_POTENCIAL", "RAZAO_SOCIAL": "VILMA_RAMOS_DA_SILVA", "ENDERECO": "RUA_DANIEL_MATOS_DA_SILVA_23_MORRINHOS_GUARUJA_BRASIL", "CIDADE": "GUARUJA", "LATITUDE": -23.9632175, "LONGITUDE": -46.2497267 }, "geometry": { "type": "Point", "coordinates": [ -46.2497267, -23.9632175 ] } },
{ "type": "Feature", "properties": { "CNPJ": 46369587000101, "AGENTE": "PEDRO_VITOR_FERNANDES_VENCHIARUTTI", "ACAO": "REALIZAR_PRIMEIRA_VISITA_POTENCIAL", "RAZAO_SOCIAL": "SUELLEN_FERREIRA_POMPEU_DE_PAULO", "ENDERECO": "RUA_ALFREDO_ALBERTINI_358_MARAPE_SANTOS_BRASIL", "CIDADE": "SANTOS", "LATITUDE": -23.963511, "LONGITUDE": -46.34772 }, "geometry": { "type": "Point", "coordinates": [ -46.34772, -23.963511 ] } },
{ "type": "Feature", "properties": { "CNPJ": 57996085000127, "AGENTE": "PEDRO_VITOR_FERNANDES_VENCHIARUTTI", "ACAO": "REALIZAR_PRIMEIRA_VISITA_POTENCIAL", "RAZAO_SOCIAL": "DNZ_TRANSPORTES_E_LOGISTICA_LTDA", "ENDERECO": "RUA_GODOFREDO_FRAGA_143_MARAPE_SANTOS_BRASIL", "CIDADE": "SANTOS", "LATITUDE": -23.9638544, "LONGITUDE": -46.3508255 }, "geometry": { "type": "Point", "coordinates": [ -46.3508255, -23.9638544 ] } },
{ "type": "Feature", "properties": { "CNPJ": 29249965000102, "AGENTE": "PEDRO_VITOR_FERNANDES_VENCHIARUTTI", "ACAO": "REALIZAR_PRIMEIRA_VISITA_POTENCIAL", "RAZAO_SOCIAL": "GABRIELA_SANTOS_MUNIZ_ALVES", "ENDERECO": "AVENIDA_GENERAL_FRANCISCO_GLYCERIO_571_JOSE_MENINO_SANTOS_BRASIL", "CIDADE": "SANTOS", "LATITUDE": -23.9638778, "LONGITUDE": -46.3440395 }, "geometry": { "type": "Point", "coordinates": [ -46.3440395, -23.9638778 ] } },
{ "type": "Feature", "properties": { "CNPJ": 2882312500013, "AGENTE": "PEDRO_VITOR_FERNANDES_VENCHIARUTTI", "ACAO": "REALIZAR_PRIMEIRA_VISITA_POTENCIAL", "RAZAO_SOCIAL": "MARLI_DOS_SANTOS_EVANGELISTA", "ENDERECO": "RUA_PARANA_950_JARDIM_BRASIL_II_RIOLANDIA_BRASIL", "CIDADE": "RIOLANDIA", "LATITUDE": -23.9646118, "LONGITUDE": -46.2478925 }, "geometry": { "type": "Point", "coordinates": [ -46.2478925, -23.9646118 ] } },
{ "type": "Feature", "properties": { "CNPJ": 29615569000143, "AGENTE": "PEDRO_VITOR_FERNANDES_VENCHIARUTTI", "ACAO": "REALIZAR_PRIMEIRA_VISITA_POTENCIAL", "RAZAO_SOCIAL": "GERSON_DI_LUCAS_GONCALVES_VIEIRA", "ENDERECO": "RUA_DOUTOR_CARLOS_ALBERTO_CURADO_1204_JOSE_MENINO_SANTOS_BRASIL", "CIDADE": "SANTOS", "LATITUDE": -23.9649599, "LONGITUDE": -46.3560461 }, "geometry": { "type": "Point", "coordinates": [ -46.3560461, -23.9649599 ] } },
{ "type": "Feature", "properties": { "CNPJ": 32286366000165, "AGENTE": "PEDRO_VITOR_FERNANDES_VENCHIARUTTI", "ACAO": "REALIZAR_PRIMEIRA_VISITA_POTENCIAL", "RAZAO_SOCIAL": "ROSEANE_DA_SILVA_DE_BRITO", "ENDERECO": "RUA_EDSON_DOS_SANTOS_SALVADOR_80_MORRINHOS_GUARUJA_BRASIL", "CIDADE": "GUARUJA", "LATITUDE": -23.9650096, "LONGITUDE": -46.2532095 }, "geometry": { "type": "Point", "coordinates": [ -46.2532095, -23.9650096 ] } },
{ "type": "Feature", "properties": { "CNPJ": 34964192000178, "AGENTE": "PEDRO_VITOR_FERNANDES_VENCHIARUTTI", "ACAO": "REALIZAR_PRIMEIRA_VISITA_POTENCIAL", "RAZAO_SOCIAL": "ALEXANDRE_SOARES_DE_LIMA", "ENDERECO": "RUA_ACRE_1559_JARDIM_VIRGINIA_GUARUJA_BRASIL", "CIDADE": "GUARUJA", "LATITUDE": -23.965698, "LONGITUDE": -46.211919 }, "geometry": { "type": "Point", "coordinates": [ -46.211919, -23.965698 ] } },
{ "type": "Feature", "properties": { "CNPJ": 34974855000135, "AGENTE": "PEDRO_VITOR_FERNANDES_VENCHIARUTTI", "ACAO": "REALIZAR_PRIMEIRA_VISITA_POTENCIAL", "RAZAO_SOCIAL": "JESSICA_RODRIGUES_DE_ABREU_LIMA", "ENDERECO": "RUA_DOUTOR_CARLOS_ALBERTO_CURADO_3378_JOSE_MENINO_SANTOS_BRASIL", "CIDADE": "SANTOS", "LATITUDE": -23.9658123, "LONGITUDE": -46.3546266 }, "geometry": { "type": "Point", "coordinates": [ -46.3546266, -23.9658123 ] } },
{ "type": "Feature", "properties": { "CNPJ": 4686660500016, "AGENTE": "PEDRO_VITOR_FERNANDES_VENCHIARUTTI", "ACAO": "REALIZAR_PRIMEIRA_VISITA_POTENCIAL", "RAZAO_SOCIAL": "46.866.605_GUILHERME_AUGUSTO_BERTOLLI_DE_JESUS", "ENDERECO": "PRACA_JOAO_BARBALHO_04_POMPEIA_SANTOS_BRASIL", "CIDADE": "SANTOS", "LATITUDE": -23.9658131, "LONGITUDE": -46.3425276 }, "geometry": { "type": "Point", "coordinates": [ -46.3425276, -23.9658131 ] } },
{ "type": "Feature", "properties": { "CNPJ": 40582833000122, "AGENTE": "PEDRO_VITOR_FERNANDES_VENCHIARUTTI", "ACAO": "REALIZAR_PRIMEIRA_VISITA_POTENCIAL", "RAZAO_SOCIAL": "AMANDA_GUERRA_DE_OLIVEIRA_ANDRADE_40909144850", "ENDERECO": "PRACA_JOAO_BARBALHO_4_POMPEIA_SANTOS_BRASIL", "CIDADE": "SANTOS", "LATITUDE": -23.9658131, "LONGITUDE": -46.3425276 }, "geometry": { "type": "Point", "coordinates": [ -46.3425276, -23.9658131 ] } },
{ "type": "Feature", "properties": { "CNPJ": 29108542000164, "AGENTE": "PEDRO_VITOR_FERNANDES_VENCHIARUTTI", "ACAO": "REALIZAR_PRIMEIRA_VISITA_POTENCIAL", "RAZAO_SOCIAL": "WAGNER_BARBOSA_DE_JESUS_VIDROS_E_SERRALHERIA", "ENDERECO": "PRACA_JOAO_BARBALHO_4_POMPEIA_SANTOS_BRASIL", "CIDADE": "SANTOS", "LATITUDE": -23.9658131, "LONGITUDE": -46.3425276 }, "geometry": { "type": "Point", "coordinates": [ -46.3425276, -23.9658131 ] } },
{ "type": "Feature", "properties": { "CNPJ": 42767237000142, "AGENTE": "PEDRO_VITOR_FERNANDES_VENCHIARUTTI", "ACAO": "REALIZAR_PRIMEIRA_VISITA_POTENCIAL", "RAZAO_SOCIAL": "LUIZ_FERNANDO_ALVAREZ_OLIVA", "ENDERECO": "PRACA_JOAO_BARBALHO_4_POMPEIA_SANTOS_BRASIL", "CIDADE": "SANTOS", "LATITUDE": -23.9658131, "LONGITUDE": -46.3425276 }, "geometry": { "type": "Point", "coordinates": [ -46.3425276, -23.9658131 ] } },
{ "type": "Feature", "properties": { "CNPJ": 33356123000119, "AGENTE": "PEDRO_VITOR_FERNANDES_VENCHIARUTTI", "ACAO": "REALIZAR_PRIMEIRA_VISITA_POTENCIAL", "RAZAO_SOCIAL": "SANDRA_MARA_AUGUSTO_FLORES", "ENDERECO": "AVENIDA_MARECHAL_FLORIANO_PEIXOTO_301_POMPEIA_SANTOS_BRASIL", "CIDADE": "SANTOS", "LATITUDE": -23.9661821, "LONGITUDE": -46.344626 }, "geometry": { "type": "Point", "coordinates": [ -46.344626, -23.9661821 ] } },
{ "type": "Feature", "properties": { "CNPJ": 28598932000105, "AGENTE": "PEDRO_VITOR_FERNANDES_VENCHIARUTTI", "ACAO": "REALIZAR_PRIMEIRA_VISITA_POTENCIAL", "RAZAO_SOCIAL": "KEYCIANE_OLIVEIRA_DOS_SANTOS_SILVEIRA", "ENDERECO": "RUA_CINCO_120_VILA_ZILDA_GUARUJA_BRASIL", "CIDADE": "GUARUJA", "LATITUDE": -23.9663775, "LONGITUDE": -46.2458611 }, "geometry": { "type": "Point", "coordinates": [ -46.2458611, -23.9663775 ] } },
{ "type": "Feature", "properties": { "CNPJ": 30349180000182, "AGENTE": "PEDRO_VITOR_FERNANDES_VENCHIARUTTI", "ACAO": "REALIZAR_PRIMEIRA_VISITA_POTENCIAL", "RAZAO_SOCIAL": "ADRIANA_CAPELETI_TEIXEIRA_GOMES", "ENDERECO": "AVENIDA_MARECHAL_FLORIANO_PEIXOTO_-_DE_157_AO_FIM_-_LADO_IMPAR_281_POMPEIA_SANTOS_BRASIL", "CIDADE": "SANTOS", "LATITUDE": -23.9663899, "LONGITUDE": -46.343697 }, "geometry": { "type": "Point", "coordinates": [ -46.343697, -23.9663899 ] } },
{ "type": "Feature", "properties": { "CNPJ": 27514007000188, "AGENTE": "PEDRO_VITOR_FERNANDES_VENCHIARUTTI", "ACAO": "REALIZAR_PRIMEIRA_VISITA_POTENCIAL", "RAZAO_SOCIAL": "CAMILA_DE_LIMA_CALDAS_MOREIRA_SOBREIRA_DA_SILVA", "ENDERECO": "RUA_FREDERICO_OZANAM_30_JOSE_MENINO_SANTOS_BRASIL", "CIDADE": "SANTOS", "LATITUDE": -23.9664606, "LONGITUDE": -46.3482722 }, "geometry": { "type": "Point", "coordinates": [ -46.3482722, -23.9664606 ] } },
{ "type": "Feature", "properties": { "CNPJ": 27849761000179, "AGENTE": "PEDRO_VITOR_FERNANDES_VENCHIARUTTI", "ACAO": "REALIZAR_PRIMEIRA_VISITA_POTENCIAL", "RAZAO_SOCIAL": "REGIANE_MARIA_DA_SILVA", "ENDERECO": "AVENIDA_ANTENOR_PIMENTEL_333_MORRINHOS_GUARUJA_BRASIL", "CIDADE": "GUARUJA", "LATITUDE": -23.9665795, "LONGITUDE": -46.2554646 }, "geometry": { "type": "Point", "coordinates": [ -46.2554646, -23.9665795 ] } },
{ "type": "Feature", "properties": { "CNPJ": 27430458000137, "AGENTE": "PEDRO_VITOR_FERNANDES_VENCHIARUTTI", "ACAO": "REALIZAR_PRIMEIRA_VISITA_POTENCIAL", "RAZAO_SOCIAL": "MAURICY_DO_NASCIMENTO", "ENDERECO": "RUA_CASPER_LIBERO_26_JOSE_MENINO_SANTOS_BRASIL", "CIDADE": "SANTOS", "LATITUDE": -23.9666052, "LONGITUDE": -46.3469304 }, "geometry": { "type": "Point", "coordinates": [ -46.3469304, -23.9666052 ] } },
{ "type": "Feature", "properties": { "CNPJ": 4101803600018, "AGENTE": "PEDRO_VITOR_FERNANDES_VENCHIARUTTI", "ACAO": "REALIZAR_PRIMEIRA_VISITA_POTENCIAL", "RAZAO_SOCIAL": "ANDREIA_SANCHES_COELHO_LTDA", "ENDERECO": "PRACA_WASHINGTON_66_JOSE_MENINO_SANTOS_BRASIL", "CIDADE": "SANTOS", "LATITUDE": -23.9668518, "LONGITUDE": -46.3500582 }, "geometry": { "type": "Point", "coordinates": [ -46.3500582, -23.9668518 ] } },
{ "type": "Feature", "properties": { "CNPJ": 14406030000107, "AGENTE": "PEDRO_VITOR_FERNANDES_VENCHIARUTTI", "ACAO": "REALIZAR_PRIMEIRA_VISITA_POTENCIAL", "RAZAO_SOCIAL": "MARCELO_GONCALVES_COELHO", "ENDERECO": "PRACA_WASHINGTON_66_JOSE_MENINO_SANTOS_BRASIL", "CIDADE": "SANTOS", "LATITUDE": -23.9668518, "LONGITUDE": -46.3500582 }, "geometry": { "type": "Point", "coordinates": [ -46.3500582, -23.9668518 ] } },
{ "type": "Feature", "properties": { "CNPJ": 1274700700015, "AGENTE": "PEDRO_VITOR_FERNANDES_VENCHIARUTTI", "ACAO": "REALIZAR_PRIMEIRA_VISITA_POTENCIAL", "RAZAO_SOCIAL": "SERGIO_DONIZETE_DE_OLIVEIRA", "ENDERECO": "RUA_PEDRO_BORGES_GONCALVES_51_JOSE_MENINO_SANTOS_BRASIL", "CIDADE": "SANTOS", "LATITUDE": -23.966883, "LONGITUDE": -46.3550667 }, "geometry": { "type": "Point", "coordinates": [ -46.3550667, -23.966883 ] } },
{ "type": "Feature", "properties": { "CNPJ": 44998445000188, "AGENTE": "PEDRO_VITOR_FERNANDES_VENCHIARUTTI", "ACAO": "REALIZAR_PRIMEIRA_VISITA_POTENCIAL", "RAZAO_SOCIAL": "PIMENTEL_ESTACIONAMENTO_&_ESTETICA_AUTOMOTIVA_-_LTDA", "ENDERECO": "RUA_SANTA_CATARINA_136_JOSE_MENINO_SANTOS_BRASIL", "CIDADE": "SANTOS", "LATITUDE": -23.9670717, "LONGITUDE": -46.3529846 }, "geometry": { "type": "Point", "coordinates": [ -46.3529846, -23.9670717 ] } },
{ "type": "Feature", "properties": { "CNPJ": 2977726000015, "AGENTE": "PEDRO_VITOR_FERNANDES_VENCHIARUTTI", "ACAO": "REALIZAR_PRIMEIRA_VISITA_POTENCIAL", "RAZAO_SOCIAL": "NIVIA_FERNANDES", "ENDERECO": "RUA_OLAVO_BILAC_23_POMPEIA_SANTOS_BRASIL", "CIDADE": "SANTOS", "LATITUDE": -23.9671044, "LONGITUDE": -46.3425833 }, "geometry": { "type": "Point", "coordinates": [ -46.3425833, -23.9671044 ] } },
{ "type": "Feature", "properties": { "CNPJ": 19212568000102, "AGENTE": "PEDRO_VITOR_FERNANDES_VENCHIARUTTI", "ACAO": "REALIZAR_PRIMEIRA_VISITA_POTENCIAL", "RAZAO_SOCIAL": "ROSANGELA_SILVA_RODRIGUES_MONTEIRO", "ENDERECO": "RUA_NEWTON_PRADO_27_JOSE_MENINO_SANTOS_BRASIL", "CIDADE": "SANTOS", "LATITUDE": -23.9671281, "LONGITUDE": -46.3507173 }, "geometry": { "type": "Point", "coordinates": [ -46.3507173, -23.9671281 ] } },
{ "type": "Feature", "properties": { "CNPJ": 41392674000166, "AGENTE": "PEDRO_VITOR_FERNANDES_VENCHIARUTTI", "ACAO": "REALIZAR_PRIMEIRA_VISITA_POTENCIAL", "RAZAO_SOCIAL": "JEFFERSON_ANTONIO_FERNANDES_DA_SILVA", "ENDERECO": "RUA_PEDRO_BORGES_GONCALVES_46_JOSE_MENINO_SANTOS_BRASIL", "CIDADE": "SANTOS", "LATITUDE": -23.9671657, "LONGITUDE": -46.3545497 }, "geometry": { "type": "Point", "coordinates": [ -46.3545497, -23.9671657 ] } },
{ "type": "Feature", "properties": { "CNPJ": 31993825000188, "AGENTE": "PEDRO_VITOR_FERNANDES_VENCHIARUTTI", "ACAO": "REALIZAR_PRIMEIRA_VISITA_POTENCIAL", "RAZAO_SOCIAL": "VANESSA_VAZ_TARELHO", "ENDERECO": "AVENIDA_SENADOR_PINHEIRO_MACHADO_1029_CAMPO_GRANDE_SANTOS_BRASIL", "CIDADE": "SANTOS", "LATITUDE": -23.9672599, "LONGITUDE": -46.3454152 }, "geometry": { "type": "Point", "coordinates": [ -46.3454152, -23.9672599 ] } },
{ "type": "Feature", "properties": { "CNPJ": 36423988000149, "AGENTE": "PEDRO_VITOR_FERNANDES_VENCHIARUTTI", "ACAO": "REALIZAR_PRIMEIRA_VISITA_POTENCIAL", "RAZAO_SOCIAL": "RAQUEL_DA_SILVA", "ENDERECO": "AVENIDA_ASSIS_CHATEAUBRIAND_1956_JARDIM_VIRGINIA_GUARUJA_BRASIL", "CIDADE": "GUARUJA", "LATITUDE": -23.9677473, "LONGITUDE": -46.2135561 }, "geometry": { "type": "Point", "coordinates": [ -46.2135561, -23.9677473 ] } },
{ "type": "Feature", "properties": { "CNPJ": 40210409000157, "AGENTE": "PEDRO_VITOR_FERNANDES_VENCHIARUTTI", "ACAO": "REALIZAR_PRIMEIRA_VISITA_POTENCIAL", "RAZAO_SOCIAL": "FRA_COMERCIO_DE_PRODUTOS_LTDA", "ENDERECO": "AVENIDA_PRESIDENTE_WILSON_-_ATE_61/62_99_GONZAGA_SANTOS_BRASIL", "CIDADE": "SANTOS", "LATITUDE": -23.9677993, "LONGITUDE": -46.3432965 }, "geometry": { "type": "Point", "coordinates": [ -46.3432965, -23.9677993 ] } },
{ "type": "Feature", "properties": { "CNPJ": 38181687000181, "AGENTE": "PEDRO_VITOR_FERNANDES_VENCHIARUTTI", "ACAO": "REALIZAR_PRIMEIRA_VISITA_POTENCIAL", "RAZAO_SOCIAL": "V_FERREIRA_PINHEIRO_MINIMERCADO", "ENDERECO": "RUA_NOVE_(RESIDENCIAL_VICTORIA_PARK)_598_VILA_ZILDA_GUARUJA_BRASIL", "CIDADE": "GUARUJA", "LATITUDE": -23.9678264, "LONGITUDE": -46.2487944 }, "geometry": { "type": "Point", "coordinates": [ -46.2487944, -23.9678264 ] } },
{ "type": "Feature", "properties": { "CNPJ": 46339319000147, "AGENTE": "PEDRO_VITOR_FERNANDES_VENCHIARUTTI", "ACAO": "REALIZAR_PRIMEIRA_VISITA_POTENCIAL", "RAZAO_SOCIAL": "LUIZ_GUILHERME_MATTOS_DA_SILVA_SANTOS_11973750740", "ENDERECO": "AVENIDA_PRESIDENTE_WILSON_190_JOSE_MENINO_SANTOS_BRASIL", "CIDADE": "SANTOS", "LATITUDE": -23.9681387, "LONGITUDE": -46.35253429 }, "geometry": { "type": "Point", "coordinates": [ -46.35253429, -23.9681387 ] } },
{ "type": "Feature", "properties": { "CNPJ": 49221334000184, "AGENTE": "PEDRO_VITOR_FERNANDES_VENCHIARUTTI", "ACAO": "REALIZAR_PRIMEIRA_VISITA_POTENCIAL", "RAZAO_SOCIAL": "49.221.334_ELAINE_ROMERO_BASSAKIN", "ENDERECO": "AVENIDA_PRESIDENTE_WILSON_-_DE_124/125_AO_FIM_1989_JOSE_MENINO_SANTOS_BRASIL", "CIDADE": "SANTOS", "LATITUDE": -23.9681533, "LONGITUDE": -46.3510483 }, "geometry": { "type": "Point", "coordinates": [ -46.3510483, -23.9681533 ] } },
{ "type": "Feature", "properties": { "CNPJ": 4216790700019, "AGENTE": "PEDRO_VITOR_FERNANDES_VENCHIARUTTI", "ACAO": "REALIZAR_PRIMEIRA_VISITA_POTENCIAL", "RAZAO_SOCIAL": "DIEGO_GONCALVES_GOMES_DA_SILVA", "ENDERECO": "RUA_JOSE_SILVESTRE_DE_JESUS_(RESIDENCIAL_VICTORIA_PARK)_358_VILA_ZILDA_GUARUJA_BRASIL", "CIDADE": "GUARUJA", "LATITUDE": -23.969622, "LONGITUDE": -46.2482797 }, "geometry": { "type": "Point", "coordinates": [ -46.2482797, -23.969622 ] } },
{ "type": "Feature", "properties": { "CNPJ": 34340202000102, "AGENTE": "PEDRO_VITOR_FERNANDES_VENCHIARUTTI", "ACAO": "REALIZAR_PRIMEIRA_VISITA_POTENCIAL", "RAZAO_SOCIAL": "JOSEFA_FERREIRA_DA_SILVA_ARAUJO", "ENDERECO": "RUA_VINTE_185_VILA_ZILDA_GUARUJA_BRASIL", "CIDADE": "GUARUJA", "LATITUDE": -23.9696298, "LONGITUDE": -46.2476376 }, "geometry": { "type": "Point", "coordinates": [ -46.2476376, -23.9696298 ] } },
{ "type": "Feature", "properties": { "CNPJ": 41643463000159, "AGENTE": "PEDRO_VITOR_FERNANDES_VENCHIARUTTI", "ACAO": "REALIZAR_PRIMEIRA_VISITA_POTENCIAL", "RAZAO_SOCIAL": "HENRIQUE_IRINEU_DOS_SANTOS", "ENDERECO": "AVENIDA_BENTO_PEDRO_DA_COSTA_1319_CONCEICAOZINHA_GUARUJA_BRASIL", "CIDADE": "GUARUJA", "LATITUDE": -23.9703345, "LONGITUDE": -46.275335 }, "geometry": { "type": "Point", "coordinates": [ -46.275335, -23.9703345 ] } },
{ "type": "Feature", "properties": { "CNPJ": 17239771000139, "AGENTE": "PEDRO_VITOR_FERNANDES_VENCHIARUTTI", "ACAO": "REALIZAR_PRIMEIRA_VISITA_POTENCIAL", "RAZAO_SOCIAL": "OSMAR_ALVES_DE_OLIVEIRA_PADARIA", "ENDERECO": "AVENIDA_BRASIL_3040_VILA_ZILDA_GUARUJA_BRASIL", "CIDADE": "GUARUJA", "LATITUDE": -23.971037, "LONGITUDE": -46.248405 }, "geometry": { "type": "Point", "coordinates": [ -46.248405, -23.971037 ] } },
{ "type": "Feature", "properties": { "CNPJ": 29155619000157, "AGENTE": "PEDRO_VITOR_FERNANDES_VENCHIARUTTI", "ACAO": "REALIZAR_PRIMEIRA_VISITA_POTENCIAL", "RAZAO_SOCIAL": "DAYSE_MARIA_DA_SILVA_SANTOS", "ENDERECO": "RUA_DOUTOR_LUIZ_MACIEL_BRAIA_66_ENSEADA_GUARUJA_BRASIL", "CIDADE": "GUARUJA", "LATITUDE": -23.9714356, "LONGITUDE": -46.2239732 }, "geometry": { "type": "Point", "coordinates": [ -46.2239732, -23.9714356 ] } },
{ "type": "Feature", "properties": { "CNPJ": 49948488000172, "AGENTE": "PEDRO_VITOR_FERNANDES_VENCHIARUTTI", "ACAO": "REALIZAR_PRIMEIRA_VISITA_POTENCIAL", "RAZAO_SOCIAL": "RHUAN_PHABLLO_LIMA", "ENDERECO": "RUA_BRASILIA_1_VILA_ZILDA_GUARUJA_BRASIL", "CIDADE": "GUARUJA", "LATITUDE": -23.9720892, "LONGITUDE": -46.2496968 }, "geometry": { "type": "Point", "coordinates": [ -46.2496968, -23.9720892 ] } },
{ "type": "Feature", "properties": { "CNPJ": 24318638000133, "AGENTE": "PEDRO_VITOR_FERNANDES_VENCHIARUTTI", "ACAO": "REALIZAR_PRIMEIRA_VISITA_POTENCIAL", "RAZAO_SOCIAL": "HOTEL_CANTO_DOS_MARES_LTDA", "ENDERECO": "AVENIDA_MARJORY_DA_SILVA_PRADO_835_BALNEARIO_PRAIA_DO_PERNAMBUCO_GUARUJA_BRASIL", "CIDADE": "GUARUJA", "LATITUDE": -23.9722416, "LONGITUDE": -46.1892958 }, "geometry": { "type": "Point", "coordinates": [ -46.1892958, -23.9722416 ] } },
{ "type": "Feature", "properties": { "CNPJ": 43764198000192, "AGENTE": "PEDRO_VITOR_FERNANDES_VENCHIARUTTI", "ACAO": "REALIZAR_PRIMEIRA_VISITA_POTENCIAL", "RAZAO_SOCIAL": "43.764.198_FABRICIA_FERREIRA_LEONARDO_DOS_SANTOS", "ENDERECO": "RUA_ARATINGA_1058_JARDIM_ENSEADA_GUARUJA_BRASIL", "CIDADE": "GUARUJA", "LATITUDE": -23.9724293, "LONGITUDE": -46.2014999 }, "geometry": { "type": "Point", "coordinates": [ -46.2014999, -23.9724293 ] } },
{ "type": "Feature", "properties": { "CNPJ": 36784283000157, "AGENTE": "PEDRO_VITOR_FERNANDES_VENCHIARUTTI", "ACAO": "REALIZAR_PRIMEIRA_VISITA_POTENCIAL", "RAZAO_SOCIAL": "SIMONE_MARIA_DA_SILVA_ITANO_PEREIRA", "ENDERECO": "RUA_JURACI_SEVERIANO_DA_SILVA_15_VILA_ZILDA_GUARUJA_BRASIL", "CIDADE": "GUARUJA", "LATITUDE": -23.9736974, "LONGITUDE": -46.2507725 }, "geometry": { "type": "Point", "coordinates": [ -46.2507725, -23.9736974 ] } },
{ "type": "Feature", "properties": { "CNPJ": 12402826000166, "AGENTE": "PEDRO_VITOR_FERNANDES_VENCHIARUTTI", "ACAO": "REALIZAR_PRIMEIRA_VISITA_POTENCIAL", "RAZAO_SOCIAL": "RAMEDLAV_COMERCIAL_LTDA", "ENDERECO": "AVENIDA_DOUTOR_PEDRO_LESSA_-_DE_701_A_1839_-_LADO_IMPAR_45_APARECIDA_SANTOS_BRASIL", "CIDADE": "PIRACICABA", "LATITUDE": -23.9745209, "LONGITUDE": -46.3039783 }, "geometry": { "type": "Point", "coordinates": [ -46.3039783, -23.9745209 ] } },
{ "type": "Feature", "properties": { "CNPJ": 42619474000166, "AGENTE": "PEDRO_VITOR_FERNANDES_VENCHIARUTTI", "ACAO": "REALIZAR_PRIMEIRA_VISITA_POTENCIAL", "RAZAO_SOCIAL": "RAFAELA_BRANDLE_DE_BRITO_VIANNA", "ENDERECO": "AVENIDA_AFFONSO_PENNA_-_DE_463_A_693_-_LADO_IMPAR_675_ESTUARIO_SANTOS_BRASIL", "CIDADE": "SANTOS", "LATITUDE": -23.9747642, "LONGITUDE": -46.2996735 }, "geometry": { "type": "Point", "coordinates": [ -46.2996735, -23.9747642 ] } },
{ "type": "Feature", "properties": { "CNPJ": 26536404000198, "AGENTE": "PEDRO_VITOR_FERNANDES_VENCHIARUTTI", "ACAO": "REALIZAR_PRIMEIRA_VISITA_POTENCIAL", "RAZAO_SOCIAL": "JACKSON_AMARAL_DA_SILVA", "ENDERECO": "RUA_SAO_PAULO_270_CONCEICAOZINHA_(VICENTE_DE_CARVALHO)_GUARUJA_BRASIL", "CIDADE": "GUARUJA", "LATITUDE": -23.9748045, "LONGITUDE": -46.285021 }, "geometry": { "type": "Point", "coordinates": [ -46.285021, -23.9748045 ] } },
{ "type": "Feature", "properties": { "CNPJ": 4907025000124, "AGENTE": "PEDRO_VITOR_FERNANDES_VENCHIARUTTI", "ACAO": "REALIZAR_PRIMEIRA_VISITA_POTENCIAL", "RAZAO_SOCIAL": "FRANCISCO_NARDJONE_NOGUEIRA", "ENDERECO": "AVENIDA_DOUTOR_HERMINIO_OMETTO_2437_JARDIM_SAO_JOSE_LEME_BRASIL", "CIDADE": "LEME", "LATITUDE": -23.975899, "LONGITUDE": -46.2989007 }, "geometry": { "type": "Point", "coordinates": [ -46.2989007, -23.975899 ] } },
{ "type": "Feature", "properties": { "CNPJ": 32698594000142, "AGENTE": "PEDRO_VITOR_FERNANDES_VENCHIARUTTI", "ACAO": "REALIZAR_PRIMEIRA_VISITA_POTENCIAL", "RAZAO_SOCIAL": "M_DA_SILVA_MARQUERIA", "ENDERECO": "AVENIDA_AFFONSO_PENNA_760_APARECIDA_SANTOS_BRASIL", "CIDADE": "SANTOS", "LATITUDE": -23.9771874, "LONGITUDE": -46.2971885 }, "geometry": { "type": "Point", "coordinates": [ -46.2971885, -23.9771874 ] } },
{ "type": "Feature", "properties": { "CNPJ": 5643549600018, "AGENTE": "PEDRO_VITOR_FERNANDES_VENCHIARUTTI", "ACAO": "REALIZAR_PRIMEIRA_VISITA_POTENCIAL", "RAZAO_SOCIAL": "56.435.496_DIEGO_DA_SILVA_RIBEIRO", "ENDERECO": "AVENIDA_CORONEL_JOAQUIM_MONTENEGRO_377_PONTA_DA_PRAIA_SANTOS_BRASIL", "CIDADE": "SANTOS", "LATITUDE": -23.9772767, "LONGITUDE": -46.3011867 }, "geometry": { "type": "Point", "coordinates": [ -46.3011867, -23.9772767 ] } },
{ "type": "Feature", "properties": { "CNPJ": 24531783000106, "AGENTE": "PEDRO_VITOR_FERNANDES_VENCHIARUTTI", "ACAO": "REALIZAR_PRIMEIRA_VISITA_POTENCIAL", "RAZAO_SOCIAL": "AGENCIA_VUCA_LTDA", "ENDERECO": "PRACA_WINSTON_CHURCHILL_55_PONTA_DA_PRAIA_SANTOS_BRASIL", "CIDADE": "SANTOS", "LATITUDE": -23.9784288, "LONGITUDE": -46.2991654 }, "geometry": { "type": "Point", "coordinates": [ -46.2991654, -23.9784288 ] } },
{ "type": "Feature", "properties": { "CNPJ": 16702695000193, "AGENTE": "PEDRO_VITOR_FERNANDES_VENCHIARUTTI", "ACAO": "REALIZAR_PRIMEIRA_VISITA_POTENCIAL", "RAZAO_SOCIAL": "MARIA_DA_CONCEICAO_DE_JESUS_REIS_DOS_SANTOS_47601604500", "ENDERECO": "RUA_DOZE_(CANTA_GALO)_8B_BALNEARIO_CIDADE_ATLANTICA_GUARUJA_BRASIL", "CIDADE": "GUARUJA", "LATITUDE": -23.9794695, "LONGITUDE": -46.2409688 }, "geometry": { "type": "Point", "coordinates": [ -46.2409688, -23.9794695 ] } },
{ "type": "Feature", "properties": { "CNPJ": 33946080000121, "AGENTE": "PEDRO_VITOR_FERNANDES_VENCHIARUTTI", "ACAO": "REALIZAR_PRIMEIRA_VISITA_POTENCIAL", "RAZAO_SOCIAL": "JOSE_ANTONIO_DA_SILVA_FILHO", "ENDERECO": "RUA_MONTE_SINAI_93_CACHOEIRA_GUARUJA_BRASIL", "CIDADE": "GUARUJA", "LATITUDE": -23.9795791, "LONGITUDE": -46.2612044 }, "geometry": { "type": "Point", "coordinates": [ -46.2612044, -23.9795791 ] } },
{ "type": "Feature", "properties": { "CNPJ": 2729101900019, "AGENTE": "PEDRO_VITOR_FERNANDES_VENCHIARUTTI", "ACAO": "REALIZAR_PRIMEIRA_VISITA_POTENCIAL", "RAZAO_SOCIAL": "GLICIA_GIEDRE_GOMES_SANTOS", "ENDERECO": "RUA_TUIAS_43_ENSEADA_GUARUJA_BRASIL", "CIDADE": "GUARUJA", "LATITUDE": -23.9798557, "LONGITUDE": -46.2296032 }, "geometry": { "type": "Point", "coordinates": [ -46.2296032, -23.9798557 ] } },
{ "type": "Feature", "properties": { "CNPJ": 25102530000171, "AGENTE": "PEDRO_VITOR_FERNANDES_VENCHIARUTTI", "ACAO": "REALIZAR_PRIMEIRA_VISITA_POTENCIAL", "RAZAO_SOCIAL": "TALIA_TAVARES_DE_LIMA", "ENDERECO": "VIELA_DOS_OPERARIOS_169_CACHOEIRA_GUARUJA_BRASIL", "CIDADE": "GUARUJA", "LATITUDE": -23.9802891, "LONGITUDE": -46.2634021 }, "geometry": { "type": "Point", "coordinates": [ -46.2634021, -23.9802891 ] } },
{ "type": "Feature", "properties": { "CNPJ": 32827934000198, "AGENTE": "PEDRO_VITOR_FERNANDES_VENCHIARUTTI", "ACAO": "REALIZAR_PRIMEIRA_VISITA_POTENCIAL", "RAZAO_SOCIAL": "JOSE_FELIPE_SANTIAGO_JUNIOR", "ENDERECO": "RUA_JURUBATUBA_160_APARECIDA_SANTOS_BRASIL", "CIDADE": "SANTOS", "LATITUDE": -23.9803899, "LONGITUDE": -46.3009182 }, "geometry": { "type": "Point", "coordinates": [ -46.3009182, -23.9803899 ] } },
{ "type": "Feature", "properties": { "CNPJ": 25465429000185, "AGENTE": "PEDRO_VITOR_FERNANDES_VENCHIARUTTI", "ACAO": "REALIZAR_PRIMEIRA_VISITA_POTENCIAL", "RAZAO_SOCIAL": "RF_MULTIMODAL_LTDA", "ENDERECO": "AVENIDA_DOUTOR_PEDRO_LESSA_1.064_PONTA_DA_PRAIA_SANTOS_BRASIL", "CIDADE": "SANTOS", "LATITUDE": -23.9805163, "LONGITUDE": -46.295388 }, "geometry": { "type": "Point", "coordinates": [ -46.295388, -23.9805163 ] } },
{ "type": "Feature", "properties": { "CNPJ": 50253402000176, "AGENTE": "PEDRO_VITOR_FERNANDES_VENCHIARUTTI", "ACAO": "REALIZAR_PRIMEIRA_VISITA_POTENCIAL", "RAZAO_SOCIAL": "EVERTON_NASCIMENTO_SOUZA", "ENDERECO": "RUA_NORBERTO_LOPES_DE_FREITAS_177_ENSEADA_GUARUJA_BRASIL", "CIDADE": "GUARUJA", "LATITUDE": -23.9807744, "LONGITUDE": -46.2363275 }, "geometry": { "type": "Point", "coordinates": [ -46.2363275, -23.9807744 ] } },
{ "type": "Feature", "properties": { "CNPJ": 47054354000182, "AGENTE": "PEDRO_VITOR_FERNANDES_VENCHIARUTTI", "ACAO": "REALIZAR_PRIMEIRA_VISITA_POTENCIAL", "RAZAO_SOCIAL": "CLAUDIA_FARAH_DA_CUNHA", "ENDERECO": "RUA_ENGUAGUACU_127_PONTA_DA_PRAIA_SANTOS_BRASIL", "CIDADE": "SANTOS", "LATITUDE": -23.9810087, "LONGITUDE": -46.3019785 }, "geometry": { "type": "Point", "coordinates": [ -46.3019785, -23.9810087 ] } },
{ "type": "Feature", "properties": { "CNPJ": 43223200000116, "AGENTE": "PEDRO_VITOR_FERNANDES_VENCHIARUTTI", "ACAO": "REALIZAR_PRIMEIRA_VISITA_POTENCIAL", "RAZAO_SOCIAL": "ANDREA_CASSIMIRO_DOS_SANTOS", "ENDERECO": "RUA_CORONEL_PEDRO_ARBUES_106_PONTA_DA_PRAIA_SANTOS_BRASIL", "CIDADE": "SANTOS", "LATITUDE": -23.9818729, "LONGITUDE": -46.3038562 }, "geometry": { "type": "Point", "coordinates": [ -46.3038562, -23.9818729 ] } },
{ "type": "Feature", "properties": { "CNPJ": 40974285000186, "AGENTE": "PEDRO_VITOR_FERNANDES_VENCHIARUTTI", "ACAO": "REALIZAR_PRIMEIRA_VISITA_POTENCIAL", "RAZAO_SOCIAL": "JOSEMERE_SOUZA_DOS_SANTOS", "ENDERECO": "RUA_PASCHOAL_CARLOS_MAGNO_80_ENSEADA_GUARUJA_BRASIL", "CIDADE": "GUARUJA", "LATITUDE": -23.9823571, "LONGITUDE": -46.2447532 }, "geometry": { "type": "Point", "coordinates": [ -46.2447532, -23.9823571 ] } },
{ "type": "Feature", "properties": { "CNPJ": 53127021000139, "AGENTE": "PEDRO_VITOR_FERNANDES_VENCHIARUTTI", "ACAO": "REALIZAR_PRIMEIRA_VISITA_POTENCIAL", "RAZAO_SOCIAL": "53.127.021_RENATA_GOIS_PEREIRA_DE_CARVALHO", "ENDERECO": "AVENIDA_GOVERNADOR_FERNANDO_COSTA_97_PONTA_DA_PRAIA_SANTOS_BRASIL", "CIDADE": "SANTOS", "LATITUDE": -23.9825814, "LONGITUDE": -46.2987603 }, "geometry": { "type": "Point", "coordinates": [ -46.2987603, -23.9825814 ] } },
{ "type": "Feature", "properties": { "CNPJ": 486255540001, "AGENTE": "PEDRO_VITOR_FERNANDES_VENCHIARUTTI", "ACAO": "REALIZAR_PRIMEIRA_VISITA_POTENCIAL", "RAZAO_SOCIAL": "EVERTON_RODRIGUES_DA_SILVEIRA", "ENDERECO": "RUA_BANDEIRANTES_271_LOTEAMENTO_JOAO_BATISTA_JULIAO_GUARUJA_BRASIL", "CIDADE": "GUARUJA", "LATITUDE": -23.9828982, "LONGITUDE": -46.2060279 }, "geometry": { "type": "Point", "coordinates": [ -46.2060279, -23.9828982 ] } },
{ "type": "Feature", "properties": { "CNPJ": 20185298000169, "AGENTE": "PEDRO_VITOR_FERNANDES_VENCHIARUTTI", "ACAO": "REALIZAR_PRIMEIRA_VISITA_POTENCIAL", "RAZAO_SOCIAL": "ROBERTO_AGONDI_24646209802", "ENDERECO": "RUA_ENGUAGUACU_77_PONTA_DA_PRAIA_SANTOS_BRASIL", "CIDADE": "SANTOS", "LATITUDE": -23.9829109, "LONGITUDE": -46.30363699 }, "geometry": { "type": "Point", "coordinates": [ -46.30363699, -23.9829109 ] } },
{ "type": "Feature", "properties": { "CNPJ": 52589761000124, "AGENTE": "PEDRO_VITOR_FERNANDES_VENCHIARUTTI", "ACAO": "REALIZAR_PRIMEIRA_VISITA_POTENCIAL", "RAZAO_SOCIAL": "52.589.761_MARCOS_JOSE_DA_SILVA_PEIXOTO", "ENDERECO": "RUA_PROFESSOR_DOUTOR_OLAVO_DE_PAULA_BORGES_44_PONTA_DA_PRAIA_SANTOS_BRASIL", "CIDADE": "SANTOS", "LATITUDE": -23.9830173, "LONGITUDE": -46.3046264 }, "geometry": { "type": "Point", "coordinates": [ -46.3046264, -23.9830173 ] } },
{ "type": "Feature", "properties": { "CNPJ": 50374728000151, "AGENTE": "PEDRO_VITOR_FERNANDES_VENCHIARUTTI", "ACAO": "REALIZAR_PRIMEIRA_VISITA_POTENCIAL", "RAZAO_SOCIAL": "LETICIA_GUIMARAES_DA_SILVA_NASCIMENTO", "ENDERECO": "AVENIDA_FRANCISCO_ARNALDO_GIMENEZ_957_VILA_SANTO_ANTONIO_GUARUJA_BRASIL", "CIDADE": "GUARUJA", "LATITUDE": -23.9832079, "LONGITUDE": -46.2710946 }, "geometry": { "type": "Point", "coordinates": [ -46.2710946, -23.9832079 ] } },
{ "type": "Feature", "properties": { "CNPJ": 41596045000158, "AGENTE": "PEDRO_VITOR_FERNANDES_VENCHIARUTTI", "ACAO": "REALIZAR_PRIMEIRA_VISITA_POTENCIAL", "RAZAO_SOCIAL": "KATIA_VALERIA_DE_OLIVEIRA_13055311833", "ENDERECO": "RUA_CORONEL_PEDRO_ARBUES_44_PONTA_DA_PRAIA_SANTOS_BRASIL", "CIDADE": "SANTOS", "LATITUDE": -23.9833105, "LONGITUDE": -46.3048837 }, "geometry": { "type": "Point", "coordinates": [ -46.3048837, -23.9833105 ] } },
{ "type": "Feature", "properties": { "CNPJ": 3102194000019, "AGENTE": "PEDRO_VITOR_FERNANDES_VENCHIARUTTI", "ACAO": "REALIZAR_PRIMEIRA_VISITA_POTENCIAL", "RAZAO_SOCIAL": "ELZA_GONCALVES_DO_CARMO", "ENDERECO": "AVENIDA_QUATRO_(JARDIM_SAO_MIGUEL)_42_ENSEADA_GUARUJA_BRASIL", "CIDADE": "GUARUJA", "LATITUDE": -23.9833726, "LONGITUDE": -46.2424263 }, "geometry": { "type": "Point", "coordinates": [ -46.2424263, -23.9833726 ] } },
{ "type": "Feature", "properties": { "CNPJ": 50294234000167, "AGENTE": "PEDRO_VITOR_FERNANDES_VENCHIARUTTI", "ACAO": "REALIZAR_PRIMEIRA_VISITA_POTENCIAL", "RAZAO_SOCIAL": "LUCIANA_APARECIDA_SANTANA_DOS_SANTOS", "ENDERECO": "RUA_MACILON_AFONSO_DE_CARVALHO_122_VILA_SANTO_ANTONIO_GUARUJA_BRASIL", "CIDADE": "GUARUJA", "LATITUDE": -23.9835611, "LONGITUDE": -46.2720764 }, "geometry": { "type": "Point", "coordinates": [ -46.2720764, -23.9835611 ] } },
{ "type": "Feature", "properties": { "CNPJ": 4499418000014, "AGENTE": "PEDRO_VITOR_FERNANDES_VENCHIARUTTI", "ACAO": "REALIZAR_PRIMEIRA_VISITA_POTENCIAL", "RAZAO_SOCIAL": "ELI_CRISTINA_KEHDI_CARDOSO", "ENDERECO": "RUA_DOUTOR_EGYDIO_MARTINS_-_LADO_PAR_18_PONTA_DA_PRAIA_SANTOS_BRASIL", "CIDADE": "SANTOS", "LATITUDE": -23.9843932, "LONGITUDE": -46.2979562 }, "geometry": { "type": "Point", "coordinates": [ -46.2979562, -23.9843932 ] } },
{ "type": "Feature", "properties": { "CNPJ": 47076951000108, "AGENTE": "PEDRO_VITOR_FERNANDES_VENCHIARUTTI", "ACAO": "REALIZAR_PRIMEIRA_VISITA_POTENCIAL", "RAZAO_SOCIAL": "4_L_DRINKS_LTDA.", "ENDERECO": "AVENIDA_GOVERNADOR_FERNANDO_COSTA_366_PONTA_DA_PRAIA_SANTOS_BRASIL", "CIDADE": "SANTOS", "LATITUDE": -23.9848211, "LONGITUDE": -46.2978364 }, "geometry": { "type": "Point", "coordinates": [ -46.2978364, -23.9848211 ] } },
{ "type": "Feature", "properties": { "CNPJ": 3904636000156, "AGENTE": "PEDRO_VITOR_FERNANDES_VENCHIARUTTI", "ACAO": "REALIZAR_PRIMEIRA_VISITA_POTENCIAL", "RAZAO_SOCIAL": "L._&_N._GUARUJA_HOTEL_LTDA", "ENDERECO": "AVENIDA_MIGUEL_STEFANO_2863_ENSEADA_GUARUJA_BRASIL", "CIDADE": "GUARUJA", "LATITUDE": -23.9856145, "LONGITUDE": -46.2229949 }, "geometry": { "type": "Point", "coordinates": [ -46.2229949, -23.9856145 ] } },
{ "type": "Feature", "properties": { "CNPJ": 12580876000133, "AGENTE": "PEDRO_VITOR_FERNANDES_VENCHIARUTTI", "ACAO": "REALIZAR_PRIMEIRA_VISITA_POTENCIAL", "RAZAO_SOCIAL": "REGINA_MARA_FONSECA_MEDEIROS", "ENDERECO": "RUA_DOUTOR_EGYDIO_MARTINS_-_LADO_PAR_84_PONTA_DA_PRAIA_SANTOS_BRASIL", "CIDADE": "SAO_PAULO", "LATITUDE": -23.9856373, "LONGITUDE": -46.3009652 }, "geometry": { "type": "Point", "coordinates": [ -46.3009652, -23.9856373 ] } },
{ "type": "Feature", "properties": { "CNPJ": 4805613600014, "AGENTE": "PEDRO_VITOR_FERNANDES_VENCHIARUTTI", "ACAO": "REALIZAR_PRIMEIRA_VISITA_POTENCIAL", "RAZAO_SOCIAL": "48.056.136_LUIZ_FERNANDO_DA_SILVA_GOMES", "ENDERECO": "RUA_ARGENTINA_200_ENSEADA_GUARUJA_BRASIL", "CIDADE": "GUARUJA", "LATITUDE": -23.9856514, "LONGITUDE": -46.234716 }, "geometry": { "type": "Point", "coordinates": [ -46.234716, -23.9856514 ] } },
{ "type": "Feature", "properties": { "CNPJ": 15055443000157, "AGENTE": "PEDRO_VITOR_FERNANDES_VENCHIARUTTI", "ACAO": "REALIZAR_PRIMEIRA_VISITA_POTENCIAL", "RAZAO_SOCIAL": "JORGE_GONCALVES_DE_FIGUEIREDO", "ENDERECO": "AVENIDA_SANTOS_DUMONT_679_VILA_SANTO_ANTONIO_GUARUJA_BRASIL", "CIDADE": "GUARUJA", "LATITUDE": -23.985886, "LONGITUDE": -46.2661881 }, "geometry": { "type": "Point", "coordinates": [ -46.2661881, -23.985886 ] } },
{ "type": "Feature", "properties": { "CNPJ": 21186476000139, "AGENTE": "PEDRO_VITOR_FERNANDES_VENCHIARUTTI", "ACAO": "REALIZAR_PRIMEIRA_VISITA_POTENCIAL", "RAZAO_SOCIAL": "JEFFERSON_MARTINS_GLUCK", "ENDERECO": "RUA_ARGENTINA_185_ENSEADA_GUARUJA_BRASIL", "CIDADE": "GUARUJA", "LATITUDE": -23.9862301, "LONGITUDE": -46.2346712 }, "geometry": { "type": "Point", "coordinates": [ -46.2346712, -23.9862301 ] } },
{ "type": "Feature", "properties": { "CNPJ": 25449342000114, "AGENTE": "PEDRO_VITOR_FERNANDES_VENCHIARUTTI", "ACAO": "REALIZAR_PRIMEIRA_VISITA_POTENCIAL", "RAZAO_SOCIAL": "BRUNO_SILVA_DE_JESUS", "ENDERECO": "AVENIDA_DOS_BANCARIOS_53_PONTA_DA_PRAIA_SANTOS_BRASIL", "CIDADE": "SANTOS", "LATITUDE": -23.9863065, "LONGITUDE": -46.3036918 }, "geometry": { "type": "Point", "coordinates": [ -46.3036918, -23.9863065 ] } },
{ "type": "Feature", "properties": { "CNPJ": 9418319000106, "AGENTE": "PEDRO_VITOR_FERNANDES_VENCHIARUTTI", "ACAO": "REALIZAR_PRIMEIRA_VISITA_POTENCIAL", "RAZAO_SOCIAL": "HUMBERTO_ROSA_DE_LIMA", "ENDERECO": "AVENIDA_REI_ALBERTO_I_401_PONTA_DA_PRAIA_SANTOS_BRASIL", "CIDADE": "SANTOS", "LATITUDE": -23.9866506, "LONGITUDE": -46.2962111 }, "geometry": { "type": "Point", "coordinates": [ -46.2962111, -23.9866506 ] } },
{ "type": "Feature", "properties": { "CNPJ": 35663257000108, "AGENTE": "PEDRO_VITOR_FERNANDES_VENCHIARUTTI", "ACAO": "REALIZAR_PRIMEIRA_VISITA_POTENCIAL", "RAZAO_SOCIAL": "CLAUDIA_REGINA_MARTINS_MARQUES", "ENDERECO": "RUA_BRIGADEIRO_GALVAO_6_PONTA_DA_PRAIA_SANTOS_BRASIL", "CIDADE": "SANTOS", "LATITUDE": -23.9870027, "LONGITUDE": -46.3054434 }, "geometry": { "type": "Point", "coordinates": [ -46.3054434, -23.9870027 ] } },
{ "type": "Feature", "properties": { "CNPJ": 3981059800011, "AGENTE": "PEDRO_VITOR_FERNANDES_VENCHIARUTTI", "ACAO": "REALIZAR_PRIMEIRA_VISITA_POTENCIAL", "RAZAO_SOCIAL": "ISABELLA_SILVA_DA_COSTA", "ENDERECO": "AVENIDA_MIGUEL_ESTEFNO_-_DE_1321/1322_A_1755/1756_1763_ENSEADA_GUARUJA_BRASIL", "CIDADE": "GUARUJA", "LATITUDE": -23.9875103, "LONGITUDE": -46.2335177 }, "geometry": { "type": "Point", "coordinates": [ -46.2335177, -23.9875103 ] } },
{ "type": "Feature", "properties": { "CNPJ": 30203337000167, "AGENTE": "PEDRO_VITOR_FERNANDES_VENCHIARUTTI", "ACAO": "REALIZAR_PRIMEIRA_VISITA_POTENCIAL", "RAZAO_SOCIAL": "FERNANDO_MENDES_TAVARES", "ENDERECO": "RUA_DAS_MAGNOLIAS_465_JARDIM_PRIMAVERA_GUARUJA_BRASIL", "CIDADE": "GUARUJA", "LATITUDE": -23.9876931, "LONGITUDE": -46.2717197 }, "geometry": { "type": "Point", "coordinates": [ -46.2717197, -23.9876931 ] } },
{ "type": "Feature", "properties": { "CNPJ": 40640200000123, "AGENTE": "PEDRO_VITOR_FERNANDES_VENCHIARUTTI", "ACAO": "REALIZAR_PRIMEIRA_VISITA_POTENCIAL", "RAZAO_SOCIAL": "DANILO_NERI_MENDES", "ENDERECO": "RUA_AFONSO_CELSO_DE_PAULA_LIMA_106_PONTA_DA_PRAIA_SANTOS_BRASIL", "CIDADE": "SANTOS", "LATITUDE": -23.9879941, "LONGITUDE": -46.3056129 }, "geometry": { "type": "Point", "coordinates": [ -46.3056129, -23.9879941 ] } },
{ "type": "Feature", "properties": { "CNPJ": 46669501000166, "AGENTE": "PEDRO_VITOR_FERNANDES_VENCHIARUTTI", "ACAO": "REALIZAR_PRIMEIRA_VISITA_POTENCIAL", "RAZAO_SOCIAL": "CARMEM_CECILIA_MARTINS", "ENDERECO": "AVENIDA_REI_ALBERTO_I_319_PONTA_DA_PRAIA_SANTOS_BRASIL", "CIDADE": "SANTOS", "LATITUDE": -23.9881034, "LONGITUDE": -46.2986137 }, "geometry": { "type": "Point", "coordinates": [ -46.2986137, -23.9881034 ] } },
{ "type": "Feature", "properties": { "CNPJ": 2736608000015, "AGENTE": "PEDRO_VITOR_FERNANDES_VENCHIARUTTI", "ACAO": "REALIZAR_PRIMEIRA_VISITA_POTENCIAL", "RAZAO_SOCIAL": "AMANDA_FUNARI_VIEIRA", "ENDERECO": "RUA_REPUBLICA_DO_PERU_9_PONTA_DA_PRAIA_SANTOS_BRASIL", "CIDADE": "SANTOS", "LATITUDE": -23.9887636, "LONGITUDE": -46.3047886 }, "geometry": { "type": "Point", "coordinates": [ -46.3047886, -23.9887636 ] } },
{ "type": "Feature", "properties": { "CNPJ": 50586276000171, "AGENTE": "PEDRO_VITOR_FERNANDES_VENCHIARUTTI", "ACAO": "REALIZAR_PRIMEIRA_VISITA_POTENCIAL", "RAZAO_SOCIAL": "50.586.276_MARIANGELA_PEREIRA_DOS_SANTOS", "ENDERECO": "AVENIDA_REI_ALBERTO_I_-_LADO_PAR_202_PONTA_DA_PRAIA_SANTOS_BRASIL", "CIDADE": "SANTOS", "LATITUDE": -23.988803, "LONGITUDE": -46.2997881 }, "geometry": { "type": "Point", "coordinates": [ -46.2997881, -23.988803 ] } },
{ "type": "Feature", "properties": { "CNPJ": 14296969000166, "AGENTE": "PEDRO_VITOR_FERNANDES_VENCHIARUTTI", "ACAO": "REALIZAR_PRIMEIRA_VISITA_POTENCIAL", "RAZAO_SOCIAL": "K._DOS_A._COSTA", "ENDERECO": "RUA_CARLOS_ALFREDO_RODERBOURG_61_VILA_CARLA_GUARUJA_BRASIL", "CIDADE": "GUARUJA", "LATITUDE": -23.9898613, "LONGITUDE": -46.2848131 }, "geometry": { "type": "Point", "coordinates": [ -46.2848131, -23.9898613 ] } },
{ "type": "Feature", "properties": { "CNPJ": 44640369000134, "AGENTE": "PEDRO_VITOR_FERNANDES_VENCHIARUTTI", "ACAO": "REALIZAR_PRIMEIRA_VISITA_POTENCIAL", "RAZAO_SOCIAL": "CIRILLO_MORENO_TAVARES_PALOS", "ENDERECO": "AVENIDA_ADHEMAR_DE_BARROS_2871_VILA_SANTA_ROSA_GUARUJA_BRASIL", "CIDADE": "GUARUJA", "LATITUDE": -23.9899797, "LONGITUDE": -46.2874888 }, "geometry": { "type": "Point", "coordinates": [ -46.2874888, -23.9899797 ] } },
{ "type": "Feature", "properties": { "CNPJ": 47304805000192, "AGENTE": "PEDRO_VITOR_FERNANDES_VENCHIARUTTI", "ACAO": "REALIZAR_PRIMEIRA_VISITA_POTENCIAL", "RAZAO_SOCIAL": "CRISTIANE_RODRIGUES_RAVAZZANI", "ENDERECO": "ALAMEDA_DAS_PALMAS_552_JARDIM_PRIMAVERA_GUARUJA_BRASIL", "CIDADE": "GUARUJA", "LATITUDE": -23.98999, "LONGITUDE": -46.2695737 }, "geometry": { "type": "Point", "coordinates": [ -46.2695737, -23.98999 ] } },
{ "type": "Feature", "properties": { "CNPJ": 44377560000135, "AGENTE": "PEDRO_VITOR_FERNANDES_VENCHIARUTTI", "ACAO": "REALIZAR_PRIMEIRA_VISITA_POTENCIAL", "RAZAO_SOCIAL": "PEDALLY_BIKE_COMERCIO_DE_PECAS_E_ACESSORIOS_LTDA", "ENDERECO": "RUA_LUIZ_LAURINDO_SANTANA_18_VILA_SANTA_ROSA_GUARUJA_BRASIL", "CIDADE": "GUARUJA", "LATITUDE": -23.9901274, "LONGITUDE": -46.2869949 }, "geometry": { "type": "Point", "coordinates": [ -46.2869949, -23.9901274 ] } },
{ "type": "Feature", "properties": { "CNPJ": 51115201000175, "AGENTE": "PEDRO_VITOR_FERNANDES_VENCHIARUTTI", "ACAO": "REALIZAR_PRIMEIRA_VISITA_POTENCIAL", "RAZAO_SOCIAL": "PARIS_MOVEIS_ARTESANAIS_LTDA", "ENDERECO": "AVENIDA_ADHEMAR_DE_BARROS_2174_VILA_SANTA_ROSA_GUARUJA_BRASIL", "CIDADE": "GUARUJA", "LATITUDE": -23.9905864, "LONGITUDE": -46.2816158 }, "geometry": { "type": "Point", "coordinates": [ -46.2816158, -23.9905864 ] } },
{ "type": "Feature", "properties": { "CNPJ": 33580151000115, "AGENTE": "PEDRO_VITOR_FERNANDES_VENCHIARUTTI", "ACAO": "REALIZAR_PRIMEIRA_VISITA_POTENCIAL", "RAZAO_SOCIAL": "L._DA_SILVA_OLIVEIRA_-_CENTRO_AUTOMOTIVO_LTDA", "ENDERECO": "AVENIDA_ADHEMAR_DE_BARROS_2116_JARDIM_SANTA_MARIA_GUARUJA_BRASIL", "CIDADE": "GUARUJA", "LATITUDE": -23.9908028, "LONGITUDE": -46.2804048 }, "geometry": { "type": "Point", "coordinates": [ -46.2804048, -23.9908028 ] } },
{ "type": "Feature", "properties": { "CNPJ": 44538989000167, "AGENTE": "PEDRO_VITOR_FERNANDES_VENCHIARUTTI", "ACAO": "REALIZAR_PRIMEIRA_VISITA_POTENCIAL", "RAZAO_SOCIAL": "INSTITUTO_NACIONAL_PROFISSIONALIZANTE_E_COMERCIO_DE_BELEZA_DO_GUARUJA_LTDA", "ENDERECO": "AVENIDA_ADHEMAR_DE_BARROS_2319_VILA_SANTA_ROSA_GUARUJA_BRASIL", "CIDADE": "GUARUJA", "LATITUDE": -23.9909159, "LONGITUDE": -46.2801902 }, "geometry": { "type": "Point", "coordinates": [ -46.2801902, -23.9909159 ] } },
{ "type": "Feature", "properties": { "CNPJ": 35465299000134, "AGENTE": "PEDRO_VITOR_FERNANDES_VENCHIARUTTI", "ACAO": "REALIZAR_PRIMEIRA_VISITA_POTENCIAL", "RAZAO_SOCIAL": "ADRIANA_ROSA", "ENDERECO": "AVENIDA_ANTONIO_CORREA_530_VILA_LIGYA_GUARUJA_BRASIL", "CIDADE": "GUARUJA", "LATITUDE": -23.9910719, "LONGITUDE": -46.2886225 }, "geometry": { "type": "Point", "coordinates": [ -46.2886225, -23.9910719 ] } },
{ "type": "Feature", "properties": { "CNPJ": 43102846000145, "AGENTE": "PEDRO_VITOR_FERNANDES_VENCHIARUTTI", "ACAO": "REALIZAR_PRIMEIRA_VISITA_POTENCIAL", "RAZAO_SOCIAL": "ALMEIDA_DOS_SANTOS_LIMA", "ENDERECO": "RUA_PADRE_DONIZETE_TAVARES_DE_LIMA_6_VILA_LIGYA_GUARUJA_BRASIL", "CIDADE": "GUARUJA", "LATITUDE": -23.9921449, "LONGITUDE": -46.288026 }, "geometry": { "type": "Point", "coordinates": [ -46.288026, -23.9921449 ] } },
{ "type": "Feature", "properties": { "CNPJ": 37594478000105, "AGENTE": "PEDRO_VITOR_FERNANDES_VENCHIARUTTI", "ACAO": "REALIZAR_PRIMEIRA_VISITA_POTENCIAL", "RAZAO_SOCIAL": "BEATRIZ_MACHADO_CANEDO", "ENDERECO": "RUA_AZUIL_LOUREIRO_-_DE_899/900_AO_FIM_1140_VILA_SANTA_ROSA_GUARUJA_BRASIL", "CIDADE": "GUARUJA", "LATITUDE": -23.9924226, "LONGITUDE": -46.283657 }, "geometry": { "type": "Point", "coordinates": [ -46.283657, -23.9924226 ] } },
{ "type": "Feature", "properties": { "CNPJ": 30627113000182, "AGENTE": "PEDRO_VITOR_FERNANDES_VENCHIARUTTI", "ACAO": "REALIZAR_PRIMEIRA_VISITA_POTENCIAL", "RAZAO_SOCIAL": "CAIO_CESAR_FREITAS_DE_ALMEIDA", "ENDERECO": "AVENIDA_ANTONIO_CORREA_340_VILA_LIGYA_GUARUJA_BRASIL", "CIDADE": "GUARUJA", "LATITUDE": -23.9927014, "LONGITUDE": -46.2895684 }, "geometry": { "type": "Point", "coordinates": [ -46.2895684, -23.9927014 ] } },
{ "type": "Feature", "properties": { "CNPJ": 23528561000163, "AGENTE": "PEDRO_VITOR_FERNANDES_VENCHIARUTTI", "ACAO": "REALIZAR_PRIMEIRA_VISITA_POTENCIAL", "RAZAO_SOCIAL": "LAURITA_DA_CRUZ_NUNES", "ENDERECO": "RUA_MARIO_RIBEIRO_45_PITANGUEIRAS_GUARUJA_BRASIL", "CIDADE": "GUARUJA", "LATITUDE": -23.9937343, "LONGITUDE": -46.2525501 }, "geometry": { "type": "Point", "coordinates": [ -46.2525501, -23.9937343 ] } },
{ "type": "Feature", "properties": { "CNPJ": 12542590000163, "AGENTE": "PEDRO_VITOR_FERNANDES_VENCHIARUTTI", "ACAO": "REALIZAR_PRIMEIRA_VISITA_POTENCIAL", "RAZAO_SOCIAL": "D_&_S_LINGERIE_LTDA", "ENDERECO": "RUA_HUMBERTO_REBIZZI_68_PITANGUEIRAS_GUARUJA_BRASIL", "CIDADE": "GUARUJA", "LATITUDE": -23.9957297, "LONGITUDE": -46.2555301 }, "geometry": { "type": "Point", "coordinates": [ -46.2555301, -23.9957297 ] } },
{ "type": "Feature", "properties": { "CNPJ": 51205965000151, "AGENTE": "PEDRO_VITOR_FERNANDES_VENCHIARUTTI", "ACAO": "REALIZAR_PRIMEIRA_VISITA_POTENCIAL", "RAZAO_SOCIAL": "51.205.965_CELSO_POHL_MOREIRA_DE_CASTILHO_FILHO", "ENDERECO": "AVENIDA_PUGLISI_96_C_PITANGUEIRAS_GUARUJA_BRASIL", "CIDADE": "GUARUJA", "LATITUDE": -23.9957305, "LONGITUDE": -46.2560817 }, "geometry": { "type": "Point", "coordinates": [ -46.2560817, -23.9957305 ] } },
{ "type": "Feature", "properties": { "CNPJ": 17797285000136, "AGENTE": "PEDRO_VITOR_FERNANDES_VENCHIARUTTI", "ACAO": "REALIZAR_PRIMEIRA_VISITA_POTENCIAL", "RAZAO_SOCIAL": "EDIVANIA_DA_SILVA_CUNHA_ARAUJO", "ENDERECO": "AVENIDA_MANUEL_ALBINO_1024_JARDIM_HELENA_MARIA_GUARUJA_BRASIL", "CIDADE": "GUARUJA", "LATITUDE": -23.9960533, "LONGITUDE": -46.2747398 }, "geometry": { "type": "Point", "coordinates": [ -46.2747398, -23.9960533 ] } },
{ "type": "Feature", "properties": { "CNPJ": 24196208000196, "AGENTE": "PEDRO_VITOR_FERNANDES_VENCHIARUTTI", "ACAO": "REALIZAR_PRIMEIRA_VISITA_POTENCIAL", "RAZAO_SOCIAL": "HELDER_LIMA_SILVA", "ENDERECO": "RUA_ANTONIO_FERNANDES_480_VILA_LIGYA_GUARUJA_BRASIL", "CIDADE": "GUARUJA", "LATITUDE": -23.9964251, "LONGITUDE": -46.2898946 }, "geometry": { "type": "Point", "coordinates": [ -46.2898946, -23.9964251 ] } },
{ "type": "Feature", "properties": { "CNPJ": 34982701000195, "AGENTE": "PEDRO_VITOR_FERNANDES_VENCHIARUTTI", "ACAO": "REALIZAR_PRIMEIRA_VISITA_POTENCIAL", "RAZAO_SOCIAL": "ADRIANA_BALDINO_FERREIRA", "ENDERECO": "RUA_JOSEFINA_SORIO_74_VILA_SANTA_ROSA_GUARUJA_BRASIL", "CIDADE": "GUARUJA", "LATITUDE": -23.9969826, "LONGITUDE": -46.2752127 }, "geometry": { "type": "Point", "coordinates": [ -46.2752127, -23.9969826 ] } },
{ "type": "Feature", "properties": { "CNPJ": 4330959200013, "AGENTE": "PEDRO_VITOR_FERNANDES_VENCHIARUTTI", "ACAO": "REALIZAR_PRIMEIRA_VISITA_POTENCIAL", "RAZAO_SOCIAL": "LUIZ_AUGUSTO_DE_LIMA_SILVA", "ENDERECO": "RUA_AGNELO_XAVIER_238_VILA_LIGYA_GUARUJA_BRASIL", "CIDADE": "GUARUJA", "LATITUDE": -23.9969996, "LONGITUDE": -46.2875508 }, "geometry": { "type": "Point", "coordinates": [ -46.2875508, -23.9969996 ] } },
{ "type": "Feature", "properties": { "CNPJ": 4831516300019, "AGENTE": "PEDRO_VITOR_FERNANDES_VENCHIARUTTI", "ACAO": "REALIZAR_PRIMEIRA_VISITA_POTENCIAL", "RAZAO_SOCIAL": "FORNERIA_DA_CACA_LTDA", "ENDERECO": "RUA_CAVALHEIRO_NAMI_JAFET_25_PITANGUEIRAS_GUARUJA_BRASIL", "CIDADE": "GUARUJA", "LATITUDE": -23.9975553, "LONGITUDE": -46.2567051 }, "geometry": { "type": "Point", "coordinates": [ -46.2567051, -23.9975553 ] } },
{ "type": "Feature", "properties": { "CNPJ": 37019607000123, "AGENTE": "PEDRO_VITOR_FERNANDES_VENCHIARUTTI", "ACAO": "REALIZAR_PRIMEIRA_VISITA_POTENCIAL", "RAZAO_SOCIAL": "JULIO_SILVA_REIS", "ENDERECO": "RUA_AFONSO_TEIXEIRA_VIDAL_241_VILA_SANTA_ROSA_GUARUJA_BRASIL", "CIDADE": "GUARUJA", "LATITUDE": -23.9977056, "LONGITUDE": -46.2836001 }, "geometry": { "type": "Point", "coordinates": [ -46.2836001, -23.9977056 ] } },
{ "type": "Feature", "properties": { "CNPJ": 17325826000123, "AGENTE": "PEDRO_VITOR_FERNANDES_VENCHIARUTTI", "ACAO": "REALIZAR_PRIMEIRA_VISITA_POTENCIAL", "RAZAO_SOCIAL": "REGIANE_SANTOS_DA_MOTTA_SANTANA", "ENDERECO": "RUA_LEONOR_DE_SOUZA_COSTA_42_SANTA_CRUZ_DOS_NAVEGANTES_GUARUJA_BRASIL", "CIDADE": "GUARUJA", "LATITUDE": -23.9978368, "LONGITUDE": -46.302422 }, "geometry": { "type": "Point", "coordinates": [ -46.302422, -23.9978368 ] } },
{ "type": "Feature", "properties": { "CNPJ": 45156976000196, "AGENTE": "PEDRO_VITOR_FERNANDES_VENCHIARUTTI", "ACAO": "REALIZAR_PRIMEIRA_VISITA_POTENCIAL", "RAZAO_SOCIAL": "MAISA_RAMOS_COSTA_FILHA", "ENDERECO": "RUA_ALEXANDRE_DIAS_DE_MENEZES_14_VILA_SANTA_ROSA_GUARUJA_BRASIL", "CIDADE": "GUARUJA", "LATITUDE": -23.9980999, "LONGITUDE": -46.2800813 }, "geometry": { "type": "Point", "coordinates": [ -46.2800813, -23.9980999 ] } },
{ "type": "Feature", "properties": { "CNPJ": 50620978000124, "AGENTE": "PEDRO_VITOR_FERNANDES_VENCHIARUTTI", "ACAO": "REALIZAR_PRIMEIRA_VISITA_POTENCIAL", "RAZAO_SOCIAL": "EDNA_SILVA_DOS_SANTOS", "ENDERECO": "RUA_VIVIANE_VILELA_GOMES_140_VILA_SANTA_ROSA_GUARUJA_BRASIL", "CIDADE": "GUARUJA", "LATITUDE": -24.0011698, "LONGITUDE": -46.280383 }, "geometry": { "type": "Point", "coordinates": [ -46.280383, -24.0011698 ] } },
{ "type": "Feature", "properties": { "CNPJ": 45656122000179, "AGENTE": "PEDRO_VITOR_FERNANDES_VENCHIARUTTI", "ACAO": "REALIZAR_PRIMEIRA_VISITA_POTENCIAL", "RAZAO_SOCIAL": "LIBERTY_SHOP_COMERCIAL_LTDA", "ENDERECO": "RUA_DO_PARQUE_273_ENSEADA_GUARUJA_BRASIL", "CIDADE": "SANTOS", "LATITUDE": -24.0012597, "LONGITUDE": -46.2657074 }, "geometry": { "type": "Point", "coordinates": [ -46.2657074, -24.0012597 ] } },
{ "type": "Feature", "properties": { "CNPJ": 46334332000103, "AGENTE": "PEDRO_VITOR_FERNANDES_VENCHIARUTTI", "ACAO": "REALIZAR_PRIMEIRA_VISITA_POTENCIAL", "RAZAO_SOCIAL": "TATIANA_M._P._G._ANDRADE_LTDA", "ENDERECO": "AVENIDA_GENERAL_RONDON_30_VILA_ALZIRA_GUARUJA_BRASIL", "CIDADE": "GUARUJA", "LATITUDE": -24.0033658, "LONGITUDE": -46.2661142 }, "geometry": { "type": "Point", "coordinates": [ -46.2661142, -24.0033658 ] } },
{ "type": "Feature", "properties": { "CNPJ": 2646671100014, "AGENTE": "PEDRO_VITOR_FERNANDES_VENCHIARUTTI", "ACAO": "REALIZAR_PRIMEIRA_VISITA_POTENCIAL", "RAZAO_SOCIAL": "CONEXAO_DRINKS_LTDA", "ENDERECO": "RUA_NELSON_HORACIO_CONCEICAO_86_JARDIM_LAS_PALMAS_GUARUJA_BRASIL", "CIDADE": "GUARUJA", "LATITUDE": -24.0039209, "LONGITUDE": -46.2741218 }, "geometry": { "type": "Point", "coordinates": [ -46.2741218, -24.0039209 ] } },
{ "type": "Feature", "properties": { "CNPJ": 21096290000199, "AGENTE": "PEDRO_VITOR_FERNANDES_VENCHIARUTTI", "ACAO": "REALIZAR_PRIMEIRA_VISITA_POTENCIAL", "RAZAO_SOCIAL": "ROSILENE_MARIA_DOS_REIS", "ENDERECO": "RUA_OSVALDO_RUBENS_LOURENCO_325_JARDIM_LAS_PALMAS_GUARUJA_BRASIL", "CIDADE": "GUARUJA", "LATITUDE": -24.0065377, "LONGITUDE": -46.274945 }, "geometry": { "type": "Point", "coordinates": [ -46.274945, -24.0065377 ] } },
{ "type": "Feature", "properties": { "CNPJ": 244569250001, "AGENTE": "PEDRO_VITOR_FERNANDES_VENCHIARUTTI", "ACAO": "REALIZAR_PRIMEIRA_VISITA_POTENCIAL", "RAZAO_SOCIAL": "GS_DISTRIBUIDORA_DE_BEBIDAS_LTDA", "ENDERECO": "RUA_EMILIO_PORTELA_249_VILA_ALZIRA_GUARUJA_BRASIL", "CIDADE": "GUARUJA", "LATITUDE": -24.0092129, "LONGITUDE": -46.2705178 }, "geometry": { "type": "Point", "coordinates": [ -46.2705178, -24.0092129 ] } },
{ "type": "Feature", "properties": { "CNPJ": 12016392000166, "AGENTE": "PEDRO_VITOR_FERNANDES_VENCHIARUTTI", "ACAO": "REALIZAR_PRIMEIRA_VISITA_POTENCIAL", "RAZAO_SOCIAL": "ACACIO_PEREIRA_DE_MACEDO_NETO", "ENDERECO": "AVENIDA_GENERAL_RONDON_938_VILA_ALZIRA_GUARUJA_BRASIL", "CIDADE": "SANTOS", "LATITUDE": -24.0117198, "LONGITUDE": -46.27166709 }, "geometry": { "type": "Point", "coordinates": [ -46.27166709, -24.0117198 ] } },
{ "type": "Feature", "properties": { "CNPJ": 2800133000011, "AGENTE": "PEDRO_VITOR_FERNANDES_VENCHIARUTTI", "ACAO": "REALIZAR_PRIMEIRA_VISITA_POTENCIAL", "RAZAO_SOCIAL": "RODRIGO_DA_CUNHA_PASTORELLO", "ENDERECO": "RUA_LINO_DA_CUNHA_LEAL_790_GUAIUBA_GUARUJA_BRASIL", "CIDADE": "GUARUJA", "LATITUDE": -24.0124507, "LONGITUDE": -46.2824063 }, "geometry": { "type": "Point", "coordinates": [ -46.2824063, -24.0124507 ] } }
]
}
