{
"type": "FeatureCollection",
"name": "ROBERTA_ARAUJO_MEDRADO",
"crs": { "type": "name", "properties": { "name": "urn:ogc:def:crs:OGC:1.3:CRS84" } },
"xy_coordinate_resolution": 1e-15,
"features": [
{ "type": "Feature", "properties": { "CNPJ": 17600581000103, "AGENTE": "ROBERTA_ARAUJO_MEDRADO", "ACAO": "REALIZAR_PRIMEIRA_VISITA", "RAZAO_SOCIAL": "ASTEC_SERVICOS_E_COMERCIO_DE_EQUIPAMENTOS_DE_COMBATE_A_INCENDIO_LTDA", "ENDERECO": "AVENIDA_ENGENHEIRO_SOARES_DE_CAMARGO_647_CIDADE_PATRIARCA_SAO_PAULO", "CIDADE": "SAO_PAULO", "LATITUDE": -23.5419998, "LONGITUDE": -46.499216 }, "geometry": { "type": "Point", "coordinates": [ -46.499216, -23.5419998 ] } },
{ "type": "Feature", "properties": { "CNPJ": 7594265000104, "AGENTE": "ROBERTA_ARAUJO_MEDRADO", "ACAO": "REALIZAR_PRIMEIRA_VISITA", "RAZAO_SOCIAL": "ADONAY_ITA_COMERCIO_DE_COIFAS_E_CALHAS_LTDA", "ENDERECO": "AVENIDA_ITAQUERA_2507_JARDIM_MARINGA_SAO_PAULO", "CIDADE": "SAO_PAULO", "LATITUDE": -23.5496898, "LONGITUDE": -46.5015931 }, "geometry": { "type": "Point", "coordinates": [ -46.5015931, -23.5496898 ] } },
{ "type": "Feature", "properties": { "CNPJ": 3272006000106, "AGENTE": "ROBERTA_ARAUJO_MEDRADO", "ACAO": "REALIZAR_PRIMEIRA_VISITA", "RAZAO_SOCIAL": "ORGANIZACAO_DE_NEGOCIOS_TR_S/S_LTDA", "ENDERECO": "AVENIDA_ITAQUERA_2575_JARDIM_MARINGA_SAO_PAULO", "CIDADE": "SAO_PAULO", "LATITUDE": -23.5499833, "LONGITUDE": -46.50106 }, "geometry": { "type": "Point", "coordinates": [ -46.50106, -23.5499833 ] } },
{ "type": "Feature", "properties": { "CNPJ": 60792033000143, "AGENTE": "ROBERTA_ARAUJO_MEDRADO", "ACAO": "REALIZAR_PRIMEIRA_VISITA", "RAZAO_SOCIAL": "COMERCIAL_TUBO_LESTE_LTDA", "ENDERECO": "AVENIDA_ITAQUERA_2671_JARDIM_MARINGA_SAO_PAULO", "CIDADE": "SAO_PAULO", "LATITUDE": -23.5496161, "LONGITUDE": -46.4999867 }, "geometry": { "type": "Point", "coordinates": [ -46.4999867, -23.5496161 ] } },
{ "type": "Feature", "properties": { "CNPJ": 39941847000106, "AGENTE": "ROBERTA_ARAUJO_MEDRADO", "ACAO": "REALIZAR_PRIMEIRA_VISITA", "RAZAO_SOCIAL": "BRECHO_POR_KILO_COMERCIO_DE_ARTIGOS_DO_VESTUARIO_E_ACESSORIOS_LTDA", "ENDERECO": "AVENIDA_MARCONDES_DE_BRITO_1287_CHACARA_SEIS_DE_OUTUBRO_SAO_PAULO", "CIDADE": "SAO_PAULO", "LATITUDE": -23.536625, "LONGITUDE": -46.527855 }, "geometry": { "type": "Point", "coordinates": [ -46.527855, -23.536625 ] } },
{ "type": "Feature", "properties": { "CNPJ": 30466022000102, "AGENTE": "ROBERTA_ARAUJO_MEDRADO", "ACAO": "REALIZAR_PRIMEIRA_VISITA", "RAZAO_SOCIAL": "CASA_DE_CARNES_VILA_BARROS_LTDA", "ENDERECO": "AVENIDA_OSVALDO_VALLE_CORDEIRO_208_JARDIM_BRASILIA_SAO_PAULO", "CIDADE": "SAO_PAULO", "LATITUDE": -23.5546061, "LONGITUDE": -46.4922788 }, "geometry": { "type": "Point", "coordinates": [ -46.4922788, -23.5546061 ] } },
{ "type": "Feature", "properties": { "CNPJ": 20184612000199, "AGENTE": "ROBERTA_ARAUJO_MEDRADO", "ACAO": "REALIZAR_PRIMEIRA_VISITA", "RAZAO_SOCIAL": "CONVERSAO_COMERCIO_DE_VESTUARIO_LTDA", "ENDERECO": "AVENIDA_OSVALDO_VALLE_CORDEIRO_208_JARDIM_BRASILIA_SAO_PAULO", "CIDADE": "SAO_PAULO", "LATITUDE": -23.5547115, "LONGITUDE": -46.4923332 }, "geometry": { "type": "Point", "coordinates": [ -46.4923332, -23.5547115 ] } },
{ "type": "Feature", "properties": { "CNPJ": 12369182000232, "AGENTE": "ROBERTA_ARAUJO_MEDRADO", "ACAO": "REALIZAR_PRIMEIRA_VISITA", "RAZAO_SOCIAL": "CASA_DE_TINTAS_V.W._LTDA", "ENDERECO": "AVENIDA_OSVALDO_VALLE_CORDEIRO_498_JARDIM_BRASILIA_SAO_PAULO", "CIDADE": "SAO_PAULO", "LATITUDE": -23.5575212, "LONGITUDE": -46.4916868 }, "geometry": { "type": "Point", "coordinates": [ -46.4916868, -23.5575212 ] } },
{ "type": "Feature", "properties": { "CNPJ": 3166474000104, "AGENTE": "ROBERTA_ARAUJO_MEDRADO", "ACAO": "REALIZAR_PRIMEIRA_VISITA", "RAZAO_SOCIAL": "JOAO_VANDERLEI_DE_SOUZA", "ENDERECO": "AVENIDA_SOUSA_BANDEIRA_288_VILA_NHOCUNE_SAO_PAULO", "CIDADE": "SAO_PAULO", "LATITUDE": -23.5470167, "LONGITUDE": -46.5015317 }, "geometry": { "type": "Point", "coordinates": [ -46.5015317, -23.5470167 ] } },
{ "type": "Feature", "properties": { "CNPJ": 55176742000164, "AGENTE": "ROBERTA_ARAUJO_MEDRADO", "ACAO": "REALIZAR_PRIMEIRA_VISITA", "RAZAO_SOCIAL": "PET_SAUDE_INTEGRAL_LTDA", "ENDERECO": "RUA_ANTONIO_DE_BARROS_1148_TATUAPE_SAO_PAULO", "CIDADE": "SAO_PAULO", "LATITUDE": -23.5403523, "LONGITUDE": -46.5573347 }, "geometry": { "type": "Point", "coordinates": [ -46.5573347, -23.5403523 ] } },
{ "type": "Feature", "properties": { "CNPJ": 32243728000130, "AGENTE": "ROBERTA_ARAUJO_MEDRADO", "ACAO": "REALIZAR_PRIMEIRA_VISITA", "RAZAO_SOCIAL": "LUCIANA_CRISTINA_DE_SOUZA", "ENDERECO": "RUA_ANTONIO_DE_BARROS_1355_TATUAPE_SAO_PAULO", "CIDADE": "SAO_PAULO", "LATITUDE": -23.5422, "LONGITUDE": -46.556935 }, "geometry": { "type": "Point", "coordinates": [ -46.556935, -23.5422 ] } },
{ "type": "Feature", "properties": { "CNPJ": 2515874000107, "AGENTE": "ROBERTA_ARAUJO_MEDRADO", "ACAO": "REALIZAR_PRIMEIRA_VISITA", "RAZAO_SOCIAL": "LIRIO_STUDIO_LTDA", "ENDERECO": "RUA_ANTONIO_MORAIS_BARROS_4_VILA_ZILDA_SAO_PAULO", "CIDADE": "SAO_PAULO", "LATITUDE": -23.5334691, "LONGITUDE": -46.5644971 }, "geometry": { "type": "Point", "coordinates": [ -46.5644971, -23.5334691 ] } },
{ "type": "Feature", "properties": { "CNPJ": 8095703000152, "AGENTE": "ROBERTA_ARAUJO_MEDRADO", "ACAO": "REALIZAR_PRIMEIRA_VISITA", "RAZAO_SOCIAL": "SAUDE_FARMA_COMERCIO_DE_MEDICAMENTOS_LTDA", "ENDERECO": "RUA_BOM_SUCESSO_1300_CIDADE_MAE_DO_CEU_SAO_PAULO", "CIDADE": "SAO_PAULO", "LATITUDE": -23.5506232, "LONGITUDE": -46.5759015 }, "geometry": { "type": "Point", "coordinates": [ -46.5759015, -23.5506232 ] } },
{ "type": "Feature", "properties": { "CNPJ": 39611699000161, "AGENTE": "ROBERTA_ARAUJO_MEDRADO", "ACAO": "REALIZAR_PRIMEIRA_VISITA", "RAZAO_SOCIAL": "W_E_MARCENARIA_E_MOVEIS_PLANEJADOS_LTDA", "ENDERECO": "RUA_CAQUITO_422_VILA_SAO_GERALDO_SAO_PAULO", "CIDADE": "SAO_PAULO", "LATITUDE": -23.5202341, "LONGITUDE": -46.5429036 }, "geometry": { "type": "Point", "coordinates": [ -46.5429036, -23.5202341 ] } },
{ "type": "Feature", "properties": { "CNPJ": 50619226000143, "AGENTE": "ROBERTA_ARAUJO_MEDRADO", "ACAO": "REALIZAR_PRIMEIRA_VISITA", "RAZAO_SOCIAL": "GASTROBAR_O_MEDEIROS_LTDA", "ENDERECO": "RUA_CESARIO_GALERO_200_TATUAPE_SAO_PAULO", "CIDADE": "SAO_PAULO", "LATITUDE": -23.5347569, "LONGITUDE": -46.563041 }, "geometry": { "type": "Point", "coordinates": [ -46.563041, -23.5347569 ] } },
{ "type": "Feature", "properties": { "CNPJ": 14963486000178, "AGENTE": "ROBERTA_ARAUJO_MEDRADO", "ACAO": "REALIZAR_PRIMEIRA_VISITA", "RAZAO_SOCIAL": "ROSA_CHICLE_MODA_FEMININA_LTDA", "ENDERECO": "RUA_COSTA_REGO_44_VILA_GUILHERMINA_SAO_PAULO", "CIDADE": "SAO_PAULO", "LATITUDE": -23.5319093, "LONGITUDE": -46.5166205 }, "geometry": { "type": "Point", "coordinates": [ -46.5166205, -23.5319093 ] } },
{ "type": "Feature", "properties": { "CNPJ": 53794775000142, "AGENTE": "ROBERTA_ARAUJO_MEDRADO", "ACAO": "REALIZAR_PRIMEIRA_VISITA", "RAZAO_SOCIAL": "COMERCIO_MATERIAL_DE_ELETRICA_E_ILUMINACAO_DE_LED_D_GRACA_LTDA", "ENDERECO": "RUA_COSTA_REGO_57_VILA_GUILHERMINA_SAO_PAULO", "CIDADE": "SAO_PAULO", "LATITUDE": -23.5318823, "LONGITUDE": -46.516535 }, "geometry": { "type": "Point", "coordinates": [ -46.516535, -23.5318823 ] } },
{ "type": "Feature", "properties": { "CNPJ": 41737349000198, "AGENTE": "ROBERTA_ARAUJO_MEDRADO", "ACAO": "REALIZAR_PRIMEIRA_VISITA", "RAZAO_SOCIAL": "WH_LANCHONETE_LTDA", "ENDERECO": "RUA_DONA_MATILDE_381_VILA_MATILDE_SAO_PAULO", "CIDADE": "SAO_PAULO", "LATITUDE": -23.5356454, "LONGITUDE": -46.525972 }, "geometry": { "type": "Point", "coordinates": [ -46.525972, -23.5356454 ] } },
{ "type": "Feature", "properties": { "CNPJ": 39509057000156, "AGENTE": "ROBERTA_ARAUJO_MEDRADO", "ACAO": "REALIZAR_PRIMEIRA_VISITA", "RAZAO_SOCIAL": "BETA_FITNESS_COMERCIO_DE_ROUPAS_E_ACESSORIOS_LTDA", "ENDERECO": "RUA_DONA_MATILDE_660_VILA_MATILDE_SAO_PAULO", "CIDADE": "SAO_PAULO", "LATITUDE": -23.5381817, "LONGITUDE": -46.5254541 }, "geometry": { "type": "Point", "coordinates": [ -46.5254541, -23.5381817 ] } },
{ "type": "Feature", "properties": { "CNPJ": 32759512000122, "AGENTE": "ROBERTA_ARAUJO_MEDRADO", "ACAO": "REALIZAR_PRIMEIRA_VISITA", "RAZAO_SOCIAL": "CAIO_SIQUEIRA_LIMA_CROSSFIT", "ENDERECO": "RUA_DOUTOR_ARMANDO_BRANDAO_56_VILA_MATILDE_SAO_PAULO", "CIDADE": "SAO_PAULO", "LATITUDE": -23.53456, "LONGITUDE": -46.5250945 }, "geometry": { "type": "Point", "coordinates": [ -46.5250945, -23.53456 ] } },
{ "type": "Feature", "properties": { "CNPJ": 22262435000147, "AGENTE": "ROBERTA_ARAUJO_MEDRADO", "ACAO": "REALIZAR_PRIMEIRA_VISITA", "RAZAO_SOCIAL": "GESSO_ART_BELLA_LTDA", "ENDERECO": "RUA_DOUTOR_RAUL_DA_ROCHA_MEDEIROS_157_TATUAPE_SAO_PAULO", "CIDADE": "SAO_PAULO", "LATITUDE": -23.5343009, "LONGITUDE": -46.562971 }, "geometry": { "type": "Point", "coordinates": [ -46.562971, -23.5343009 ] } },
{ "type": "Feature", "properties": { "CNPJ": 53909296000124, "AGENTE": "ROBERTA_ARAUJO_MEDRADO", "ACAO": "REALIZAR_PRIMEIRA_VISITA", "RAZAO_SOCIAL": "MR_FIT_CAFE_EXPRESS_TATUAPE_LTDA", "ENDERECO": "RUA_EMILIO_MALLET_150_VILA_GOMES_CARDIM_SAO_PAULO", "CIDADE": "SAO_PAULO", "LATITUDE": -23.5478954, "LONGITUDE": -46.5723002 }, "geometry": { "type": "Point", "coordinates": [ -46.5723002, -23.5478954 ] } },
{ "type": "Feature", "properties": { "CNPJ": 55333427000101, "AGENTE": "ROBERTA_ARAUJO_MEDRADO", "ACAO": "REALIZAR_PRIMEIRA_VISITA", "RAZAO_SOCIAL": "CONFEITARIA_MORAES_&_MARTOS_LTDA", "ENDERECO": "RUA_FIGUEIRA_DA_BARBARIA_28_JARDIM_BRASILIA_SAO_PAULO", "CIDADE": "SAO_PAULO", "LATITUDE": -23.5557549, "LONGITUDE": -46.4922873 }, "geometry": { "type": "Point", "coordinates": [ -46.4922873, -23.5557549 ] } },
{ "type": "Feature", "properties": { "CNPJ": 51680919000104, "AGENTE": "ROBERTA_ARAUJO_MEDRADO", "ACAO": "REALIZAR_PRIMEIRA_VISITA", "RAZAO_SOCIAL": "BC_UNIFORMES_LTDA", "ENDERECO": "RUA_FIGUEIRA_DA_BARBARIA_28_JARDIM_BRASILIA_SAO_PAULO", "CIDADE": "SAO_PAULO", "LATITUDE": -23.5557797, "LONGITUDE": -46.4923063 }, "geometry": { "type": "Point", "coordinates": [ -46.4923063, -23.5557797 ] } },
{ "type": "Feature", "properties": { "CNPJ": 42000724000185, "AGENTE": "ROBERTA_ARAUJO_MEDRADO", "ACAO": "REALIZAR_PRIMEIRA_VISITA", "RAZAO_SOCIAL": "VIVENDA_NACIONAL_LTDA", "ENDERECO": "RUA_GONCALVES_CRESPO_78_TATUAPE_SAO_PAULO", "CIDADE": "SAO_PAULO", "LATITUDE": -23.5387753, "LONGITUDE": -46.5762709 }, "geometry": { "type": "Point", "coordinates": [ -46.5762709, -23.5387753 ] } },
{ "type": "Feature", "properties": { "CNPJ": 49766105000145, "AGENTE": "ROBERTA_ARAUJO_MEDRADO", "ACAO": "REALIZAR_PRIMEIRA_VISITA", "RAZAO_SOCIAL": "ARTENO_COMERCIO_DE_PAES_LTDA", "ENDERECO": "RUA_ITAPETI_294_VILA_GOMES_CARDIM_SAO_PAULO", "CIDADE": "SAO_PAULO", "LATITUDE": -23.5514538, "LONGITUDE": -46.5684643 }, "geometry": { "type": "Point", "coordinates": [ -46.5684643, -23.5514538 ] } },
{ "type": "Feature", "properties": { "CNPJ": 17103428000162, "AGENTE": "ROBERTA_ARAUJO_MEDRADO", "ACAO": "REALIZAR_PRIMEIRA_VISITA", "RAZAO_SOCIAL": "PRISCILA_DE_MORAES_PEREIRA_MODAS__ACESSORIOS_E_APOIO_ADMINISTRATIVO", "ENDERECO": "RUA_ITINGUCU_1233_VILA_RE_SAO_PAULO", "CIDADE": "SAO_PAULO", "LATITUDE": -23.526351, "LONGITUDE": -46.5034972 }, "geometry": { "type": "Point", "coordinates": [ -46.5034972, -23.526351 ] } },
{ "type": "Feature", "properties": { "CNPJ": 59058713000159, "AGENTE": "ROBERTA_ARAUJO_MEDRADO", "ACAO": "REALIZAR_PRIMEIRA_VISITA", "RAZAO_SOCIAL": "ROQUE_BALLESTER_RESTAURANTE_E_LANCHONETE_LTDA", "ENDERECO": "RUA_ITINGUCU_1255_VILA_RE_SAO_PAULO", "CIDADE": "SAO_PAULO", "LATITUDE": -23.5264997, "LONGITUDE": -46.503341 }, "geometry": { "type": "Point", "coordinates": [ -46.503341, -23.5264997 ] } },
{ "type": "Feature", "properties": { "CNPJ": 7456412000180, "AGENTE": "ROBERTA_ARAUJO_MEDRADO", "ACAO": "REALIZAR_PRIMEIRA_VISITA", "RAZAO_SOCIAL": "FABIANA_DESSIDERIO_VIEIRA_OTICA", "ENDERECO": "RUA_MACIEL_MONTEIRO_752_VILA_SANTA_TERESA_SAO_PAULO", "CIDADE": "SAO_PAULO", "LATITUDE": -23.5419317, "LONGITUDE": -46.49238 }, "geometry": { "type": "Point", "coordinates": [ -46.49238, -23.5419317 ] } },
{ "type": "Feature", "properties": { "CNPJ": 45901515000109, "AGENTE": "ROBERTA_ARAUJO_MEDRADO", "ACAO": "REALIZAR_PRIMEIRA_VISITA", "RAZAO_SOCIAL": "VSDD_COMERCIO_DE_ALIMENTOS_LTDA", "ENDERECO": "RUA_OTELO_RIZZO_13_VILA_GOMES_CARDIM_SAO_PAULO", "CIDADE": "SAO_PAULO", "LATITUDE": -23.55109, "LONGITUDE": -46.5666767 }, "geometry": { "type": "Point", "coordinates": [ -46.5666767, -23.55109 ] } },
{ "type": "Feature", "properties": { "CNPJ": 21522137000186, "AGENTE": "ROBERTA_ARAUJO_MEDRADO", "ACAO": "REALIZAR_PRIMEIRA_VISITA", "RAZAO_SOCIAL": "COYOTE_PET_SHOP_COMERCIO_E_SERVICOS_PARA_ANIMAIS_LTDA", "ENDERECO": "RUA_SAO_BENTO_DO_SAPUCAI_674_VILA_GUILHERMINA_SAO_PAULO", "CIDADE": "SAO_PAULO", "LATITUDE": -23.5327568, "LONGITUDE": -46.5144569 }, "geometry": { "type": "Point", "coordinates": [ -46.5144569, -23.5327568 ] } },
{ "type": "Feature", "properties": { "CNPJ": 44156218000105, "AGENTE": "ROBERTA_ARAUJO_MEDRADO", "ACAO": "REALIZAR_PRIMEIRA_VISITA", "RAZAO_SOCIAL": "MAMEDIO'S_MATERIAIS_DE_CONSTRUCAO_LTDA", "ENDERECO": "RUA_SERRA_DE_BOTUCATU_1779_VILA_GOMES_CARDIM_SAO_PAULO", "CIDADE": "SAO_PAULO", "LATITUDE": -23.5410874, "LONGITUDE": -46.554054 }, "geometry": { "type": "Point", "coordinates": [ -46.554054, -23.5410874 ] } },
{ "type": "Feature", "properties": { "CNPJ": 58675802000181, "AGENTE": "ROBERTA_ARAUJO_MEDRADO", "ACAO": "REALIZAR_PRIMEIRA_VISITA", "RAZAO_SOCIAL": "MODAS_PRIACA_LIMITADA", "ENDERECO": "RUA_SERRA_DE_JAPI_1335_VILA_GOMES_CARDIM_SAO_PAULO", "CIDADE": "SAO_PAULO", "LATITUDE": -23.5512346, "LONGITUDE": -46.5677643 }, "geometry": { "type": "Point", "coordinates": [ -46.5677643, -23.5512346 ] } },
{ "type": "Feature", "properties": { "CNPJ": 39880911000196, "AGENTE": "ROBERTA_ARAUJO_MEDRADO", "ACAO": "REALIZAR_PRIMEIRA_VISITA", "RAZAO_SOCIAL": "EXCLUSIVA_TATUAPE_CARNES_NOBRES_LTDA", "ENDERECO": "RUA_SERRA_DE_JAPI_1371_VILA_GOMES_CARDIM_CAPITAL_LESTE", "CIDADE": "CAPITAL_LESTE", "LATITUDE": -23.5513692, "LONGITUDE": -46.5675784 }, "geometry": { "type": "Point", "coordinates": [ -46.5675784, -23.5513692 ] } },
{ "type": "Feature", "properties": { "CNPJ": 40623016000175, "AGENTE": "ROBERTA_ARAUJO_MEDRADO", "ACAO": "REALIZAR_PRIMEIRA_VISITA", "RAZAO_SOCIAL": "PROVENCE_CAFES_ESPECIAIS_LTDA", "ENDERECO": "RUA_SERRA_DE_JAPI_1378_VILA_GOMES_CARDIM_SAO_PAULO", "CIDADE": "SAO_PAULO", "LATITUDE": -23.5514267, "LONGITUDE": -46.56772 }, "geometry": { "type": "Point", "coordinates": [ -46.56772, -23.5514267 ] } },
{ "type": "Feature", "properties": { "CNPJ": 44873650000117, "AGENTE": "ROBERTA_ARAUJO_MEDRADO", "ACAO": "REALIZAR_PRIMEIRA_VISITA", "RAZAO_SOCIAL": "EDSON_ROCHA_DONHA_MECANICA", "ENDERECO": "RUA_TAPAIUNA_199_JARDIM_SANTA_MARIA_SAO_PAULO", "CIDADE": "SAO_PAULO", "LATITUDE": -23.5516197, "LONGITUDE": -46.5074306 }, "geometry": { "type": "Point", "coordinates": [ -46.5074306, -23.5516197 ] } },
{ "type": "Feature", "properties": { "CNPJ": 57820838000149, "AGENTE": "ROBERTA_ARAUJO_MEDRADO", "ACAO": "REALIZAR_PRIMEIRA_VISITA", "RAZAO_SOCIAL": "ISA&GI_COMERCIO_OTICO_LTDA", "ENDERECO": "RUA_TUIUTI_2297_TATUAPE_SAO_PAULO", "CIDADE": "SAO_PAULO", "LATITUDE": -23.5449995, "LONGITUDE": -46.5743791 }, "geometry": { "type": "Point", "coordinates": [ -46.5743791, -23.5449995 ] } },
{ "type": "Feature", "properties": { "CNPJ": 60513177000113, "AGENTE": "ROBERTA_ARAUJO_MEDRADO", "ACAO": "REALIZAR_PRIMEIRA_VISITA", "RAZAO_SOCIAL": "GRAO_JARDIM_CAFE_LTDA", "ENDERECO": "RUA_TUIUTI_2641_TATUAPE_SAO_PAULO", "CIDADE": "SAO_PAULO", "LATITUDE": -23.5488197, "LONGITUDE": -46.5735146 }, "geometry": { "type": "Point", "coordinates": [ -46.5735146, -23.5488197 ] } },
{ "type": "Feature", "properties": { "CNPJ": 48317276000124, "AGENTE": "ROBERTA_ARAUJO_MEDRADO", "ACAO": "REALIZAR_PRIMEIRA_VISITA", "RAZAO_SOCIAL": "CLINICA_JS_ODONTOLOGIA_ESTETICA_E_HARMONIZACAO_LTDA", "ENDERECO": "RUA_TUIUTI_2663_TATUAPE_SAO_PAULO", "CIDADE": "SAO_PAULO", "LATITUDE": -23.5489783, "LONGITUDE": -46.5734756 }, "geometry": { "type": "Point", "coordinates": [ -46.5734756, -23.5489783 ] } },
{ "type": "Feature", "properties": { "CNPJ": 10564718000164, "AGENTE": "ROBERTA_ARAUJO_MEDRADO", "ACAO": "REALIZAR_PRIMEIRA_VISITA", "RAZAO_SOCIAL": "WAGNER_JOSE_MARCHI_GOMES_PEQUENEZA_JUNIOR", "ENDERECO": "RUA_WADIH_HATTI_228_VILA_RE_SAO_PAULO", "CIDADE": "SAO_PAULO", "LATITUDE": -23.5296158, "LONGITUDE": -46.4953742 }, "geometry": { "type": "Point", "coordinates": [ -46.4953742, -23.5296158 ] } },
{ "type": "Feature", "properties": { "CNPJ": 48143756000116, "AGENTE": "ROBERTA_ARAUJO_MEDRADO", "ACAO": "REALIZAR_SEGUNDA_VISITA", "RAZAO_SOCIAL": "SIL_UNIFORMES_E_MATERIAIS_ESCOLARES_LTDA_-_SIL_UNIFORMES_E_MATERIAIS_ESCOLARES_LTDA", "ENDERECO": "AVENIDA_AGUIA_DE_HAIA_1498_PARQUE_PAINEIRAS_SAO_PAULO", "CIDADE": "SAO_PAULO", "LATITUDE": -23.5327924, "LONGITUDE": -46.4734532 }, "geometry": { "type": "Point", "coordinates": [ -46.4734532, -23.5327924 ] } },
{ "type": "Feature", "properties": { "CNPJ": 50592060000119, "AGENTE": "ROBERTA_ARAUJO_MEDRADO", "ACAO": "REALIZAR_SEGUNDA_VISITA", "RAZAO_SOCIAL": "PRAZER_COLCHOES_LTDA_-__PRAZER_COLCHOES_LTDA", "ENDERECO": "AVENIDA_CAMPANELLA_1156_ITAQUERA_SAO_PAULO", "CIDADE": "SAO_PAULO", "LATITUDE": -23.5358238, "LONGITUDE": -46.4642382 }, "geometry": { "type": "Point", "coordinates": [ -46.4642382, -23.5358238 ] } },
{ "type": "Feature", "properties": { "CNPJ": 3066361000129, "AGENTE": "ROBERTA_ARAUJO_MEDRADO", "ACAO": "REALIZAR_SEGUNDA_VISITA", "RAZAO_SOCIAL": "BELLIDECOR_COMERCIO_DE_MOVEIS_LTDA_-_BELLE_DE_COR_MOVEIS_PLANEJADOS", "ENDERECO": "AVENIDA_CAMPANELLA_2173_JARDIM_ITAPEMIRIM_SAO_PAULO", "CIDADE": "SAO_PAULO", "LATITUDE": -23.5338163, "LONGITUDE": -46.4563066 }, "geometry": { "type": "Point", "coordinates": [ -46.4563066, -23.5338163 ] } },
{ "type": "Feature", "properties": { "CNPJ": 30285874000101, "AGENTE": "ROBERTA_ARAUJO_MEDRADO", "ACAO": "REALIZAR_SEGUNDA_VISITA", "RAZAO_SOCIAL": "MARCENARIA_FERREIRA_LTDA_-_MARCENARIA_FERREIRA", "ENDERECO": "AVENIDA_CELSO_GARCIA_3615_TATUAPE_SAO_PAULO", "CIDADE": "SAO_PAULO", "LATITUDE": -23.5347799, "LONGITUDE": -46.5774734 }, "geometry": { "type": "Point", "coordinates": [ -46.5774734, -23.5347799 ] } },
{ "type": "Feature", "properties": { "CNPJ": 24662254000133, "AGENTE": "ROBERTA_ARAUJO_MEDRADO", "ACAO": "REALIZAR_SEGUNDA_VISITA", "RAZAO_SOCIAL": "MERCADINHO_ESTRELA_E_CONVENIENCIA_ARTIGOS_E_ACESSORIOS_LTDA_-_ESTRELA_CONVENIENCIA", "ENDERECO": "AVENIDA_CELSO_GARCIA_3619_TATUAPE_SAO_PAULO", "CIDADE": "SAO_PAULO", "LATITUDE": -23.5348737, "LONGITUDE": -46.5773311 }, "geometry": { "type": "Point", "coordinates": [ -46.5773311, -23.5348737 ] } },
{ "type": "Feature", "properties": { "CNPJ": 8063500000184, "AGENTE": "ROBERTA_ARAUJO_MEDRADO", "ACAO": "REALIZAR_SEGUNDA_VISITA", "RAZAO_SOCIAL": "CELMAR_FOTO_E_VIDEO_LTDA_-_OPTICA_LINI", "ENDERECO": "AVENIDA_CELSO_GARCIA_3970_TATUAPE_SAO_PAULO", "CIDADE": "SAO_PAULO", "LATITUDE": -23.5356317, "LONGITUDE": -46.5739392 }, "geometry": { "type": "Point", "coordinates": [ -46.5739392, -23.5356317 ] } },
{ "type": "Feature", "properties": { "CNPJ": 19669213000139, "AGENTE": "ROBERTA_ARAUJO_MEDRADO", "ACAO": "REALIZAR_SEGUNDA_VISITA", "RAZAO_SOCIAL": "SANVILA_DISTRIBUIDORA_DE_MATERIAIS_ELETRICOS_LTDA_-_SANVILA", "ENDERECO": "AVENIDA_CELSO_GARCIA_4430_TATUAPE_SAO_PAULO", "CIDADE": "SAO_PAULO", "LATITUDE": -23.5352409, "LONGITUDE": -46.569598 }, "geometry": { "type": "Point", "coordinates": [ -46.569598, -23.5352409 ] } },
{ "type": "Feature", "properties": { "CNPJ": 56976724000120, "AGENTE": "ROBERTA_ARAUJO_MEDRADO", "ACAO": "REALIZAR_SEGUNDA_VISITA", "RAZAO_SOCIAL": "MERCADO_E_ADEGA_TATUAPE_LTDA_-_MERCADO_ADEGA_TATUAPE", "ENDERECO": "AVENIDA_CELSO_GARCIA_4492_TATUAPE_SAO_PAULO", "CIDADE": "SAO_PAULO", "LATITUDE": -23.5349995, "LONGITUDE": -46.5690539 }, "geometry": { "type": "Point", "coordinates": [ -46.5690539, -23.5349995 ] } },
{ "type": "Feature", "properties": { "CNPJ": 49447975000151, "AGENTE": "ROBERTA_ARAUJO_MEDRADO", "ACAO": "REALIZAR_SEGUNDA_VISITA", "RAZAO_SOCIAL": "CAVE_MOTOCENTER_LTDA_-_CAVE", "ENDERECO": "AVENIDA_CELSO_GARCIA_4947_PARQUE_SAO_JORGE_SAO_PAULO", "CIDADE": "SAO_PAULO", "LATITUDE": -23.5332043, "LONGITUDE": -46.5649021 }, "geometry": { "type": "Point", "coordinates": [ -46.5649021, -23.5332043 ] } },
{ "type": "Feature", "properties": { "CNPJ": 41810089000139, "AGENTE": "ROBERTA_ARAUJO_MEDRADO", "ACAO": "REALIZAR_SEGUNDA_VISITA", "RAZAO_SOCIAL": "PERUVIAN_ART_DESIGN_MOVEIS_LTDA_-_PERUVIAN", "ENDERECO": "AVENIDA_CELSO_GARCIA_4983_TATUAPE_SAO_PAULO", "CIDADE": "SAO_PAULO", "LATITUDE": -23.5331869, "LONGITUDE": -46.5643666 }, "geometry": { "type": "Point", "coordinates": [ -46.5643666, -23.5331869 ] } },
{ "type": "Feature", "properties": { "CNPJ": 59349128000108, "AGENTE": "ROBERTA_ARAUJO_MEDRADO", "ACAO": "REALIZAR_SEGUNDA_VISITA", "RAZAO_SOCIAL": "59.349.128_ADRIANA_ARRUDA_DA_HORA_-_ATELIE_GATA", "ENDERECO": "AVENIDA_CELSO_GARCIA_5165_TATUAPE_SAO_PAULO", "CIDADE": "SAO_PAULO", "LATITUDE": -23.5326609, "LONGITUDE": -46.5628473 }, "geometry": { "type": "Point", "coordinates": [ -46.5628473, -23.5326609 ] } },
{ "type": "Feature", "properties": { "CNPJ": 55858856000194, "AGENTE": "ROBERTA_ARAUJO_MEDRADO", "ACAO": "REALIZAR_SEGUNDA_VISITA", "RAZAO_SOCIAL": "J_C_GONCALVES_OTICA_LTDA_-_OTICA_ESTIRIO", "ENDERECO": "AVENIDA_CELSO_GARCIA_5312_TATUAPE_SAO_PAULO", "CIDADE": "SAO_PAULO", "LATITUDE": -23.5322918, "LONGITUDE": -46.5614958 }, "geometry": { "type": "Point", "coordinates": [ -46.5614958, -23.5322918 ] } },
{ "type": "Feature", "properties": { "CNPJ": 55639202000170, "AGENTE": "ROBERTA_ARAUJO_MEDRADO", "ACAO": "REALIZAR_SEGUNDA_VISITA", "RAZAO_SOCIAL": "55.639.202_ROSANA_LISBOA_-_ELEGANCIA_TOP_MODEL", "ENDERECO": "AVENIDA_DOUTOR_GUILHERME_DE_ABREU_SODRE_319_CONJUNTO_RESIDENCIAL_PRESTES_MAIA_SAO_PAULO", "CIDADE": "SAO_PAULO", "LATITUDE": -23.5688685, "LONGITUDE": -46.410448 }, "geometry": { "type": "Point", "coordinates": [ -46.410448, -23.5688685 ] } },
{ "type": "Feature", "properties": { "CNPJ": 47353051000160, "AGENTE": "ROBERTA_ARAUJO_MEDRADO", "ACAO": "REALIZAR_SEGUNDA_VISITA", "RAZAO_SOCIAL": "PSFARMA_PRODUTOS_E_SERVICOS_FARMACEUTICOS_LTDA_-_PS_FARMA", "ENDERECO": "AVENIDA_DOUTOR_GUILHERME_DE_ABREU_SODRE_340_CONJUNTO_RESIDENCIAL_PRESTES_MAIA_SAO_PAULO", "CIDADE": "SAO_PAULO", "LATITUDE": -23.566943, "LONGITUDE": -46.4096856 }, "geometry": { "type": "Point", "coordinates": [ -46.4096856, -23.566943 ] } },
{ "type": "Feature", "properties": { "CNPJ": 39151749000175, "AGENTE": "ROBERTA_ARAUJO_MEDRADO", "ACAO": "REALIZAR_SEGUNDA_VISITA", "RAZAO_SOCIAL": "BRUNO_CAUE_NOGUEIRA_ALVES_-_JBS_ARMARINHOS_E_PAPELARIA", "ENDERECO": "AVENIDA_DOUTOR_GUILHERME_DE_ABREU_SODRE_380_VILA_HORTENCIA_SAO_PAULO", "CIDADE": "SAO_PAULO", "LATITUDE": -23.5683112, "LONGITUDE": -46.4100879 }, "geometry": { "type": "Point", "coordinates": [ -46.4100879, -23.5683112 ] } },
{ "type": "Feature", "properties": { "CNPJ": 52990581000150, "AGENTE": "ROBERTA_ARAUJO_MEDRADO", "ACAO": "REALIZAR_SEGUNDA_VISITA", "RAZAO_SOCIAL": "GIJU_UNIFORMES_E_MATERIAIS_ESCOLARES_LTDA_-_GIJU_UNIFORME", "ENDERECO": "AVENIDA_ENGENHEIRO_SOARES_DE_CAMARGO_344_CIDADE_PATRIARCA_SAO_PAULO", "CIDADE": "SAO_PAULO", "LATITUDE": -23.5404303, "LONGITUDE": -46.5015609 }, "geometry": { "type": "Point", "coordinates": [ -46.5015609, -23.5404303 ] } },
{ "type": "Feature", "properties": { "CNPJ": 59385031000150, "AGENTE": "ROBERTA_ARAUJO_MEDRADO", "ACAO": "REALIZAR_SEGUNDA_VISITA", "RAZAO_SOCIAL": "EMPORIO_MINEIRO_FAMILIA_FONTANA_LTDA_-_EMPORIO_MINEIRO_FAMILIA", "ENDERECO": "AVENIDA_ENGENHEIRO_SOARES_DE_CAMARGO_345_CIDADE_PATRIARCA_SAO_PAULO", "CIDADE": "SAO_PAULO", "LATITUDE": -23.5403206, "LONGITUDE": -46.5015091 }, "geometry": { "type": "Point", "coordinates": [ -46.5015091, -23.5403206 ] } },
{ "type": "Feature", "properties": { "CNPJ": 53723804000185, "AGENTE": "ROBERTA_ARAUJO_MEDRADO", "ACAO": "REALIZAR_SEGUNDA_VISITA", "RAZAO_SOCIAL": "53.723.804_BISMARQUE_ALVES_LEITE_-_MARKTECH", "ENDERECO": "AVENIDA_ENGENHEIRO_SOARES_DE_CAMARGO_479_CIDADE_PATRIARCA_SAO_PAULO", "CIDADE": "SAO_PAULO", "LATITUDE": -23.540902, "LONGITUDE": -46.5005057 }, "geometry": { "type": "Point", "coordinates": [ -46.5005057, -23.540902 ] } },
{ "type": "Feature", "properties": { "CNPJ": 60447992000121, "AGENTE": "ROBERTA_ARAUJO_MEDRADO", "ACAO": "REALIZAR_SEGUNDA_VISITA", "RAZAO_SOCIAL": "JOSE_CARLOS_BONATTO-MOTORES_-_ELETRONICA_BONATO", "ENDERECO": "AVENIDA_ENGENHEIRO_SOARES_DE_CAMARGO_636_CIDADE_PATRIARCA_SAO_PAULO", "CIDADE": "SAO_PAULO", "LATITUDE": -23.5420687, "LONGITUDE": -46.499299 }, "geometry": { "type": "Point", "coordinates": [ -46.499299, -23.5420687 ] } },
{ "type": "Feature", "properties": { "CNPJ": 46162411000184, "AGENTE": "ROBERTA_ARAUJO_MEDRADO", "ACAO": "REALIZAR_SEGUNDA_VISITA", "RAZAO_SOCIAL": "LANCHONETE_WP_COMPANHIA_LTDA_-_MAIA_PASTEIS", "ENDERECO": "AVENIDA_MACIEL_MONTEIRO_798_VILA_SANTA_TERESA_SAO_PAULO", "CIDADE": "SAO_PAULO", "LATITUDE": -23.5423214, "LONGITUDE": -46.4926728 }, "geometry": { "type": "Point", "coordinates": [ -46.4926728, -23.5423214 ] } },
{ "type": "Feature", "properties": { "CNPJ": 28350728000162, "AGENTE": "ROBERTA_ARAUJO_MEDRADO", "ACAO": "REALIZAR_SEGUNDA_VISITA", "RAZAO_SOCIAL": "28.350.728_SIMONE_RODRIGUES_DE_LIMA_-_SIMONECA", "ENDERECO": "AVENIDA_PARAGUASSU_PAULISTA_184_VILA_SANTA_TERESA_SAO_PAULO", "CIDADE": "SAO_PAULO", "LATITUDE": -23.5375771, "LONGITUDE": -46.4909926 }, "geometry": { "type": "Point", "coordinates": [ -46.4909926, -23.5375771 ] } },
{ "type": "Feature", "properties": { "CNPJ": 32700278000168, "AGENTE": "ROBERTA_ARAUJO_MEDRADO", "ACAO": "REALIZAR_SEGUNDA_VISITA", "RAZAO_SOCIAL": "YAGO_THYERRY_ALVES_SANTOS_42577580827_-_PINE_APPLE_CELL", "ENDERECO": "AVENIDA_PARAGUASSU_PAULISTA_72_VILA_SANTA_TERESA_SAO_PAULO", "CIDADE": "SAO_PAULO", "LATITUDE": -23.5374976, "LONGITUDE": -46.4916369 }, "geometry": { "type": "Point", "coordinates": [ -46.4916369, -23.5374976 ] } },
{ "type": "Feature", "properties": { "CNPJ": 14796427000152, "AGENTE": "ROBERTA_ARAUJO_MEDRADO", "ACAO": "REALIZAR_SEGUNDA_VISITA", "RAZAO_SOCIAL": "LEANDRO_SOUZA_NOVAES_26915438890_-_CHAVEIRO_ZUM", "ENDERECO": "AVENIDA_PARAGUASSU_PAULISTA_726_VILA_SANTA_TERESA_SAO_PAULO", "CIDADE": "SAO_PAULO", "LATITUDE": -23.5375762, "LONGITUDE": -46.4916169 }, "geometry": { "type": "Point", "coordinates": [ -46.4916169, -23.5375762 ] } },
{ "type": "Feature", "properties": { "CNPJ": 52548596000162, "AGENTE": "ROBERTA_ARAUJO_MEDRADO", "ACAO": "REALIZAR_SEGUNDA_VISITA", "RAZAO_SOCIAL": "52.548.596_OTHON_CORREIA_DA_SILVA_-_ACAI_DO_TOM", "ENDERECO": "AVENIDA_RIBEIRAO_ITAQUERA_29_PARQUE_CENTRAL_SAO_PAULO", "CIDADE": "SAO_PAULO", "LATITUDE": -23.5438199, "LONGITUDE": -46.4226941 }, "geometry": { "type": "Point", "coordinates": [ -46.4226941, -23.5438199 ] } },
{ "type": "Feature", "properties": { "CNPJ": 59159363000117, "AGENTE": "ROBERTA_ARAUJO_MEDRADO", "ACAO": "REALIZAR_SEGUNDA_VISITA", "RAZAO_SOCIAL": "KAZZA_FERRAGENS_VILA_NHOCUNE_LTDA_-_KAZZA_DAS_FERRAGENS", "ENDERECO": "AVENIDA_SOUSA_BANDEIRA_284_VILA_NHOCUNE_SAO_PAULO", "CIDADE": "SAO_PAULO", "LATITUDE": -23.5469833, "LONGITUDE": -46.50141 }, "geometry": { "type": "Point", "coordinates": [ -46.50141, -23.5469833 ] } },
{ "type": "Feature", "properties": { "CNPJ": 46180383000128, "AGENTE": "ROBERTA_ARAUJO_MEDRADO", "ACAO": "REALIZAR_SEGUNDA_VISITA", "RAZAO_SOCIAL": "NATUGRAO_PRODUTOS_NATURAIS_LTDA_-_NATUGRAO", "ENDERECO": "AVENIDA_WALDEMAR_CARLOS_PEREIRA_1331_JARDIM_MARINGA_SAO_PAULO", "CIDADE": "SAO_PAULO", "LATITUDE": -23.5451693, "LONGITUDE": -46.5139807 }, "geometry": { "type": "Point", "coordinates": [ -46.5139807, -23.5451693 ] } },
{ "type": "Feature", "properties": { "CNPJ": 58431686000155, "AGENTE": "ROBERTA_ARAUJO_MEDRADO", "ACAO": "REALIZAR_SEGUNDA_VISITA", "RAZAO_SOCIAL": "NEW_LIBERTY_PAPELARIA_LTDA_-_NEW_LIBERT_PAPELARIA", "ENDERECO": "AVENIDA_WALDEMAR_CARLOS_PEREIRA_1410_JARDIM_MARINGA_SAO_PAULO", "CIDADE": "SAO_PAULO", "LATITUDE": -23.5460538, "LONGITUDE": -46.5136262 }, "geometry": { "type": "Point", "coordinates": [ -46.5136262, -23.5460538 ] } },
{ "type": "Feature", "properties": { "CNPJ": 40219086000162, "AGENTE": "ROBERTA_ARAUJO_MEDRADO", "ACAO": "REALIZAR_SEGUNDA_VISITA", "RAZAO_SOCIAL": "MARIA_DO_CARMO_ALVES_MAIA_05310978542_-_CARMEM", "ENDERECO": "AVENIDA_WALDEMAR_CARLOS_PEREIRA_1410_VILA_TALARICO_SAO_PAULO", "CIDADE": "SAO_PAULO", "LATITUDE": -23.5458775, "LONGITUDE": -46.513612 }, "geometry": { "type": "Point", "coordinates": [ -46.513612, -23.5458775 ] } },
{ "type": "Feature", "properties": { "CNPJ": 6181878000157, "AGENTE": "ROBERTA_ARAUJO_MEDRADO", "ACAO": "REALIZAR_SEGUNDA_VISITA", "RAZAO_SOCIAL": "ALLCORPO_COMERCIO_DE_LINGERIE_E_APOIO_ADMINISTRATIVO_LTDA_-_AU_CORPO", "ENDERECO": "LARGO_SAO_JOSE_DO_MARANHAO_67_MARANHAO_SAO_PAULO", "CIDADE": "SAO_PAULO", "LATITUDE": -23.5299405, "LONGITUDE": -46.5603574 }, "geometry": { "type": "Point", "coordinates": [ -46.5603574, -23.5299405 ] } },
{ "type": "Feature", "properties": { "CNPJ": 45304600000181, "AGENTE": "ROBERTA_ARAUJO_MEDRADO", "ACAO": "REALIZAR_SEGUNDA_VISITA", "RAZAO_SOCIAL": "C._RODRIGUES_DE_SOUSA_-_FORTALEZA_BAR", "ENDERECO": "PRACA_LEONARDO_DE_BARROS_CARVALHO_162_VILA_NHOCUNE_SAO_PAULO", "CIDADE": "SAO_PAULO", "LATITUDE": -23.5428738, "LONGITUDE": -46.4972234 }, "geometry": { "type": "Point", "coordinates": [ -46.4972234, -23.5428738 ] } },
{ "type": "Feature", "properties": { "CNPJ": 15542001000135, "AGENTE": "ROBERTA_ARAUJO_MEDRADO", "ACAO": "REALIZAR_SEGUNDA_VISITA", "RAZAO_SOCIAL": "B_R_NEVES_FILHO_MATERIAIS_PARA_CONSTRUCAO_-_DE_TUDO_UM_POUCO", "ENDERECO": "RUA_ANTONIO_DE_BARROS_108_MARANHAO_SAO_PAULO", "CIDADE": "SAO_PAULO", "LATITUDE": -23.5313151, "LONGITUDE": -46.5602222 }, "geometry": { "type": "Point", "coordinates": [ -46.5602222, -23.5313151 ] } },
{ "type": "Feature", "properties": { "CNPJ": 34298452000113, "AGENTE": "ROBERTA_ARAUJO_MEDRADO", "ACAO": "REALIZAR_SEGUNDA_VISITA", "RAZAO_SOCIAL": "34.298.452_MICHELLE_MONTEIRO_CIRINO_-_MADAME", "ENDERECO": "RUA_ANTONIO_DE_BARROS_417_MARANHAO_SAO_PAULO", "CIDADE": "SAO_PAULO", "LATITUDE": -23.5339654, "LONGITUDE": -46.5593047 }, "geometry": { "type": "Point", "coordinates": [ -46.5593047, -23.5339654 ] } },
{ "type": "Feature", "properties": { "CNPJ": 58457189000126, "AGENTE": "ROBERTA_ARAUJO_MEDRADO", "ACAO": "REALIZAR_SEGUNDA_VISITA", "RAZAO_SOCIAL": "UBAIA_PRODUTOS_NATURAIS_LTDA_-_UBAIA", "ENDERECO": "RUA_ANTONIO_DE_BARROS_99_MARANHAO_SAO_PAULO", "CIDADE": "SAO_PAULO", "LATITUDE": -23.5312747, "LONGITUDE": -46.5600788 }, "geometry": { "type": "Point", "coordinates": [ -46.5600788, -23.5312747 ] } },
{ "type": "Feature", "properties": { "CNPJ": 4397033000178, "AGENTE": "ROBERTA_ARAUJO_MEDRADO", "ACAO": "REALIZAR_SEGUNDA_VISITA", "RAZAO_SOCIAL": "W_L_FALCARO_ESCOLA_-_COSMOSOM", "ENDERECO": "RUA_ANTONIO_MACEDO_40_PARQUE_SAO_JORGE_SAO_PAULO", "CIDADE": "SAO_PAULO", "LATITUDE": -23.5324101, "LONGITUDE": -46.5632286 }, "geometry": { "type": "Point", "coordinates": [ -46.5632286, -23.5324101 ] } },
{ "type": "Feature", "properties": { "CNPJ": 65556367000131, "AGENTE": "ROBERTA_ARAUJO_MEDRADO", "ACAO": "REALIZAR_SEGUNDA_VISITA", "RAZAO_SOCIAL": "JUAREZ_A_DA_SILVA-TECIDOS_-_JUATEX", "ENDERECO": "RUA_BRESSER_1179_BRAS_SAO_PAULO", "CIDADE": "SAO_PAULO", "LATITUDE": -23.5404635, "LONGITUDE": -46.6076174 }, "geometry": { "type": "Point", "coordinates": [ -46.6076174, -23.5404635 ] } },
{ "type": "Feature", "properties": { "CNPJ": 9542941000121, "AGENTE": "ROBERTA_ARAUJO_MEDRADO", "ACAO": "REALIZAR_SEGUNDA_VISITA", "RAZAO_SOCIAL": "FORMA_E_MOVIMENTO_INDUSTRIA_E_COMERCIO_DE_CONFECCOES_LTDA_-_FORMA_E_MOVIMENTO_INDUSTRIA_E_COMERCIO", "ENDERECO": "RUA_CORONEL_TRANCOSO_56_BRAS_SAO_PAULO", "CIDADE": "SAO_PAULO", "LATITUDE": -23.5408323, "LONGITUDE": -46.6175258 }, "geometry": { "type": "Point", "coordinates": [ -46.6175258, -23.5408323 ] } },
{ "type": "Feature", "properties": { "CNPJ": 59035711000144, "AGENTE": "ROBERTA_ARAUJO_MEDRADO", "ACAO": "REALIZAR_SEGUNDA_VISITA", "RAZAO_SOCIAL": "59.035.711_ANDERSON_KAIQUE_ALMEIDA_LUCAS_-_JK_BATATAS", "ENDERECO": "RUA_DOUTOR_ALCIDES_DA_COSTA_VIDIGAL_15_JARDIM_SAO_PAULO_SAO_PAULO", "CIDADE": "SAO_PAULO", "LATITUDE": -23.5621342, "LONGITUDE": -46.4064705 }, "geometry": { "type": "Point", "coordinates": [ -46.4064705, -23.5621342 ] } },
{ "type": "Feature", "properties": { "CNPJ": 15252276000134, "AGENTE": "ROBERTA_ARAUJO_MEDRADO", "ACAO": "REALIZAR_SEGUNDA_VISITA", "RAZAO_SOCIAL": "LINDA_LEMBRANCA_DOCES_LTDA_-_LINDA_LEMBRANCA", "ENDERECO": "RUA_DOUTOR_ANGELO_VITA_210_TATUAPE_SAO_PAULO", "CIDADE": "SAO_PAULO", "LATITUDE": -23.5357683, "LONGITUDE": -46.5659398 }, "geometry": { "type": "Point", "coordinates": [ -46.5659398, -23.5357683 ] } },
{ "type": "Feature", "properties": { "CNPJ": 8430298000181, "AGENTE": "ROBERTA_ARAUJO_MEDRADO", "ACAO": "REALIZAR_SEGUNDA_VISITA", "RAZAO_SOCIAL": "MAGETRONIC_ELETRONICA_E_UTENSILIOS_DOMESTICOS_LTDA_-_MAGETRONIC", "ENDERECO": "RUA_DOUTOR_ANGELO_VITA_255_TATUAPE_SAO_PAULO", "CIDADE": "SAO_PAULO", "LATITUDE": -23.5360917, "LONGITUDE": -46.5657202 }, "geometry": { "type": "Point", "coordinates": [ -46.5657202, -23.5360917 ] } },
{ "type": "Feature", "properties": { "CNPJ": 59120906000192, "AGENTE": "ROBERTA_ARAUJO_MEDRADO", "ACAO": "REALIZAR_SEGUNDA_VISITA", "RAZAO_SOCIAL": "59.120.906_APARECIDA_YASMIN_CARNEIRO_MELO_-_EMPORIO_DAS_UNHAS", "ENDERECO": "RUA_DOUTOR_ANGELO_VITA_41_TATUAPE_SAO_PAULO", "CIDADE": "SAO_PAULO", "LATITUDE": -23.5342215, "LONGITUDE": -46.5664409 }, "geometry": { "type": "Point", "coordinates": [ -46.5664409, -23.5342215 ] } },
{ "type": "Feature", "properties": { "CNPJ": 51028870000100, "AGENTE": "ROBERTA_ARAUJO_MEDRADO", "ACAO": "REALIZAR_SEGUNDA_VISITA", "RAZAO_SOCIAL": "51.028.870_LUCINEIDE_MATTOSO_DE_SOUZA_AURICCHIO_-_MEM", "ENDERECO": "RUA_DOUTOR_ANGELO_VITA_42_TATUAPE_SAO_PAULO", "CIDADE": "SAO_PAULO", "LATITUDE": -23.534307, "LONGITUDE": -46.5664657 }, "geometry": { "type": "Point", "coordinates": [ -46.5664657, -23.534307 ] } },
{ "type": "Feature", "properties": { "CNPJ": 41150895000128, "AGENTE": "ROBERTA_ARAUJO_MEDRADO", "ACAO": "REALIZAR_SEGUNDA_VISITA", "RAZAO_SOCIAL": "RAFAEL_MARTINELLI_33943879801_-_BARBEARIA_MARTINELLI", "ENDERECO": "RUA_DOUTOR_JOAO_LEAL_DA_COSTA_474_JARDIM_SAO_PAULO_SAO_PAULO", "CIDADE": "SAO_PAULO", "LATITUDE": -23.5597621, "LONGITUDE": -46.4027944 }, "geometry": { "type": "Point", "coordinates": [ -46.4027944, -23.5597621 ] } },
{ "type": "Feature", "properties": { "CNPJ": 37399866000127, "AGENTE": "ROBERTA_ARAUJO_MEDRADO", "ACAO": "REALIZAR_SEGUNDA_VISITA", "RAZAO_SOCIAL": "WILLIAM_RICZ_DE_SOUZA_44753544800_-_RICZ", "ENDERECO": "RUA_DOUTOR_NELSON_MADUREIRA_422_VILA_NHOCUNE_SAO_PAULO", "CIDADE": "SAO_PAULO", "LATITUDE": -23.5459483, "LONGITUDE": -46.5017383 }, "geometry": { "type": "Point", "coordinates": [ -46.5017383, -23.5459483 ] } },
{ "type": "Feature", "properties": { "CNPJ": 46927181000105, "AGENTE": "ROBERTA_ARAUJO_MEDRADO", "ACAO": "REALIZAR_SEGUNDA_VISITA", "RAZAO_SOCIAL": "KYRIOS_ESQUADRIAS_DE_ALUMINIO_E_VIDRACARIA_LTDA_-__KYRIOS_ESQUADRIAS_DE_ALUMINIO_E_VIDRACARIA_LTDA", "ENDERECO": "RUA_DOUTOR_NELSON_MADUREIRA_442_VILA_NHOCUNE_SAO_PAULO", "CIDADE": "SAO_PAULO", "LATITUDE": -23.5460178, "LONGITUDE": -46.5014954 }, "geometry": { "type": "Point", "coordinates": [ -46.5014954, -23.5460178 ] } },
{ "type": "Feature", "properties": { "CNPJ": 14918777000144, "AGENTE": "ROBERTA_ARAUJO_MEDRADO", "ACAO": "REALIZAR_SEGUNDA_VISITA", "RAZAO_SOCIAL": "CREUSA_MARIA_RODRIGUES_PASQUALI_08306998804_-_CLEUSA_MARIA", "ENDERECO": "RUA_ERASMO_BRAGA_48_PENHA_DE_FRANCA_SAO_PAULO", "CIDADE": "SAO_PAULO", "LATITUDE": -23.5227312, "LONGITUDE": -46.5464936 }, "geometry": { "type": "Point", "coordinates": [ -46.5464936, -23.5227312 ] } },
{ "type": "Feature", "properties": { "CNPJ": 53215267000243, "AGENTE": "ROBERTA_ARAUJO_MEDRADO", "ACAO": "REALIZAR_SEGUNDA_VISITA", "RAZAO_SOCIAL": "HEIDY_&AKEMI_COMERCIO_DE_PRODUTOS_NATURAIS_LTDA_-_BOA_FORMA", "ENDERECO": "RUA_ERASMO_BRAGA_56_PENHA_DE_FRANCA_SAO_PAULO", "CIDADE": "SAO_PAULO", "LATITUDE": -23.5226103, "LONGITUDE": -46.5468785 }, "geometry": { "type": "Point", "coordinates": [ -46.5468785, -23.5226103 ] } },
{ "type": "Feature", "properties": { "CNPJ": 60020058000129, "AGENTE": "ROBERTA_ARAUJO_MEDRADO", "ACAO": "REALIZAR_SEGUNDA_VISITA", "RAZAO_SOCIAL": "JN_CONSTRUCENTER_LTDA_-_JN_CONSTRU_CENTER", "ENDERECO": "RUA_FERNANDES_VIEIRA_155_BELENZINHO_SAO_PAULO", "CIDADE": "SAO_PAULO", "LATITUDE": -23.540477, "LONGITUDE": -46.5903669 }, "geometry": { "type": "Point", "coordinates": [ -46.5903669, -23.540477 ] } },
{ "type": "Feature", "properties": { "CNPJ": 4787888000105, "AGENTE": "ROBERTA_ARAUJO_MEDRADO", "ACAO": "REALIZAR_SEGUNDA_VISITA", "RAZAO_SOCIAL": "FLORICULTURA_MARINA_FIORI_&_FILHO_LTDA_-_MARINA", "ENDERECO": "RUA_HIPOLITO_DE_CAMARGO_275_VILA_LOURDES_SAO_PAULO", "CIDADE": "SAO_PAULO", "LATITUDE": -23.5436982, "LONGITUDE": -46.4138433 }, "geometry": { "type": "Point", "coordinates": [ -46.4138433, -23.5436982 ] } },
{ "type": "Feature", "properties": { "CNPJ": 33238842000135, "AGENTE": "ROBERTA_ARAUJO_MEDRADO", "ACAO": "REALIZAR_SEGUNDA_VISITA", "RAZAO_SOCIAL": "MONCALIERI_CAFE_E_COOKIES_LTDA_-_BLACKCAT", "ENDERECO": "RUA_HONORIO_MAIA_314_TATUAPE_SAO_PAULO", "CIDADE": "SAO_PAULO", "LATITUDE": -23.5349389, "LONGITUDE": -46.5592424 }, "geometry": { "type": "Point", "coordinates": [ -46.5592424, -23.5349389 ] } },
{ "type": "Feature", "properties": { "CNPJ": 33125837000116, "AGENTE": "ROBERTA_ARAUJO_MEDRADO", "ACAO": "REALIZAR_SEGUNDA_VISITA", "RAZAO_SOCIAL": "RAFAEL_ROCHA_DE_MACEDO_-_RESTAURANTE_-_POINT_DO_CHURRASCO", "ENDERECO": "RUA_INACIO_MONTEIRO_1024_JARDIM_SAO_PAULO_SAO_PAULO", "CIDADE": "SAO_PAULO", "LATITUDE": -23.5693483, "LONGITUDE": -46.4006966 }, "geometry": { "type": "Point", "coordinates": [ -46.4006966, -23.5693483 ] } },
{ "type": "Feature", "properties": { "CNPJ": 55209933000185, "AGENTE": "ROBERTA_ARAUJO_MEDRADO", "ACAO": "REALIZAR_SEGUNDA_VISITA", "RAZAO_SOCIAL": "55.209.933_FRANCISCO_WILDON_TELES_BRAGA_FILHO_-_AREA_TECNICA_ASSISTENCIA_TECNICA", "ENDERECO": "RUA_INACIO_MONTEIRO_1047_JARDIM_SAO_PAULO_SAO_PAULO", "CIDADE": "SAO_PAULO", "LATITUDE": -23.5695916, "LONGITUDE": -46.4002294 }, "geometry": { "type": "Point", "coordinates": [ -46.4002294, -23.5695916 ] } },
{ "type": "Feature", "properties": { "CNPJ": 44900978000185, "AGENTE": "ROBERTA_ARAUJO_MEDRADO", "ACAO": "REALIZAR_SEGUNDA_VISITA", "RAZAO_SOCIAL": "THALYA_BERNARDO_BRAGA_02639796364_-_TA_DESIGN", "ENDERECO": "RUA_INACIO_MONTEIRO_1057_JARDIM_SAO_PAULO_SAO_PAULO", "CIDADE": "SAO_PAULO", "LATITUDE": -23.5694647, "LONGITUDE": -46.4000686 }, "geometry": { "type": "Point", "coordinates": [ -46.4000686, -23.5694647 ] } },
{ "type": "Feature", "properties": { "CNPJ": 28457369000147, "AGENTE": "ROBERTA_ARAUJO_MEDRADO", "ACAO": "REALIZAR_SEGUNDA_VISITA", "RAZAO_SOCIAL": "RAFAEL_DA_SILVA_PEDROSA_-_LOJAS_PEDROSAS", "ENDERECO": "RUA_INACIO_MONTEIRO_1081_JARDIM_SAO_PAULO_SAO_PAULO", "CIDADE": "SAO_PAULO", "LATITUDE": -23.5696665, "LONGITUDE": -46.3997024 }, "geometry": { "type": "Point", "coordinates": [ -46.3997024, -23.5696665 ] } },
{ "type": "Feature", "properties": { "CNPJ": 51647571000153, "AGENTE": "ROBERTA_ARAUJO_MEDRADO", "ACAO": "REALIZAR_SEGUNDA_VISITA", "RAZAO_SOCIAL": "51.647.571_EROS_D_LUCAS_ALVES_-_CRL_OUTLEET", "ENDERECO": "RUA_INACIO_MONTEIRO_7324_JARDIM_SAO_PAULO_SAO_PAULO", "CIDADE": "SAO_PAULO", "LATITUDE": -23.5829158, "LONGITUDE": -46.3858861 }, "geometry": { "type": "Point", "coordinates": [ -46.3858861, -23.5829158 ] } },
{ "type": "Feature", "properties": { "CNPJ": 5337835000155, "AGENTE": "ROBERTA_ARAUJO_MEDRADO", "ACAO": "REALIZAR_SEGUNDA_VISITA", "RAZAO_SOCIAL": "MERCADO_PEROLA_CENTRAL_LTDA_-_MERCADO_PEROLA", "ENDERECO": "RUA_INACIO_MONTEIRO_8052_JARDIM_SAO_PAULO_SAO_PAULO", "CIDADE": "SAO_PAULO", "LATITUDE": -23.5832123, "LONGITUDE": -46.384981 }, "geometry": { "type": "Point", "coordinates": [ -46.384981, -23.5832123 ] } },
{ "type": "Feature", "properties": { "CNPJ": 37591089000118, "AGENTE": "ROBERTA_ARAUJO_MEDRADO", "ACAO": "REALIZAR_SEGUNDA_VISITA", "RAZAO_SOCIAL": "AMARAL_COMERCIO_DE_MOTO_PECAS_LTDA_-_AMARAL_MOTOS", "ENDERECO": "RUA_INACIO_MONTEIRO_8401_JARDIM_SAO_PAULO_SAO_PAULO", "CIDADE": "SAO_PAULO", "LATITUDE": -23.5830871, "LONGITUDE": -46.3852855 }, "geometry": { "type": "Point", "coordinates": [ -46.3852855, -23.5830871 ] } },
{ "type": "Feature", "properties": { "CNPJ": 5230714000100, "AGENTE": "ROBERTA_ARAUJO_MEDRADO", "ACAO": "REALIZAR_SEGUNDA_VISITA", "RAZAO_SOCIAL": "CASA_DE_RACOES_J._K._LTDA_-_PET_MASCOTE", "ENDERECO": "RUA_INACIO_MONTEIRO_8407_JARDIM_SAO_PAULO_SAO_PAULO", "CIDADE": "SAO_PAULO", "LATITUDE": -23.5834751, "LONGITUDE": -46.3850562 }, "geometry": { "type": "Point", "coordinates": [ -46.3850562, -23.5834751 ] } },
{ "type": "Feature", "properties": { "CNPJ": 45803161000151, "AGENTE": "ROBERTA_ARAUJO_MEDRADO", "ACAO": "REALIZAR_SEGUNDA_VISITA", "RAZAO_SOCIAL": "MARIA_VIANA_DA_SILVA_29879184882_-_MVL_MODAS", "ENDERECO": "RUA_INACIO_MONTEIRO_8510_JARDIM_SAO_PAULO_SAO_PAULO", "CIDADE": "SAO_PAULO", "LATITUDE": -23.5836996, "LONGITUDE": -46.3845156 }, "geometry": { "type": "Point", "coordinates": [ -46.3845156, -23.5836996 ] } },
{ "type": "Feature", "properties": { "CNPJ": 40697024000166, "AGENTE": "ROBERTA_ARAUJO_MEDRADO", "ACAO": "REALIZAR_SEGUNDA_VISITA", "RAZAO_SOCIAL": "VARLEI_FERREIRA_DE_SOUZA_26550362806_-_BLESSED", "ENDERECO": "RUA_ITINGUCU_1659_VILA_RE_SAO_PAULO", "CIDADE": "SAO_PAULO", "LATITUDE": -23.528081, "LONGITUDE": -46.4998127 }, "geometry": { "type": "Point", "coordinates": [ -46.4998127, -23.528081 ] } },
{ "type": "Feature", "properties": { "CNPJ": 23475802000153, "AGENTE": "ROBERTA_ARAUJO_MEDRADO", "ACAO": "REALIZAR_SEGUNDA_VISITA", "RAZAO_SOCIAL": "DELIROFA_FAROFA_PREMIUM_-_COMERCIO_VAREJISTA_LTDA_-_DELI_FARORA", "ENDERECO": "RUA_ITINGUCU_1997_VILA_RE_SAO_PAULO", "CIDADE": "SAO_PAULO", "LATITUDE": -23.5296559, "LONGITUDE": -46.4968965 }, "geometry": { "type": "Point", "coordinates": [ -46.4968965, -23.5296559 ] } },
{ "type": "Feature", "properties": { "CNPJ": 52395891000126, "AGENTE": "ROBERTA_ARAUJO_MEDRADO", "ACAO": "REALIZAR_SEGUNDA_VISITA", "RAZAO_SOCIAL": "TJM_REFRIGERACAO_E_CLIMATIZACAO_LTDA_-_TJM_PECAS", "ENDERECO": "RUA_ITINGUCU_2387_VILA_RE_SAO_PAULO", "CIDADE": "SAO_PAULO", "LATITUDE": -23.532382, "LONGITUDE": -46.4946734 }, "geometry": { "type": "Point", "coordinates": [ -46.4946734, -23.532382 ] } },
{ "type": "Feature", "properties": { "CNPJ": 49573621000153, "AGENTE": "ROBERTA_ARAUJO_MEDRADO", "ACAO": "REALIZAR_SEGUNDA_VISITA", "RAZAO_SOCIAL": "49.573.621_BRUNO_MAGALHAES_DOS_SANTOS_-_BARBEARIA_MAGALHAES", "ENDERECO": "RUA_JARAUARA_268_VILA_RE_SAO_PAULO", "CIDADE": "SAO_PAULO", "LATITUDE": -23.5299165, "LONGITUDE": -46.4979696 }, "geometry": { "type": "Point", "coordinates": [ -46.4979696, -23.5299165 ] } },
{ "type": "Feature", "properties": { "CNPJ": 52496702000101, "AGENTE": "ROBERTA_ARAUJO_MEDRADO", "ACAO": "REALIZAR_SEGUNDA_VISITA", "RAZAO_SOCIAL": "EMPORIO_TERRA_BRASILEIRA_LTDA_-_EMPORIO_TERRA_BRASILEIRA", "ENDERECO": "RUA_JARAUARA_389_VILA_RE_SAO_PAULO", "CIDADE": "SAO_PAULO", "LATITUDE": -23.5290947, "LONGITUDE": -46.4975018 }, "geometry": { "type": "Point", "coordinates": [ -46.4975018, -23.5290947 ] } },
{ "type": "Feature", "properties": { "CNPJ": 35726963000151, "AGENTE": "ROBERTA_ARAUJO_MEDRADO", "ACAO": "REALIZAR_SEGUNDA_VISITA", "RAZAO_SOCIAL": "SANDRO_SPANO_ROMERO_11899244808_-_SPANO_HER", "ENDERECO": "RUA_JARAUARA_397_VILA_RE_SAO_PAULO", "CIDADE": "SAO_PAULO", "LATITUDE": -23.5289987, "LONGITUDE": -46.4974319 }, "geometry": { "type": "Point", "coordinates": [ -46.4974319, -23.5289987 ] } },
{ "type": "Feature", "properties": { "CNPJ": 50133840000109, "AGENTE": "ROBERTA_ARAUJO_MEDRADO", "ACAO": "REALIZAR_SEGUNDA_VISITA", "RAZAO_SOCIAL": "50.133.840_ELCIO_VITORINO_VIEIRA_-_VITORINOS_HAIR", "ENDERECO": "RUA_JARAUARA_524_VILA_RE_SAO_PAULO", "CIDADE": "SAO_PAULO", "LATITUDE": -23.5279284, "LONGITUDE": -46.496615 }, "geometry": { "type": "Point", "coordinates": [ -46.496615, -23.5279284 ] } },
{ "type": "Feature", "properties": { "CNPJ": 50134755000157, "AGENTE": "ROBERTA_ARAUJO_MEDRADO", "ACAO": "REALIZAR_SEGUNDA_VISITA", "RAZAO_SOCIAL": "50.134.755_AZENATH_RODRIGUES_DE_ALMEIDA_-_Z_DOCES", "ENDERECO": "RUA_JARAUARA_524_VILA_RE_SAO_PAULO", "CIDADE": "SAO_PAULO", "LATITUDE": -23.5280056, "LONGITUDE": -46.4967033 }, "geometry": { "type": "Point", "coordinates": [ -46.4967033, -23.5280056 ] } },
{ "type": "Feature", "properties": { "CNPJ": 45594674000108, "AGENTE": "ROBERTA_ARAUJO_MEDRADO", "ACAO": "REALIZAR_SEGUNDA_VISITA", "RAZAO_SOCIAL": "E._S._SILVA_BAR_-_RESTAURANTE_DO_BAHIA", "ENDERECO": "RUA_JERONIMO_DIAS_RIBEIRO_107_JARDIM_SAO_PAULO_SAO_PAULO", "CIDADE": "SAO_PAULO", "LATITUDE": -23.5609163, "LONGITUDE": -46.399192 }, "geometry": { "type": "Point", "coordinates": [ -46.399192, -23.5609163 ] } },
{ "type": "Feature", "properties": { "CNPJ": 52900260000117, "AGENTE": "ROBERTA_ARAUJO_MEDRADO", "ACAO": "REALIZAR_SEGUNDA_VISITA", "RAZAO_SOCIAL": "KAIROS_ELETRO_E_MAGAZINE_LTDA_-_CAIROS_ELETRO_MAGAZINE_LTDQ", "ENDERECO": "RUA_JERONIMO_DIAS_RIBEIRO_28_JARDIM_SAO_PAULO_SAO_PAULO", "CIDADE": "SAO_PAULO", "LATITUDE": -23.5584472, "LONGITUDE": -46.399443 }, "geometry": { "type": "Point", "coordinates": [ -46.399443, -23.5584472 ] } },
{ "type": "Feature", "properties": { "CNPJ": 19217291000100, "AGENTE": "ROBERTA_ARAUJO_MEDRADO", "ACAO": "REALIZAR_SEGUNDA_VISITA", "RAZAO_SOCIAL": "PLATINUM_IMOBILIARIA_LTDA_-_IMOBILIARIA_PLATUNUM", "ENDERECO": "RUA_JOSE_HIGINO_NEVES_1103_JARDIM_SAO_PAULO_SAO_PAULO", "CIDADE": "SAO_PAULO", "LATITUDE": -23.5658809, "LONGITUDE": -46.4027953 }, "geometry": { "type": "Point", "coordinates": [ -46.4027953, -23.5658809 ] } },
{ "type": "Feature", "properties": { "CNPJ": 25370336000177, "AGENTE": "ROBERTA_ARAUJO_MEDRADO", "ACAO": "REALIZAR_SEGUNDA_VISITA", "RAZAO_SOCIAL": "LAHE_BELEM_COMERCIO_DE_CALCADOS_E_ACESSORIOS_LTDA_-_LAHE_BELEM", "ENDERECO": "RUA_JULIO_DE_CASTILHOS_1103_BELENZINHO_SAO_PAULO", "CIDADE": "SAO_PAULO", "LATITUDE": -23.5400446, "LONGITUDE": -46.5905238 }, "geometry": { "type": "Point", "coordinates": [ -46.5905238, -23.5400446 ] } },
{ "type": "Feature", "properties": { "CNPJ": 45953063000109, "AGENTE": "ROBERTA_ARAUJO_MEDRADO", "ACAO": "REALIZAR_SEGUNDA_VISITA", "RAZAO_SOCIAL": "45.953.063_PATRICIA_MELQUIADES_DE_OLIVEIRA_-_LUX_BEAUTY", "ENDERECO": "RUA_JULIO_DE_CASTILHOS_1217_BELENZINHO_SAO_PAULO", "CIDADE": "SAO_PAULO", "LATITUDE": -23.5397652, "LONGITUDE": -46.5893757 }, "geometry": { "type": "Point", "coordinates": [ -46.5893757, -23.5397652 ] } },
{ "type": "Feature", "properties": { "CNPJ": 12401730000183, "AGENTE": "ROBERTA_ARAUJO_MEDRADO", "ACAO": "REALIZAR_SEGUNDA_VISITA", "RAZAO_SOCIAL": "ANA_LUCIA_DA_SILVA_SOUZA_-_BICHO_GATO", "ENDERECO": "RUA_JULIO_DE_CASTILHOS_816_BELENZINHO_SAO_PAULO", "CIDADE": "SAO_PAULO", "LATITUDE": -23.5411211, "LONGITUDE": -46.5930837 }, "geometry": { "type": "Point", "coordinates": [ -46.5930837, -23.5411211 ] } },
{ "type": "Feature", "properties": { "CNPJ": 52594355000150, "AGENTE": "ROBERTA_ARAUJO_MEDRADO", "ACAO": "REALIZAR_SEGUNDA_VISITA", "RAZAO_SOCIAL": "FOTO_OTICA_ALVIM_LTDA_-_ALVIM_FOTO_OTICA", "ENDERECO": "RUA_MACIEL_MONTEIRO_226_VILA_SANTA_TERESA_SAO_PAULO", "CIDADE": "SAO_PAULO", "LATITUDE": -23.5377336, "LONGITUDE": -46.4904987 }, "geometry": { "type": "Point", "coordinates": [ -46.4904987, -23.5377336 ] } },
{ "type": "Feature", "properties": { "CNPJ": 35502647000104, "AGENTE": "ROBERTA_ARAUJO_MEDRADO", "ACAO": "REALIZAR_SEGUNDA_VISITA", "RAZAO_SOCIAL": "PET_SHOP_AZZUMI_LTDA_-_AZUUMI_COMERCIO", "ENDERECO": "RUA_MACIEL_MONTEIRO_294_VILA_NHOCUNE_SAO_PAULO", "CIDADE": "SAO_PAULO", "LATITUDE": -23.5384474, "LONGITUDE": -46.4903818 }, "geometry": { "type": "Point", "coordinates": [ -46.4903818, -23.5384474 ] } },
{ "type": "Feature", "properties": { "CNPJ": 37260087000146, "AGENTE": "ROBERTA_ARAUJO_MEDRADO", "ACAO": "REALIZAR_SEGUNDA_VISITA", "RAZAO_SOCIAL": "37.260.087_ADRIANO_JOAO_DA_SILVA_-_SELENITA", "ENDERECO": "RUA_MACIEL_MONTEIRO_551_VILA_NHOCUNE_SAO_PAULO", "CIDADE": "SAO_PAULO", "LATITUDE": -23.5406337, "LONGITUDE": -46.4911336 }, "geometry": { "type": "Point", "coordinates": [ -46.4911336, -23.5406337 ] } },
{ "type": "Feature", "properties": { "CNPJ": 55025754000198, "AGENTE": "ROBERTA_ARAUJO_MEDRADO", "ACAO": "REALIZAR_SEGUNDA_VISITA", "RAZAO_SOCIAL": "55.025.754_SIMONE_APARECIDA_DA_SILVA_-_PEROLAS_EM_FESTA", "ENDERECO": "RUA_MACIEL_MONTEIRO_551_VILA_NHOCUNE_SAO_PAULO", "CIDADE": "SAO_PAULO", "LATITUDE": -23.540671, "LONGITUDE": -46.4910818 }, "geometry": { "type": "Point", "coordinates": [ -46.4910818, -23.540671 ] } },
{ "type": "Feature", "properties": { "CNPJ": 59824151000107, "AGENTE": "ROBERTA_ARAUJO_MEDRADO", "ACAO": "REALIZAR_SEGUNDA_VISITA", "RAZAO_SOCIAL": "JOAO_ANTONIO_DOS_SANTOS_COMERCIO_MOVEIS_LTDA_-_COMERCIAL_ASAJOS", "ENDERECO": "RUA_MACIEL_MONTEIRO_672_VILA_SANTA_TERESA_SAO_PAULO", "CIDADE": "SAO_PAULO", "LATITUDE": -23.5415255, "LONGITUDE": -46.4919824 }, "geometry": { "type": "Point", "coordinates": [ -46.4919824, -23.5415255 ] } },
{ "type": "Feature", "properties": { "CNPJ": 7311318000132, "AGENTE": "ROBERTA_ARAUJO_MEDRADO", "ACAO": "REALIZAR_SEGUNDA_VISITA", "RAZAO_SOCIAL": "OFICINA_DOS_PIJAMAS_LTDA_-_OFICIAL_DOS_PIJAMAS", "ENDERECO": "RUA_PADRE_ANTONIO_DE_SA_117_TATUAPE_SAO_PAULO", "CIDADE": "SAO_PAULO", "LATITUDE": -23.5368505, "LONGITUDE": -46.5758645 }, "geometry": { "type": "Point", "coordinates": [ -46.5758645, -23.5368505 ] } },
{ "type": "Feature", "properties": { "CNPJ": 42458096000186, "AGENTE": "ROBERTA_ARAUJO_MEDRADO", "ACAO": "REALIZAR_SEGUNDA_VISITA", "RAZAO_SOCIAL": "MR_CLINICA_PENHA_LTDA_-_MR_PENHA", "ENDERECO": "RUA_PADRE_BENEDITO_DE_CAMARGO_813_PENHA_DE_FRANCA_SAO_PAULO", "CIDADE": "SAO_PAULO", "LATITUDE": -23.5209357, "LONGITUDE": -46.548034 }, "geometry": { "type": "Point", "coordinates": [ -46.548034, -23.5209357 ] } },
{ "type": "Feature", "properties": { "CNPJ": 57172088000146, "AGENTE": "ROBERTA_ARAUJO_MEDRADO", "ACAO": "REALIZAR_SEGUNDA_VISITA", "RAZAO_SOCIAL": "OI_BONITA_ARTIGOS_DE_PERFUMARIA_E_COSMETICOS_LTDA_-_OI_BONITA_ARTIGOS_DE_PERFUMARIA_E_COSMETICOS_LTDA", "ENDERECO": "RUA_PADRE_VIEGAS_DE_MENEZES_217_ITAQUERA_SAO_PAULO", "CIDADE": "SAO_PAULO", "LATITUDE": -23.5372907, "LONGITUDE": -46.4573116 }, "geometry": { "type": "Point", "coordinates": [ -46.4573116, -23.5372907 ] } },
{ "type": "Feature", "properties": { "CNPJ": 53452291000115, "AGENTE": "ROBERTA_ARAUJO_MEDRADO", "ACAO": "REALIZAR_SEGUNDA_VISITA", "RAZAO_SOCIAL": "53.452.291_AVERALDO_GOMES_DA_SILVA_-_BELLA_JEANS", "ENDERECO": "RUA_PADRE_VIEGAS_DE_MENEZES_217_ITAQUERA_SAO_PAULO", "CIDADE": "SAO_PAULO", "LATITUDE": -23.5374185, "LONGITUDE": -46.457276 }, "geometry": { "type": "Point", "coordinates": [ -46.457276, -23.5374185 ] } },
{ "type": "Feature", "properties": { "CNPJ": 57989901000175, "AGENTE": "ROBERTA_ARAUJO_MEDRADO", "ACAO": "REALIZAR_SEGUNDA_VISITA", "RAZAO_SOCIAL": "DRIKA_MODAS_PLUS_SIZE_COMERCIO_LTDA_-_DRIKA_MODAS_PLUS_SIZE_COMERCIO_LTDA", "ENDERECO": "RUA_PADRE_VIEGAS_DE_MENEZES_229_ITAQUERA_SAO_PAULO", "CIDADE": "SAO_PAULO", "LATITUDE": -23.5372843, "LONGITUDE": -46.4570863 }, "geometry": { "type": "Point", "coordinates": [ -46.4570863, -23.5372843 ] } },
{ "type": "Feature", "properties": { "CNPJ": 26391406000136, "AGENTE": "ROBERTA_ARAUJO_MEDRADO", "ACAO": "REALIZAR_SEGUNDA_VISITA", "RAZAO_SOCIAL": "FARMACIA_FARMANDRE_LTDA_-_DROGARIA_FARMARCIA", "ENDERECO": "RUA_PIMENTA_BUENO_290_BELENZINHO_SAO_PAULO", "CIDADE": "SAO_PAULO", "LATITUDE": -23.5390893, "LONGITUDE": -46.5876639 }, "geometry": { "type": "Point", "coordinates": [ -46.5876639, -23.5390893 ] } },
{ "type": "Feature", "properties": { "CNPJ": 39926250000192, "AGENTE": "ROBERTA_ARAUJO_MEDRADO", "ACAO": "REALIZAR_SEGUNDA_VISITA", "RAZAO_SOCIAL": "EMBRATEC_-_COMERCIO_&_SERVICOS_LTDA._-_EMBRATEC", "ENDERECO": "RUA_POTIGUARES_265_TATUAPE_SAO_PAULO", "CIDADE": "SAO_PAULO", "LATITUDE": -23.5372012, "LONGITUDE": -46.577729 }, "geometry": { "type": "Point", "coordinates": [ -46.577729, -23.5372012 ] } },
{ "type": "Feature", "properties": { "CNPJ": 57571551000122, "AGENTE": "ROBERTA_ARAUJO_MEDRADO", "ACAO": "REALIZAR_SEGUNDA_VISITA", "RAZAO_SOCIAL": "57.571.551_LUANA_CAROLINE_DE_SOUSA_AMERICO_-_LUANA_STUDIO", "ENDERECO": "RUA_SANTA_TARCILIA_30_JARDIM_SAO_JOAO_SAO_PAULO", "CIDADE": "SAO_PAULO", "LATITUDE": -23.5471545, "LONGITUDE": -46.4262028 }, "geometry": { "type": "Point", "coordinates": [ -46.4262028, -23.5471545 ] } },
{ "type": "Feature", "properties": { "CNPJ": 53558900000115, "AGENTE": "ROBERTA_ARAUJO_MEDRADO", "ACAO": "REALIZAR_SEGUNDA_VISITA", "RAZAO_SOCIAL": "PELOS_CAMINHOS_PET_COMERCIO_E_SERVICOS_LTDA_-_PELOS_CAMINHOS_PET", "ENDERECO": "RUA_SANTA_VIRGINIA_190_TATUAPE_SAO_PAULO", "CIDADE": "SAO_PAULO", "LATITUDE": -23.5335399, "LONGITUDE": -46.5697793 }, "geometry": { "type": "Point", "coordinates": [ -46.5697793, -23.5335399 ] } },
{ "type": "Feature", "properties": { "CNPJ": 56101502000163, "AGENTE": "ROBERTA_ARAUJO_MEDRADO", "ACAO": "REALIZAR_SEGUNDA_VISITA", "RAZAO_SOCIAL": "MANIA_DE_LIMPEZA_DISTRIBUIDORA_LTDA_-_MANIA_DE_LIMPEZA", "ENDERECO": "RUA_SANTA_VIRGINIA_300_TATUAPE_SAO_PAULO", "CIDADE": "SAO_PAULO", "LATITUDE": -23.5324595, "LONGITUDE": -46.5701309 }, "geometry": { "type": "Point", "coordinates": [ -46.5701309, -23.5324595 ] } },
{ "type": "Feature", "properties": { "CNPJ": 28833643000135, "AGENTE": "ROBERTA_ARAUJO_MEDRADO", "ACAO": "REALIZAR_SEGUNDA_VISITA", "RAZAO_SOCIAL": "P.A.GRER_ESTETICA_E_BELEZA_-_ATELIE_SANTA_UNHA", "ENDERECO": "RUA_SANTA_VIRGINIA_89_TATUAPE_SAO_PAULO", "CIDADE": "SAO_PAULO", "LATITUDE": -23.5343526, "LONGITUDE": -46.5698176 }, "geometry": { "type": "Point", "coordinates": [ -46.5698176, -23.5343526 ] } },
{ "type": "Feature", "properties": { "CNPJ": 47560348000105, "AGENTE": "ROBERTA_ARAUJO_MEDRADO", "ACAO": "REALIZAR_SEGUNDA_VISITA", "RAZAO_SOCIAL": "LARISSA_SANTOS_COSTA_-_CJA_VARIEDADES", "ENDERECO": "RUA_SAO_JORGE_68_PARQUE_SAO_JORGE_SAO_PAULO", "CIDADE": "SAO_PAULO", "LATITUDE": -23.532637, "LONGITUDE": -46.564607 }, "geometry": { "type": "Point", "coordinates": [ -46.564607, -23.532637 ] } },
{ "type": "Feature", "properties": { "CNPJ": 43604540000197, "AGENTE": "ROBERTA_ARAUJO_MEDRADO", "ACAO": "REALIZAR_SEGUNDA_VISITA", "RAZAO_SOCIAL": "MABELE_CRISTINA_SILVA_RODRIGUES_28043745803_-_STAR_PET", "ENDERECO": "RUA_SARGENTO_OSVALDO_130_VILA_ZILDA_SAO_PAULO", "CIDADE": "SAO_PAULO", "LATITUDE": -23.5351442, "LONGITUDE": -46.5657927 }, "geometry": { "type": "Point", "coordinates": [ -46.5657927, -23.5351442 ] } },
{ "type": "Feature", "properties": { "CNPJ": 51577168000103, "AGENTE": "ROBERTA_ARAUJO_MEDRADO", "ACAO": "REALIZAR_SEGUNDA_VISITA", "RAZAO_SOCIAL": "M2M_DISTRIBUIDORA_DE_DESCARTAVEIS_E_UTENSILIOS_LTDA_-_M2M_DESCARTAVEIS_E_UTENSILIOS__LTDA", "ENDERECO": "RUA_SIQUEIRA_BUENO_889_BELENZINHO_SAO_PAULO", "CIDADE": "SAO_PAULO", "LATITUDE": -23.5465273, "LONGITUDE": -46.5916059 }, "geometry": { "type": "Point", "coordinates": [ -46.5916059, -23.5465273 ] } },
{ "type": "Feature", "properties": { "CNPJ": 33174659000113, "AGENTE": "ROBERTA_ARAUJO_MEDRADO", "ACAO": "REALIZAR_SEGUNDA_VISITA", "RAZAO_SOCIAL": "33.174.659_ANDREIA_ALMEIDA_DOS_SANTOS_-_ANDREIA_HAIR", "ENDERECO": "RUA_TAPURAIBA_41_PARQUE_CENTRAL_SAO_PAULO", "CIDADE": "SAO_PAULO", "LATITUDE": -23.5447295, "LONGITUDE": -46.4251419 }, "geometry": { "type": "Point", "coordinates": [ -46.4251419, -23.5447295 ] } },
{ "type": "Feature", "properties": { "CNPJ": 58688955000163, "AGENTE": "ROBERTA_ARAUJO_MEDRADO", "ACAO": "REALIZAR_SEGUNDA_VISITA", "RAZAO_SOCIAL": "58.688.955_AGNES_ROBERTA_MOREIRA_DA_SILVA_-_LOJA_CASA_DO_SEU_ZE", "ENDERECO": "RUA_TUIUTI_1192_TATUAPE_SAO_PAULO", "CIDADE": "SAO_PAULO", "LATITUDE": -23.5358489, "LONGITUDE": -46.5755289 }, "geometry": { "type": "Point", "coordinates": [ -46.5755289, -23.5358489 ] } },
{ "type": "Feature", "properties": { "CNPJ": 41941231000187, "AGENTE": "ROBERTA_ARAUJO_MEDRADO", "ACAO": "REALIZAR_SEGUNDA_VISITA", "RAZAO_SOCIAL": "CAIO_DIAS_37746584802_-_CABELO_E_CIA", "ENDERECO": "RUA_VILELA_31_TATUAPE_SAO_PAULO", "CIDADE": "SAO_PAULO", "LATITUDE": -23.534897, "LONGITUDE": -46.5682389 }, "geometry": { "type": "Point", "coordinates": [ -46.5682389, -23.534897 ] } },
{ "type": "Feature", "properties": { "CNPJ": 33224420000100, "AGENTE": "ROBERTA_ARAUJO_MEDRADO", "ACAO": "REALIZAR_SEGUNDA_VISITA", "RAZAO_SOCIAL": "33.224.420_GABRIELA_BRITO_REIS_-_GB_ATELIE", "ENDERECO": "RUA_WADIH_HATTI_216_VILA_RE_SAO_PAULO", "CIDADE": "SAO_PAULO", "LATITUDE": -23.5297605, "LONGITUDE": -46.4955301 }, "geometry": { "type": "Point", "coordinates": [ -46.4955301, -23.5297605 ] } },
{ "type": "Feature", "properties": { "CNPJ": 1493432000144, "AGENTE": "ROBERTA_ARAUJO_MEDRADO", "ACAO": "REALIZAR_SEGUNDA_VISITA", "RAZAO_SOCIAL": "WIPPER_CONFECCOES_LTDA_-_WIPPER_MODA", "ENDERECO": "RUA_WADIH_HATTI_224_VILA_RE_SAO_PAULO", "CIDADE": "SAO_PAULO", "LATITUDE": -23.529726, "LONGITUDE": -46.4954143 }, "geometry": { "type": "Point", "coordinates": [ -46.4954143, -23.529726 ] } },
{ "type": "Feature", "properties": { "CNPJ": 11430593000142, "AGENTE": "ROBERTA_ARAUJO_MEDRADO", "ACAO": "REALIZAR_SEGUNDA_VISITA", "RAZAO_SOCIAL": "MARGARETH_DA_GRACA_MORETTI_-_GRIFE_MORETTI", "ENDERECO": "RUA_WADIH_HATTI_243_VILA_RE_SAO_PAULO", "CIDADE": "SAO_PAULO", "LATITUDE": -23.529533, "LONGITUDE": -46.4953625 }, "geometry": { "type": "Point", "coordinates": [ -46.4953625, -23.529533 ] } },
{ "type": "Feature", "properties": { "CNPJ": 44426277000156, "AGENTE": "ROBERTA_ARAUJO_MEDRADO", "ACAO": "REALIZAR_SEGUNDA_VISITA", "RAZAO_SOCIAL": "SANCHEZ_COMERCIO_DE_TECIDOS_E_ENXOVAIS_LTDA_-_CORTINAS_BRESSER", "ENDERECO": "VIADUTO_VIADUTO_BRESSER_1084_BRAS_SAO_PAULO", "CIDADE": "SAO_PAULO", "LATITUDE": -23.5396297, "LONGITUDE": -46.6080386 }, "geometry": { "type": "Point", "coordinates": [ -46.6080386, -23.5396297 ] } }
]
}
