{
"type": "FeatureCollection",
"name": "ROBERTA_ARAUJO_MEDRADO",
"crs": { "type": "name", "properties": { "name": "urn:ogc:def:crs:OGC:1.3:CRS84" } },
"xy_coordinate_resolution": 1e-15,
"features": [
{ "type": "Feature", "properties": { "CNPJ": 17600581000103, "AGENTE": "ROBERTA_ARAUJO_MEDRADO", "ACAO": "REALIZAR_PRIMEIRA_VISITA", "RAZAO_SOCIAL": "ASTEC_SERVICOS_E_COMERCIO_DE_EQUIPAMENTOS_DE_COMBATE_A_INCENDIO_LTDA", "ENDERECO": "AVENIDA_ENGENHEIRO_SOARES_DE_CAMARGO_647_CIDADE_PATRIARCA_SAO_PAULO", "CIDADE": "SAO_PAULO", "LATITUDE": -23.5419998, "LONGITUDE": -46.499216 }, "geometry": { "type": "Point", "coordinates": [ -46.499216, -23.5419998 ] } },
{ "type": "Feature", "properties": { "CNPJ": 7594265000104, "AGENTE": "ROBERTA_ARAUJO_MEDRADO", "ACAO": "REALIZAR_PRIMEIRA_VISITA", "RAZAO_SOCIAL": "ADONAY_ITA_COMERCIO_DE_COIFAS_E_CALHAS_LTDA", "ENDERECO": "AVENIDA_ITAQUERA_2507_JARDIM_MARINGA_SAO_PAULO", "CIDADE": "SAO_PAULO", "LATITUDE": -23.5496898, "LONGITUDE": -46.5015931 }, "geometry": { "type": "Point", "coordinates": [ -46.5015931, -23.5496898 ] } },
{ "type": "Feature", "properties": { "CNPJ": 3272006000106, "AGENTE": "ROBERTA_ARAUJO_MEDRADO", "ACAO": "REALIZAR_PRIMEIRA_VISITA", "RAZAO_SOCIAL": "ORGANIZACAO_DE_NEGOCIOS_TR_S/S_LTDA", "ENDERECO": "AVENIDA_ITAQUERA_2575_JARDIM_MARINGA_SAO_PAULO", "CIDADE": "SAO_PAULO", "LATITUDE": -23.5499833, "LONGITUDE": -46.50106 }, "geometry": { "type": "Point", "coordinates": [ -46.50106, -23.5499833 ] } },
{ "type": "Feature", "properties": { "CNPJ": 60792033000143, "AGENTE": "ROBERTA_ARAUJO_MEDRADO", "ACAO": "REALIZAR_PRIMEIRA_VISITA", "RAZAO_SOCIAL": "COMERCIAL_TUBO_LESTE_LTDA", "ENDERECO": "AVENIDA_ITAQUERA_2671_JARDIM_MARINGA_SAO_PAULO", "CIDADE": "SAO_PAULO", "LATITUDE": -23.5496161, "LONGITUDE": -46.4999867 }, "geometry": { "type": "Point", "coordinates": [ -46.4999867, -23.5496161 ] } },
{ "type": "Feature", "properties": { "CNPJ": 39941847000106, "AGENTE": "ROBERTA_ARAUJO_MEDRADO", "ACAO": "REALIZAR_PRIMEIRA_VISITA", "RAZAO_SOCIAL": "BRECHO_POR_KILO_COMERCIO_DE_ARTIGOS_DO_VESTUARIO_E_ACESSORIOS_LTDA", "ENDERECO": "AVENIDA_MARCONDES_DE_BRITO_1287_CHACARA_SEIS_DE_OUTUBRO_SAO_PAULO", "CIDADE": "SAO_PAULO", "LATITUDE": -23.536625, "LONGITUDE": -46.527855 }, "geometry": { "type": "Point", "coordinates": [ -46.527855, -23.536625 ] } },
{ "type": "Feature", "properties": { "CNPJ": 30466022000102, "AGENTE": "ROBERTA_ARAUJO_MEDRADO", "ACAO": "REALIZAR_PRIMEIRA_VISITA", "RAZAO_SOCIAL": "CASA_DE_CARNES_VILA_BARROS_LTDA", "ENDERECO": "AVENIDA_OSVALDO_VALLE_CORDEIRO_208_JARDIM_BRASILIA_SAO_PAULO", "CIDADE": "SAO_PAULO", "LATITUDE": -23.5546061, "LONGITUDE": -46.4922788 }, "geometry": { "type": "Point", "coordinates": [ -46.4922788, -23.5546061 ] } },
{ "type": "Feature", "properties": { "CNPJ": 20184612000199, "AGENTE": "ROBERTA_ARAUJO_MEDRADO", "ACAO": "REALIZAR_PRIMEIRA_VISITA", "RAZAO_SOCIAL": "CONVERSAO_COMERCIO_DE_VESTUARIO_LTDA", "ENDERECO": "AVENIDA_OSVALDO_VALLE_CORDEIRO_208_JARDIM_BRASILIA_SAO_PAULO", "CIDADE": "SAO_PAULO", "LATITUDE": -23.5547115, "LONGITUDE": -46.4923332 }, "geometry": { "type": "Point", "coordinates": [ -46.4923332, -23.5547115 ] } },
{ "type": "Feature", "properties": { "CNPJ": 12369182000232, "AGENTE": "ROBERTA_ARAUJO_MEDRADO", "ACAO": "REALIZAR_PRIMEIRA_VISITA", "RAZAO_SOCIAL": "CASA_DE_TINTAS_V.W._LTDA", "ENDERECO": "AVENIDA_OSVALDO_VALLE_CORDEIRO_498_JARDIM_BRASILIA_SAO_PAULO", "CIDADE": "SAO_PAULO", "LATITUDE": -23.5575212, "LONGITUDE": -46.4916868 }, "geometry": { "type": "Point", "coordinates": [ -46.4916868, -23.5575212 ] } },
{ "type": "Feature", "properties": { "CNPJ": 3166474000104, "AGENTE": "ROBERTA_ARAUJO_MEDRADO", "ACAO": "REALIZAR_PRIMEIRA_VISITA", "RAZAO_SOCIAL": "JOAO_VANDERLEI_DE_SOUZA", "ENDERECO": "AVENIDA_SOUSA_BANDEIRA_288_VILA_NHOCUNE_SAO_PAULO", "CIDADE": "SAO_PAULO", "LATITUDE": -23.5470167, "LONGITUDE": -46.5015317 }, "geometry": { "type": "Point", "coordinates": [ -46.5015317, -23.5470167 ] } },
{ "type": "Feature", "properties": { "CNPJ": 55176742000164, "AGENTE": "ROBERTA_ARAUJO_MEDRADO", "ACAO": "REALIZAR_PRIMEIRA_VISITA", "RAZAO_SOCIAL": "PET_SAUDE_INTEGRAL_LTDA", "ENDERECO": "RUA_ANTONIO_DE_BARROS_1148_TATUAPE_SAO_PAULO", "CIDADE": "SAO_PAULO", "LATITUDE": -23.5403523, "LONGITUDE": -46.5573347 }, "geometry": { "type": "Point", "coordinates": [ -46.5573347, -23.5403523 ] } },
{ "type": "Feature", "properties": { "CNPJ": 32243728000130, "AGENTE": "ROBERTA_ARAUJO_MEDRADO", "ACAO": "REALIZAR_PRIMEIRA_VISITA", "RAZAO_SOCIAL": "LUCIANA_CRISTINA_DE_SOUZA", "ENDERECO": "RUA_ANTONIO_DE_BARROS_1355_TATUAPE_SAO_PAULO", "CIDADE": "SAO_PAULO", "LATITUDE": -23.5422, "LONGITUDE": -46.556935 }, "geometry": { "type": "Point", "coordinates": [ -46.556935, -23.5422 ] } },
{ "type": "Feature", "properties": { "CNPJ": 2515874000107, "AGENTE": "ROBERTA_ARAUJO_MEDRADO", "ACAO": "REALIZAR_PRIMEIRA_VISITA", "RAZAO_SOCIAL": "LIRIO_STUDIO_LTDA", "ENDERECO": "RUA_ANTONIO_MORAIS_BARROS_4_VILA_ZILDA_SAO_PAULO", "CIDADE": "SAO_PAULO", "LATITUDE": -23.5334691, "LONGITUDE": -46.5644971 }, "geometry": { "type": "Point", "coordinates": [ -46.5644971, -23.5334691 ] } },
{ "type": "Feature", "properties": { "CNPJ": 8095703000152, "AGENTE": "ROBERTA_ARAUJO_MEDRADO", "ACAO": "REALIZAR_PRIMEIRA_VISITA", "RAZAO_SOCIAL": "SAUDE_FARMA_COMERCIO_DE_MEDICAMENTOS_LTDA", "ENDERECO": "RUA_BOM_SUCESSO_1300_CIDADE_MAE_DO_CEU_SAO_PAULO", "CIDADE": "SAO_PAULO", "LATITUDE": -23.5506232, "LONGITUDE": -46.5759015 }, "geometry": { "type": "Point", "coordinates": [ -46.5759015, -23.5506232 ] } },
{ "type": "Feature", "properties": { "CNPJ": 39611699000161, "AGENTE": "ROBERTA_ARAUJO_MEDRADO", "ACAO": "REALIZAR_PRIMEIRA_VISITA", "RAZAO_SOCIAL": "W_E_MARCENARIA_E_MOVEIS_PLANEJADOS_LTDA", "ENDERECO": "RUA_CAQUITO_422_VILA_SAO_GERALDO_SAO_PAULO", "CIDADE": "SAO_PAULO", "LATITUDE": -23.5202341, "LONGITUDE": -46.5429036 }, "geometry": { "type": "Point", "coordinates": [ -46.5429036, -23.5202341 ] } },
{ "type": "Feature", "properties": { "CNPJ": 50619226000143, "AGENTE": "ROBERTA_ARAUJO_MEDRADO", "ACAO": "REALIZAR_PRIMEIRA_VISITA", "RAZAO_SOCIAL": "GASTROBAR_O_MEDEIROS_LTDA", "ENDERECO": "RUA_CESARIO_GALERO_200_TATUAPE_SAO_PAULO", "CIDADE": "SAO_PAULO", "LATITUDE": -23.5347569, "LONGITUDE": -46.563041 }, "geometry": { "type": "Point", "coordinates": [ -46.563041, -23.5347569 ] } },
{ "type": "Feature", "properties": { "CNPJ": 53794775000142, "AGENTE": "ROBERTA_ARAUJO_MEDRADO", "ACAO": "REALIZAR_PRIMEIRA_VISITA", "RAZAO_SOCIAL": "COMERCIO_MATERIAL_DE_ELETRICA_E_ILUMINACAO_DE_LED_D_GRACA_LTDA", "ENDERECO": "RUA_COSTA_REGO_57_VILA_GUILHERMINA_SAO_PAULO", "CIDADE": "SAO_PAULO", "LATITUDE": -23.5318823, "LONGITUDE": -46.516535 }, "geometry": { "type": "Point", "coordinates": [ -46.516535, -23.5318823 ] } },
{ "type": "Feature", "properties": { "CNPJ": 41737349000198, "AGENTE": "ROBERTA_ARAUJO_MEDRADO", "ACAO": "REALIZAR_PRIMEIRA_VISITA", "RAZAO_SOCIAL": "WH_LANCHONETE_LTDA", "ENDERECO": "RUA_DONA_MATILDE_381_VILA_MATILDE_SAO_PAULO", "CIDADE": "SAO_PAULO", "LATITUDE": -23.5356454, "LONGITUDE": -46.525972 }, "geometry": { "type": "Point", "coordinates": [ -46.525972, -23.5356454 ] } },
{ "type": "Feature", "properties": { "CNPJ": 39509057000156, "AGENTE": "ROBERTA_ARAUJO_MEDRADO", "ACAO": "REALIZAR_PRIMEIRA_VISITA", "RAZAO_SOCIAL": "BETA_FITNESS_COMERCIO_DE_ROUPAS_E_ACESSORIOS_LTDA", "ENDERECO": "RUA_DONA_MATILDE_660_VILA_MATILDE_SAO_PAULO", "CIDADE": "SAO_PAULO", "LATITUDE": -23.5381817, "LONGITUDE": -46.5254541 }, "geometry": { "type": "Point", "coordinates": [ -46.5254541, -23.5381817 ] } },
{ "type": "Feature", "properties": { "CNPJ": 32759512000122, "AGENTE": "ROBERTA_ARAUJO_MEDRADO", "ACAO": "REALIZAR_PRIMEIRA_VISITA", "RAZAO_SOCIAL": "CAIO_SIQUEIRA_LIMA_CROSSFIT", "ENDERECO": "RUA_DOUTOR_ARMANDO_BRANDAO_56_VILA_MATILDE_SAO_PAULO", "CIDADE": "SAO_PAULO", "LATITUDE": -23.53456, "LONGITUDE": -46.5250945 }, "geometry": { "type": "Point", "coordinates": [ -46.5250945, -23.53456 ] } },
{ "type": "Feature", "properties": { "CNPJ": 22262435000147, "AGENTE": "ROBERTA_ARAUJO_MEDRADO", "ACAO": "REALIZAR_PRIMEIRA_VISITA", "RAZAO_SOCIAL": "GESSO_ART_BELLA_LTDA", "ENDERECO": "RUA_DOUTOR_RAUL_DA_ROCHA_MEDEIROS_157_TATUAPE_SAO_PAULO", "CIDADE": "SAO_PAULO", "LATITUDE": -23.5343009, "LONGITUDE": -46.562971 }, "geometry": { "type": "Point", "coordinates": [ -46.562971, -23.5343009 ] } },
{ "type": "Feature", "properties": { "CNPJ": 53909296000124, "AGENTE": "ROBERTA_ARAUJO_MEDRADO", "ACAO": "REALIZAR_PRIMEIRA_VISITA", "RAZAO_SOCIAL": "MR_FIT_CAFE_EXPRESS_TATUAPE_LTDA", "ENDERECO": "RUA_EMILIO_MALLET_150_VILA_GOMES_CARDIM_SAO_PAULO", "CIDADE": "SAO_PAULO", "LATITUDE": -23.5478954, "LONGITUDE": -46.5723002 }, "geometry": { "type": "Point", "coordinates": [ -46.5723002, -23.5478954 ] } },
{ "type": "Feature", "properties": { "CNPJ": 55333427000101, "AGENTE": "ROBERTA_ARAUJO_MEDRADO", "ACAO": "REALIZAR_PRIMEIRA_VISITA", "RAZAO_SOCIAL": "CONFEITARIA_MORAES_&_MARTOS_LTDA", "ENDERECO": "RUA_FIGUEIRA_DA_BARBARIA_28_JARDIM_BRASILIA_SAO_PAULO", "CIDADE": "SAO_PAULO", "LATITUDE": -23.5557549, "LONGITUDE": -46.4922873 }, "geometry": { "type": "Point", "coordinates": [ -46.4922873, -23.5557549 ] } },
{ "type": "Feature", "properties": { "CNPJ": 51680919000104, "AGENTE": "ROBERTA_ARAUJO_MEDRADO", "ACAO": "REALIZAR_PRIMEIRA_VISITA", "RAZAO_SOCIAL": "BC_UNIFORMES_LTDA", "ENDERECO": "RUA_FIGUEIRA_DA_BARBARIA_28_JARDIM_BRASILIA_SAO_PAULO", "CIDADE": "SAO_PAULO", "LATITUDE": -23.5557797, "LONGITUDE": -46.4923063 }, "geometry": { "type": "Point", "coordinates": [ -46.4923063, -23.5557797 ] } },
{ "type": "Feature", "properties": { "CNPJ": 42000724000185, "AGENTE": "ROBERTA_ARAUJO_MEDRADO", "ACAO": "REALIZAR_PRIMEIRA_VISITA", "RAZAO_SOCIAL": "VIVENDA_NACIONAL_LTDA", "ENDERECO": "RUA_GONCALVES_CRESPO_78_TATUAPE_SAO_PAULO", "CIDADE": "SAO_PAULO", "LATITUDE": -23.5387753, "LONGITUDE": -46.5762709 }, "geometry": { "type": "Point", "coordinates": [ -46.5762709, -23.5387753 ] } },
{ "type": "Feature", "properties": { "CNPJ": 49766105000145, "AGENTE": "ROBERTA_ARAUJO_MEDRADO", "ACAO": "REALIZAR_PRIMEIRA_VISITA", "RAZAO_SOCIAL": "ARTENO_COMERCIO_DE_PAES_LTDA", "ENDERECO": "RUA_ITAPETI_294_VILA_GOMES_CARDIM_SAO_PAULO", "CIDADE": "SAO_PAULO", "LATITUDE": -23.5514538, "LONGITUDE": -46.5684643 }, "geometry": { "type": "Point", "coordinates": [ -46.5684643, -23.5514538 ] } },
{ "type": "Feature", "properties": { "CNPJ": 17103428000162, "AGENTE": "ROBERTA_ARAUJO_MEDRADO", "ACAO": "REALIZAR_PRIMEIRA_VISITA", "RAZAO_SOCIAL": "PRISCILA_DE_MORAES_PEREIRA_MODAS__ACESSORIOS_E_APOIO_ADMINISTRATIVO", "ENDERECO": "RUA_ITINGUCU_1233_VILA_RE_SAO_PAULO", "CIDADE": "SAO_PAULO", "LATITUDE": -23.526351, "LONGITUDE": -46.5034972 }, "geometry": { "type": "Point", "coordinates": [ -46.5034972, -23.526351 ] } },
{ "type": "Feature", "properties": { "CNPJ": 59058713000159, "AGENTE": "ROBERTA_ARAUJO_MEDRADO", "ACAO": "REALIZAR_PRIMEIRA_VISITA", "RAZAO_SOCIAL": "ROQUE_BALLESTER_RESTAURANTE_E_LANCHONETE_LTDA", "ENDERECO": "RUA_ITINGUCU_1255_VILA_RE_SAO_PAULO", "CIDADE": "SAO_PAULO", "LATITUDE": -23.5264997, "LONGITUDE": -46.503341 }, "geometry": { "type": "Point", "coordinates": [ -46.503341, -23.5264997 ] } },
{ "type": "Feature", "properties": { "CNPJ": 7456412000180, "AGENTE": "ROBERTA_ARAUJO_MEDRADO", "ACAO": "REALIZAR_PRIMEIRA_VISITA", "RAZAO_SOCIAL": "FABIANA_DESSIDERIO_VIEIRA_OTICA", "ENDERECO": "RUA_MACIEL_MONTEIRO_752_VILA_SANTA_TERESA_SAO_PAULO", "CIDADE": "SAO_PAULO", "LATITUDE": -23.5419317, "LONGITUDE": -46.49238 }, "geometry": { "type": "Point", "coordinates": [ -46.49238, -23.5419317 ] } },
{ "type": "Feature", "properties": { "CNPJ": 45901515000109, "AGENTE": "ROBERTA_ARAUJO_MEDRADO", "ACAO": "REALIZAR_PRIMEIRA_VISITA", "RAZAO_SOCIAL": "VSDD_COMERCIO_DE_ALIMENTOS_LTDA", "ENDERECO": "RUA_OTELO_RIZZO_13_VILA_GOMES_CARDIM_SAO_PAULO", "CIDADE": "SAO_PAULO", "LATITUDE": -23.55109, "LONGITUDE": -46.5666767 }, "geometry": { "type": "Point", "coordinates": [ -46.5666767, -23.55109 ] } },
{ "type": "Feature", "properties": { "CNPJ": 44156218000105, "AGENTE": "ROBERTA_ARAUJO_MEDRADO", "ACAO": "REALIZAR_PRIMEIRA_VISITA", "RAZAO_SOCIAL": "MAMEDIO'S_MATERIAIS_DE_CONSTRUCAO_LTDA", "ENDERECO": "RUA_SERRA_DE_BOTUCATU_1779_VILA_GOMES_CARDIM_SAO_PAULO", "CIDADE": "SAO_PAULO", "LATITUDE": -23.5410874, "LONGITUDE": -46.554054 }, "geometry": { "type": "Point", "coordinates": [ -46.554054, -23.5410874 ] } },
{ "type": "Feature", "properties": { "CNPJ": 58675802000181, "AGENTE": "ROBERTA_ARAUJO_MEDRADO", "ACAO": "REALIZAR_PRIMEIRA_VISITA", "RAZAO_SOCIAL": "MODAS_PRIACA_LIMITADA", "ENDERECO": "RUA_SERRA_DE_JAPI_1335_VILA_GOMES_CARDIM_SAO_PAULO", "CIDADE": "SAO_PAULO", "LATITUDE": -23.5512346, "LONGITUDE": -46.5677643 }, "geometry": { "type": "Point", "coordinates": [ -46.5677643, -23.5512346 ] } },
{ "type": "Feature", "properties": { "CNPJ": 39880911000196, "AGENTE": "ROBERTA_ARAUJO_MEDRADO", "ACAO": "REALIZAR_PRIMEIRA_VISITA", "RAZAO_SOCIAL": "EXCLUSIVA_TATUAPE_CARNES_NOBRES_LTDA", "ENDERECO": "RUA_SERRA_DE_JAPI_1371_VILA_GOMES_CARDIM_CAPITAL_LESTE", "CIDADE": "CAPITAL_LESTE", "LATITUDE": -23.5513692, "LONGITUDE": -46.5675784 }, "geometry": { "type": "Point", "coordinates": [ -46.5675784, -23.5513692 ] } },
{ "type": "Feature", "properties": { "CNPJ": 40623016000175, "AGENTE": "ROBERTA_ARAUJO_MEDRADO", "ACAO": "REALIZAR_PRIMEIRA_VISITA", "RAZAO_SOCIAL": "PROVENCE_CAFES_ESPECIAIS_LTDA", "ENDERECO": "RUA_SERRA_DE_JAPI_1378_VILA_GOMES_CARDIM_SAO_PAULO", "CIDADE": "SAO_PAULO", "LATITUDE": -23.5514267, "LONGITUDE": -46.56772 }, "geometry": { "type": "Point", "coordinates": [ -46.56772, -23.5514267 ] } },
{ "type": "Feature", "properties": { "CNPJ": 44873650000117, "AGENTE": "ROBERTA_ARAUJO_MEDRADO", "ACAO": "REALIZAR_PRIMEIRA_VISITA", "RAZAO_SOCIAL": "EDSON_ROCHA_DONHA_MECANICA", "ENDERECO": "RUA_TAPAIUNA_199_JARDIM_SANTA_MARIA_SAO_PAULO", "CIDADE": "SAO_PAULO", "LATITUDE": -23.5516197, "LONGITUDE": -46.5074306 }, "geometry": { "type": "Point", "coordinates": [ -46.5074306, -23.5516197 ] } },
{ "type": "Feature", "properties": { "CNPJ": 57820838000149, "AGENTE": "ROBERTA_ARAUJO_MEDRADO", "ACAO": "REALIZAR_PRIMEIRA_VISITA", "RAZAO_SOCIAL": "ISA&GI_COMERCIO_OTICO_LTDA", "ENDERECO": "RUA_TUIUTI_2297_TATUAPE_SAO_PAULO", "CIDADE": "SAO_PAULO", "LATITUDE": -23.5449995, "LONGITUDE": -46.5743791 }, "geometry": { "type": "Point", "coordinates": [ -46.5743791, -23.5449995 ] } },
{ "type": "Feature", "properties": { "CNPJ": 60513177000113, "AGENTE": "ROBERTA_ARAUJO_MEDRADO", "ACAO": "REALIZAR_PRIMEIRA_VISITA", "RAZAO_SOCIAL": "GRAO_JARDIM_CAFE_LTDA", "ENDERECO": "RUA_TUIUTI_2641_TATUAPE_SAO_PAULO", "CIDADE": "SAO_PAULO", "LATITUDE": -23.5488197, "LONGITUDE": -46.5735146 }, "geometry": { "type": "Point", "coordinates": [ -46.5735146, -23.5488197 ] } },
{ "type": "Feature", "properties": { "CNPJ": 48317276000124, "AGENTE": "ROBERTA_ARAUJO_MEDRADO", "ACAO": "REALIZAR_PRIMEIRA_VISITA", "RAZAO_SOCIAL": "CLINICA_JS_ODONTOLOGIA_ESTETICA_E_HARMONIZACAO_LTDA", "ENDERECO": "RUA_TUIUTI_2663_TATUAPE_SAO_PAULO", "CIDADE": "SAO_PAULO", "LATITUDE": -23.5489783, "LONGITUDE": -46.5734756 }, "geometry": { "type": "Point", "coordinates": [ -46.5734756, -23.5489783 ] } },
{ "type": "Feature", "properties": { "CNPJ": 10564718000164, "AGENTE": "ROBERTA_ARAUJO_MEDRADO", "ACAO": "REALIZAR_PRIMEIRA_VISITA", "RAZAO_SOCIAL": "WAGNER_JOSE_MARCHI_GOMES_PEQUENEZA_JUNIOR", "ENDERECO": "RUA_WADIH_HATTI_228_VILA_RE_SAO_PAULO", "CIDADE": "SAO_PAULO", "LATITUDE": -23.5296158, "LONGITUDE": -46.4953742 }, "geometry": { "type": "Point", "coordinates": [ -46.4953742, -23.5296158 ] } },
{ "type": "Feature", "properties": { "CNPJ": 3066361000129, "AGENTE": "ROBERTA_ARAUJO_MEDRADO", "ACAO": "REALIZAR_SEGUNDA_VISITA", "RAZAO_SOCIAL": "BELLIDECOR_COMERCIO_DE_MOVEIS_LTDA_-_BELLE_DE_COR_MOVEIS_PLANEJADOS", "ENDERECO": "AVENIDA_CAMPANELLA_2173_JARDIM_ITAPEMIRIM_SAO_PAULO", "CIDADE": "SAO_PAULO", "LATITUDE": -23.5338163, "LONGITUDE": -46.4563066 }, "geometry": { "type": "Point", "coordinates": [ -46.4563066, -23.5338163 ] } },
{ "type": "Feature", "properties": { "CNPJ": 30285874000101, "AGENTE": "ROBERTA_ARAUJO_MEDRADO", "ACAO": "REALIZAR_SEGUNDA_VISITA", "RAZAO_SOCIAL": "MARCENARIA_FERREIRA_LTDA_-_MARCENARIA_FERREIRA", "ENDERECO": "AVENIDA_CELSO_GARCIA_3615_TATUAPE_SAO_PAULO", "CIDADE": "SAO_PAULO", "LATITUDE": -23.5347799, "LONGITUDE": -46.5774734 }, "geometry": { "type": "Point", "coordinates": [ -46.5774734, -23.5347799 ] } },
{ "type": "Feature", "properties": { "CNPJ": 24662254000133, "AGENTE": "ROBERTA_ARAUJO_MEDRADO", "ACAO": "REALIZAR_SEGUNDA_VISITA", "RAZAO_SOCIAL": "MERCADINHO_ESTRELA_E_CONVENIENCIA_ARTIGOS_E_ACESSORIOS_LTDA_-_ESTRELA_CONVENIENCIA", "ENDERECO": "AVENIDA_CELSO_GARCIA_3619_TATUAPE_SAO_PAULO", "CIDADE": "SAO_PAULO", "LATITUDE": -23.5348737, "LONGITUDE": -46.5773311 }, "geometry": { "type": "Point", "coordinates": [ -46.5773311, -23.5348737 ] } },
{ "type": "Feature", "properties": { "CNPJ": 8063500000184, "AGENTE": "ROBERTA_ARAUJO_MEDRADO", "ACAO": "REALIZAR_SEGUNDA_VISITA", "RAZAO_SOCIAL": "CELMAR_FOTO_E_VIDEO_LTDA_-_OPTICA_LINI", "ENDERECO": "AVENIDA_CELSO_GARCIA_3970_TATUAPE_SAO_PAULO", "CIDADE": "SAO_PAULO", "LATITUDE": -23.5356317, "LONGITUDE": -46.5739392 }, "geometry": { "type": "Point", "coordinates": [ -46.5739392, -23.5356317 ] } },
{ "type": "Feature", "properties": { "CNPJ": 19669213000139, "AGENTE": "ROBERTA_ARAUJO_MEDRADO", "ACAO": "REALIZAR_SEGUNDA_VISITA", "RAZAO_SOCIAL": "SANVILA_DISTRIBUIDORA_DE_MATERIAIS_ELETRICOS_LTDA_-_SANVILA", "ENDERECO": "AVENIDA_CELSO_GARCIA_4430_TATUAPE_SAO_PAULO", "CIDADE": "SAO_PAULO", "LATITUDE": -23.5352409, "LONGITUDE": -46.569598 }, "geometry": { "type": "Point", "coordinates": [ -46.569598, -23.5352409 ] } },
{ "type": "Feature", "properties": { "CNPJ": 56976724000120, "AGENTE": "ROBERTA_ARAUJO_MEDRADO", "ACAO": "REALIZAR_SEGUNDA_VISITA", "RAZAO_SOCIAL": "MERCADO_E_ADEGA_TATUAPE_LTDA_-_MERCADO_ADEGA_TATUAPE", "ENDERECO": "AVENIDA_CELSO_GARCIA_4492_TATUAPE_SAO_PAULO", "CIDADE": "SAO_PAULO", "LATITUDE": -23.5349995, "LONGITUDE": -46.5690539 }, "geometry": { "type": "Point", "coordinates": [ -46.5690539, -23.5349995 ] } },
{ "type": "Feature", "properties": { "CNPJ": 49447975000151, "AGENTE": "ROBERTA_ARAUJO_MEDRADO", "ACAO": "REALIZAR_SEGUNDA_VISITA", "RAZAO_SOCIAL": "CAVE_MOTOCENTER_LTDA_-_CAVE", "ENDERECO": "AVENIDA_CELSO_GARCIA_4947_PARQUE_SAO_JORGE_SAO_PAULO", "CIDADE": "SAO_PAULO", "LATITUDE": -23.5332043, "LONGITUDE": -46.5649021 }, "geometry": { "type": "Point", "coordinates": [ -46.5649021, -23.5332043 ] } },
{ "type": "Feature", "properties": { "CNPJ": 41810089000139, "AGENTE": "ROBERTA_ARAUJO_MEDRADO", "ACAO": "REALIZAR_SEGUNDA_VISITA", "RAZAO_SOCIAL": "PERUVIAN_ART_DESIGN_MOVEIS_LTDA_-_PERUVIAN", "ENDERECO": "AVENIDA_CELSO_GARCIA_4983_TATUAPE_SAO_PAULO", "CIDADE": "SAO_PAULO", "LATITUDE": -23.5331869, "LONGITUDE": -46.5643666 }, "geometry": { "type": "Point", "coordinates": [ -46.5643666, -23.5331869 ] } },
{ "type": "Feature", "properties": { "CNPJ": 59349128000108, "AGENTE": "ROBERTA_ARAUJO_MEDRADO", "ACAO": "REALIZAR_SEGUNDA_VISITA", "RAZAO_SOCIAL": "59.349.128_ADRIANA_ARRUDA_DA_HORA_-_ATELIE_GATA", "ENDERECO": "AVENIDA_CELSO_GARCIA_5165_TATUAPE_SAO_PAULO", "CIDADE": "SAO_PAULO", "LATITUDE": -23.5326609, "LONGITUDE": -46.5628473 }, "geometry": { "type": "Point", "coordinates": [ -46.5628473, -23.5326609 ] } },
{ "type": "Feature", "properties": { "CNPJ": 55858856000194, "AGENTE": "ROBERTA_ARAUJO_MEDRADO", "ACAO": "REALIZAR_SEGUNDA_VISITA", "RAZAO_SOCIAL": "J_C_GONCALVES_OTICA_LTDA_-_OTICA_ESTIRIO", "ENDERECO": "AVENIDA_CELSO_GARCIA_5312_TATUAPE_SAO_PAULO", "CIDADE": "SAO_PAULO", "LATITUDE": -23.5322918, "LONGITUDE": -46.5614958 }, "geometry": { "type": "Point", "coordinates": [ -46.5614958, -23.5322918 ] } },
{ "type": "Feature", "properties": { "CNPJ": 39151749000175, "AGENTE": "ROBERTA_ARAUJO_MEDRADO", "ACAO": "REALIZAR_SEGUNDA_VISITA", "RAZAO_SOCIAL": "BRUNO_CAUE_NOGUEIRA_ALVES_-_JBS_ARMARINHOS_E_PAPELARIA", "ENDERECO": "AVENIDA_DOUTOR_GUILHERME_DE_ABREU_SODRE_380_VILA_HORTENCIA_SAO_PAULO", "CIDADE": "SAO_PAULO", "LATITUDE": -23.5683112, "LONGITUDE": -46.4100879 }, "geometry": { "type": "Point", "coordinates": [ -46.4100879, -23.5683112 ] } },
{ "type": "Feature", "properties": { "CNPJ": 52990581000150, "AGENTE": "ROBERTA_ARAUJO_MEDRADO", "ACAO": "REALIZAR_SEGUNDA_VISITA", "RAZAO_SOCIAL": "GIJU_UNIFORMES_E_MATERIAIS_ESCOLARES_LTDA_-_GIJU_UNIFORME", "ENDERECO": "AVENIDA_ENGENHEIRO_SOARES_DE_CAMARGO_344_CIDADE_PATRIARCA_SAO_PAULO", "CIDADE": "SAO_PAULO", "LATITUDE": -23.5404303, "LONGITUDE": -46.5015609 }, "geometry": { "type": "Point", "coordinates": [ -46.5015609, -23.5404303 ] } },
{ "type": "Feature", "properties": { "CNPJ": 59385031000150, "AGENTE": "ROBERTA_ARAUJO_MEDRADO", "ACAO": "REALIZAR_SEGUNDA_VISITA", "RAZAO_SOCIAL": "EMPORIO_MINEIRO_FAMILIA_FONTANA_LTDA_-_EMPORIO_MINEIRO_FAMILIA", "ENDERECO": "AVENIDA_ENGENHEIRO_SOARES_DE_CAMARGO_345_CIDADE_PATRIARCA_SAO_PAULO", "CIDADE": "SAO_PAULO", "LATITUDE": -23.5403206, "LONGITUDE": -46.5015091 }, "geometry": { "type": "Point", "coordinates": [ -46.5015091, -23.5403206 ] } },
{ "type": "Feature", "properties": { "CNPJ": 53723804000185, "AGENTE": "ROBERTA_ARAUJO_MEDRADO", "ACAO": "REALIZAR_SEGUNDA_VISITA", "RAZAO_SOCIAL": "53.723.804_BISMARQUE_ALVES_LEITE_-_MARKTECH", "ENDERECO": "AVENIDA_ENGENHEIRO_SOARES_DE_CAMARGO_479_CIDADE_PATRIARCA_SAO_PAULO", "CIDADE": "SAO_PAULO", "LATITUDE": -23.540902, "LONGITUDE": -46.5005057 }, "geometry": { "type": "Point", "coordinates": [ -46.5005057, -23.540902 ] } },
{ "type": "Feature", "properties": { "CNPJ": 60447992000121, "AGENTE": "ROBERTA_ARAUJO_MEDRADO", "ACAO": "REALIZAR_SEGUNDA_VISITA", "RAZAO_SOCIAL": "JOSE_CARLOS_BONATTO-MOTORES_-_ELETRONICA_BONATO", "ENDERECO": "AVENIDA_ENGENHEIRO_SOARES_DE_CAMARGO_636_CIDADE_PATRIARCA_SAO_PAULO", "CIDADE": "SAO_PAULO", "LATITUDE": -23.5420687, "LONGITUDE": -46.499299 }, "geometry": { "type": "Point", "coordinates": [ -46.499299, -23.5420687 ] } },
{ "type": "Feature", "properties": { "CNPJ": 46162411000184, "AGENTE": "ROBERTA_ARAUJO_MEDRADO", "ACAO": "REALIZAR_SEGUNDA_VISITA", "RAZAO_SOCIAL": "LANCHONETE_WP_COMPANHIA_LTDA_-_MAIA_PASTEIS", "ENDERECO": "AVENIDA_MACIEL_MONTEIRO_798_VILA_SANTA_TERESA_SAO_PAULO", "CIDADE": "SAO_PAULO", "LATITUDE": -23.5423214, "LONGITUDE": -46.4926728 }, "geometry": { "type": "Point", "coordinates": [ -46.4926728, -23.5423214 ] } },
{ "type": "Feature", "properties": { "CNPJ": 28350728000162, "AGENTE": "ROBERTA_ARAUJO_MEDRADO", "ACAO": "REALIZAR_SEGUNDA_VISITA", "RAZAO_SOCIAL": "28.350.728_SIMONE_RODRIGUES_DE_LIMA_-_SIMONECA", "ENDERECO": "AVENIDA_PARAGUASSU_PAULISTA_184_VILA_SANTA_TERESA_SAO_PAULO", "CIDADE": "SAO_PAULO", "LATITUDE": -23.5375771, "LONGITUDE": -46.4909926 }, "geometry": { "type": "Point", "coordinates": [ -46.4909926, -23.5375771 ] } },
{ "type": "Feature", "properties": { "CNPJ": 32700278000168, "AGENTE": "ROBERTA_ARAUJO_MEDRADO", "ACAO": "REALIZAR_SEGUNDA_VISITA", "RAZAO_SOCIAL": "YAGO_THYERRY_ALVES_SANTOS_42577580827_-_PINE_APPLE_CELL", "ENDERECO": "AVENIDA_PARAGUASSU_PAULISTA_72_VILA_SANTA_TERESA_SAO_PAULO", "CIDADE": "SAO_PAULO", "LATITUDE": -23.5374976, "LONGITUDE": -46.4916369 }, "geometry": { "type": "Point", "coordinates": [ -46.4916369, -23.5374976 ] } },
{ "type": "Feature", "properties": { "CNPJ": 14796427000152, "AGENTE": "ROBERTA_ARAUJO_MEDRADO", "ACAO": "REALIZAR_SEGUNDA_VISITA", "RAZAO_SOCIAL": "LEANDRO_SOUZA_NOVAES_26915438890_-_CHAVEIRO_ZUM", "ENDERECO": "AVENIDA_PARAGUASSU_PAULISTA_726_VILA_SANTA_TERESA_SAO_PAULO", "CIDADE": "SAO_PAULO", "LATITUDE": -23.5375762, "LONGITUDE": -46.4916169 }, "geometry": { "type": "Point", "coordinates": [ -46.4916169, -23.5375762 ] } },
{ "type": "Feature", "properties": { "CNPJ": 52548596000162, "AGENTE": "ROBERTA_ARAUJO_MEDRADO", "ACAO": "REALIZAR_SEGUNDA_VISITA", "RAZAO_SOCIAL": "52.548.596_OTHON_CORREIA_DA_SILVA_-_ACAI_DO_TOM", "ENDERECO": "AVENIDA_RIBEIRAO_ITAQUERA_29_PARQUE_CENTRAL_SAO_PAULO", "CIDADE": "SAO_PAULO", "LATITUDE": -23.5438199, "LONGITUDE": -46.4226941 }, "geometry": { "type": "Point", "coordinates": [ -46.4226941, -23.5438199 ] } },
{ "type": "Feature", "properties": { "CNPJ": 59159363000117, "AGENTE": "ROBERTA_ARAUJO_MEDRADO", "ACAO": "REALIZAR_SEGUNDA_VISITA", "RAZAO_SOCIAL": "KAZZA_FERRAGENS_VILA_NHOCUNE_LTDA_-_KAZZA_DAS_FERRAGENS", "ENDERECO": "AVENIDA_SOUSA_BANDEIRA_284_VILA_NHOCUNE_SAO_PAULO", "CIDADE": "SAO_PAULO", "LATITUDE": -23.5469833, "LONGITUDE": -46.50141 }, "geometry": { "type": "Point", "coordinates": [ -46.50141, -23.5469833 ] } },
{ "type": "Feature", "properties": { "CNPJ": 46180383000128, "AGENTE": "ROBERTA_ARAUJO_MEDRADO", "ACAO": "REALIZAR_SEGUNDA_VISITA", "RAZAO_SOCIAL": "NATUGRAO_PRODUTOS_NATURAIS_LTDA_-_NATUGRAO", "ENDERECO": "AVENIDA_WALDEMAR_CARLOS_PEREIRA_1331_JARDIM_MARINGA_SAO_PAULO", "CIDADE": "SAO_PAULO", "LATITUDE": -23.5451693, "LONGITUDE": -46.5139807 }, "geometry": { "type": "Point", "coordinates": [ -46.5139807, -23.5451693 ] } },
{ "type": "Feature", "properties": { "CNPJ": 58431686000155, "AGENTE": "ROBERTA_ARAUJO_MEDRADO", "ACAO": "REALIZAR_SEGUNDA_VISITA", "RAZAO_SOCIAL": "NEW_LIBERTY_PAPELARIA_LTDA_-_NEW_LIBERT_PAPELARIA", "ENDERECO": "AVENIDA_WALDEMAR_CARLOS_PEREIRA_1410_JARDIM_MARINGA_SAO_PAULO", "CIDADE": "SAO_PAULO", "LATITUDE": -23.5460538, "LONGITUDE": -46.5136262 }, "geometry": { "type": "Point", "coordinates": [ -46.5136262, -23.5460538 ] } },
{ "type": "Feature", "properties": { "CNPJ": 40219086000162, "AGENTE": "ROBERTA_ARAUJO_MEDRADO", "ACAO": "REALIZAR_SEGUNDA_VISITA", "RAZAO_SOCIAL": "MARIA_DO_CARMO_ALVES_MAIA_05310978542_-_CARMEM", "ENDERECO": "AVENIDA_WALDEMAR_CARLOS_PEREIRA_1410_VILA_TALARICO_SAO_PAULO", "CIDADE": "SAO_PAULO", "LATITUDE": -23.5458775, "LONGITUDE": -46.513612 }, "geometry": { "type": "Point", "coordinates": [ -46.513612, -23.5458775 ] } },
{ "type": "Feature", "properties": { "CNPJ": 6181878000157, "AGENTE": "ROBERTA_ARAUJO_MEDRADO", "ACAO": "REALIZAR_SEGUNDA_VISITA", "RAZAO_SOCIAL": "ALLCORPO_COMERCIO_DE_LINGERIE_E_APOIO_ADMINISTRATIVO_LTDA_-_AU_CORPO", "ENDERECO": "LARGO_SAO_JOSE_DO_MARANHAO_67_MARANHAO_SAO_PAULO", "CIDADE": "SAO_PAULO", "LATITUDE": -23.5299405, "LONGITUDE": -46.5603574 }, "geometry": { "type": "Point", "coordinates": [ -46.5603574, -23.5299405 ] } },
{ "type": "Feature", "properties": { "CNPJ": 45304600000181, "AGENTE": "ROBERTA_ARAUJO_MEDRADO", "ACAO": "REALIZAR_SEGUNDA_VISITA", "RAZAO_SOCIAL": "C._RODRIGUES_DE_SOUSA_-_FORTALEZA_BAR", "ENDERECO": "PRACA_LEONARDO_DE_BARROS_CARVALHO_162_VILA_NHOCUNE_SAO_PAULO", "CIDADE": "SAO_PAULO", "LATITUDE": -23.5428738, "LONGITUDE": -46.4972234 }, "geometry": { "type": "Point", "coordinates": [ -46.4972234, -23.5428738 ] } },
{ "type": "Feature", "properties": { "CNPJ": 15542001000135, "AGENTE": "ROBERTA_ARAUJO_MEDRADO", "ACAO": "REALIZAR_SEGUNDA_VISITA", "RAZAO_SOCIAL": "B_R_NEVES_FILHO_MATERIAIS_PARA_CONSTRUCAO_-_DE_TUDO_UM_POUCO", "ENDERECO": "RUA_ANTONIO_DE_BARROS_108_MARANHAO_SAO_PAULO", "CIDADE": "SAO_PAULO", "LATITUDE": -23.5313151, "LONGITUDE": -46.5602222 }, "geometry": { "type": "Point", "coordinates": [ -46.5602222, -23.5313151 ] } },
{ "type": "Feature", "properties": { "CNPJ": 34298452000113, "AGENTE": "ROBERTA_ARAUJO_MEDRADO", "ACAO": "REALIZAR_SEGUNDA_VISITA", "RAZAO_SOCIAL": "34.298.452_MICHELLE_MONTEIRO_CIRINO_-_MADAME", "ENDERECO": "RUA_ANTONIO_DE_BARROS_417_MARANHAO_SAO_PAULO", "CIDADE": "SAO_PAULO", "LATITUDE": -23.5339654, "LONGITUDE": -46.5593047 }, "geometry": { "type": "Point", "coordinates": [ -46.5593047, -23.5339654 ] } },
{ "type": "Feature", "properties": { "CNPJ": 58457189000126, "AGENTE": "ROBERTA_ARAUJO_MEDRADO", "ACAO": "REALIZAR_SEGUNDA_VISITA", "RAZAO_SOCIAL": "UBAIA_PRODUTOS_NATURAIS_LTDA_-_UBAIA", "ENDERECO": "RUA_ANTONIO_DE_BARROS_99_MARANHAO_SAO_PAULO", "CIDADE": "SAO_PAULO", "LATITUDE": -23.5312747, "LONGITUDE": -46.5600788 }, "geometry": { "type": "Point", "coordinates": [ -46.5600788, -23.5312747 ] } },
{ "type": "Feature", "properties": { "CNPJ": 4397033000178, "AGENTE": "ROBERTA_ARAUJO_MEDRADO", "ACAO": "REALIZAR_SEGUNDA_VISITA", "RAZAO_SOCIAL": "W_L_FALCARO_ESCOLA_-_COSMOSOM", "ENDERECO": "RUA_ANTONIO_MACEDO_40_PARQUE_SAO_JORGE_SAO_PAULO", "CIDADE": "SAO_PAULO", "LATITUDE": -23.5324101, "LONGITUDE": -46.5632286 }, "geometry": { "type": "Point", "coordinates": [ -46.5632286, -23.5324101 ] } },
{ "type": "Feature", "properties": { "CNPJ": 65556367000131, "AGENTE": "ROBERTA_ARAUJO_MEDRADO", "ACAO": "REALIZAR_SEGUNDA_VISITA", "RAZAO_SOCIAL": "JUAREZ_A_DA_SILVA-TECIDOS_-_JUATEX", "ENDERECO": "RUA_BRESSER_1179_BRAS_SAO_PAULO", "CIDADE": "SAO_PAULO", "LATITUDE": -23.5404635, "LONGITUDE": -46.6076174 }, "geometry": { "type": "Point", "coordinates": [ -46.6076174, -23.5404635 ] } },
{ "type": "Feature", "properties": { "CNPJ": 9542941000121, "AGENTE": "ROBERTA_ARAUJO_MEDRADO", "ACAO": "REALIZAR_SEGUNDA_VISITA", "RAZAO_SOCIAL": "FORMA_E_MOVIMENTO_INDUSTRIA_E_COMERCIO_DE_CONFECCOES_LTDA_-_FORMA_E_MOVIMENTO_INDUSTRIA_E_COMERCIO", "ENDERECO": "RUA_CORONEL_TRANCOSO_56_BRAS_SAO_PAULO", "CIDADE": "SAO_PAULO", "LATITUDE": -23.5408323, "LONGITUDE": -46.6175258 }, "geometry": { "type": "Point", "coordinates": [ -46.6175258, -23.5408323 ] } },
{ "type": "Feature", "properties": { "CNPJ": 59035711000144, "AGENTE": "ROBERTA_ARAUJO_MEDRADO", "ACAO": "REALIZAR_SEGUNDA_VISITA", "RAZAO_SOCIAL": "59.035.711_ANDERSON_KAIQUE_ALMEIDA_LUCAS_-_JK_BATATAS", "ENDERECO": "RUA_DOUTOR_ALCIDES_DA_COSTA_VIDIGAL_15_JARDIM_SAO_PAULO_SAO_PAULO", "CIDADE": "SAO_PAULO", "LATITUDE": -23.5621342, "LONGITUDE": -46.4064705 }, "geometry": { "type": "Point", "coordinates": [ -46.4064705, -23.5621342 ] } },
{ "type": "Feature", "properties": { "CNPJ": 15252276000134, "AGENTE": "ROBERTA_ARAUJO_MEDRADO", "ACAO": "REALIZAR_SEGUNDA_VISITA", "RAZAO_SOCIAL": "LINDA_LEMBRANCA_DOCES_LTDA_-_LINDA_LEMBRANCA", "ENDERECO": "RUA_DOUTOR_ANGELO_VITA_210_TATUAPE_SAO_PAULO", "CIDADE": "SAO_PAULO", "LATITUDE": -23.5357683, "LONGITUDE": -46.5659398 }, "geometry": { "type": "Point", "coordinates": [ -46.5659398, -23.5357683 ] } },
{ "type": "Feature", "properties": { "CNPJ": 8430298000181, "AGENTE": "ROBERTA_ARAUJO_MEDRADO", "ACAO": "REALIZAR_SEGUNDA_VISITA", "RAZAO_SOCIAL": "MAGETRONIC_ELETRONICA_E_UTENSILIOS_DOMESTICOS_LTDA_-_MAGETRONIC", "ENDERECO": "RUA_DOUTOR_ANGELO_VITA_255_TATUAPE_SAO_PAULO", "CIDADE": "SAO_PAULO", "LATITUDE": -23.5360917, "LONGITUDE": -46.5657202 }, "geometry": { "type": "Point", "coordinates": [ -46.5657202, -23.5360917 ] } },
{ "type": "Feature", "properties": { "CNPJ": 59120906000192, "AGENTE": "ROBERTA_ARAUJO_MEDRADO", "ACAO": "REALIZAR_SEGUNDA_VISITA", "RAZAO_SOCIAL": "59.120.906_APARECIDA_YASMIN_CARNEIRO_MELO_-_EMPORIO_DAS_UNHAS", "ENDERECO": "RUA_DOUTOR_ANGELO_VITA_41_TATUAPE_SAO_PAULO", "CIDADE": "SAO_PAULO", "LATITUDE": -23.5342215, "LONGITUDE": -46.5664409 }, "geometry": { "type": "Point", "coordinates": [ -46.5664409, -23.5342215 ] } },
{ "type": "Feature", "properties": { "CNPJ": 51028870000100, "AGENTE": "ROBERTA_ARAUJO_MEDRADO", "ACAO": "REALIZAR_SEGUNDA_VISITA", "RAZAO_SOCIAL": "51.028.870_LUCINEIDE_MATTOSO_DE_SOUZA_AURICCHIO_-_MEM", "ENDERECO": "RUA_DOUTOR_ANGELO_VITA_42_TATUAPE_SAO_PAULO", "CIDADE": "SAO_PAULO", "LATITUDE": -23.534307, "LONGITUDE": -46.5664657 }, "geometry": { "type": "Point", "coordinates": [ -46.5664657, -23.534307 ] } },
{ "type": "Feature", "properties": { "CNPJ": 41150895000128, "AGENTE": "ROBERTA_ARAUJO_MEDRADO", "ACAO": "REALIZAR_SEGUNDA_VISITA", "RAZAO_SOCIAL": "RAFAEL_MARTINELLI_33943879801_-_BARBEARIA_MARTINELLI", "ENDERECO": "RUA_DOUTOR_JOAO_LEAL_DA_COSTA_474_JARDIM_SAO_PAULO_SAO_PAULO", "CIDADE": "SAO_PAULO", "LATITUDE": -23.5597621, "LONGITUDE": -46.4027944 }, "geometry": { "type": "Point", "coordinates": [ -46.4027944, -23.5597621 ] } },
{ "type": "Feature", "properties": { "CNPJ": 37399866000127, "AGENTE": "ROBERTA_ARAUJO_MEDRADO", "ACAO": "REALIZAR_SEGUNDA_VISITA", "RAZAO_SOCIAL": "WILLIAM_RICZ_DE_SOUZA_44753544800_-_RICZ", "ENDERECO": "RUA_DOUTOR_NELSON_MADUREIRA_422_VILA_NHOCUNE_SAO_PAULO", "CIDADE": "SAO_PAULO", "LATITUDE": -23.5459483, "LONGITUDE": -46.5017383 }, "geometry": { "type": "Point", "coordinates": [ -46.5017383, -23.5459483 ] } },
{ "type": "Feature", "properties": { "CNPJ": 46927181000105, "AGENTE": "ROBERTA_ARAUJO_MEDRADO", "ACAO": "REALIZAR_SEGUNDA_VISITA", "RAZAO_SOCIAL": "KYRIOS_ESQUADRIAS_DE_ALUMINIO_E_VIDRACARIA_LTDA_-__KYRIOS_ESQUADRIAS_DE_ALUMINIO_E_VIDRACARIA_LTDA", "ENDERECO": "RUA_DOUTOR_NELSON_MADUREIRA_442_VILA_NHOCUNE_SAO_PAULO", "CIDADE": "SAO_PAULO", "LATITUDE": -23.5460178, "LONGITUDE": -46.5014954 }, "geometry": { "type": "Point", "coordinates": [ -46.5014954, -23.5460178 ] } },
{ "type": "Feature", "properties": { "CNPJ": 14918777000144, "AGENTE": "ROBERTA_ARAUJO_MEDRADO", "ACAO": "REALIZAR_SEGUNDA_VISITA", "RAZAO_SOCIAL": "CREUSA_MARIA_RODRIGUES_PASQUALI_08306998804_-_CLEUSA_MARIA", "ENDERECO": "RUA_ERASMO_BRAGA_48_PENHA_DE_FRANCA_SAO_PAULO", "CIDADE": "SAO_PAULO", "LATITUDE": -23.5227312, "LONGITUDE": -46.5464936 }, "geometry": { "type": "Point", "coordinates": [ -46.5464936, -23.5227312 ] } },
{ "type": "Feature", "properties": { "CNPJ": 53215267000243, "AGENTE": "ROBERTA_ARAUJO_MEDRADO", "ACAO": "REALIZAR_SEGUNDA_VISITA", "RAZAO_SOCIAL": "HEIDY_&AKEMI_COMERCIO_DE_PRODUTOS_NATURAIS_LTDA_-_BOA_FORMA", "ENDERECO": "RUA_ERASMO_BRAGA_56_PENHA_DE_FRANCA_SAO_PAULO", "CIDADE": "SAO_PAULO", "LATITUDE": -23.5226103, "LONGITUDE": -46.5468785 }, "geometry": { "type": "Point", "coordinates": [ -46.5468785, -23.5226103 ] } },
{ "type": "Feature", "properties": { "CNPJ": 60020058000129, "AGENTE": "ROBERTA_ARAUJO_MEDRADO", "ACAO": "REALIZAR_SEGUNDA_VISITA", "RAZAO_SOCIAL": "JN_CONSTRUCENTER_LTDA_-_JN_CONSTRU_CENTER", "ENDERECO": "RUA_FERNANDES_VIEIRA_155_BELENZINHO_SAO_PAULO", "CIDADE": "SAO_PAULO", "LATITUDE": -23.540477, "LONGITUDE": -46.5903669 }, "geometry": { "type": "Point", "coordinates": [ -46.5903669, -23.540477 ] } },
{ "type": "Feature", "properties": { "CNPJ": 4787888000105, "AGENTE": "ROBERTA_ARAUJO_MEDRADO", "ACAO": "REALIZAR_SEGUNDA_VISITA", "RAZAO_SOCIAL": "FLORICULTURA_MARINA_FIORI_&_FILHO_LTDA_-_MARINA", "ENDERECO": "RUA_HIPOLITO_DE_CAMARGO_275_VILA_LOURDES_SAO_PAULO", "CIDADE": "SAO_PAULO", "LATITUDE": -23.5436982, "LONGITUDE": -46.4138433 }, "geometry": { "type": "Point", "coordinates": [ -46.4138433, -23.5436982 ] } },
{ "type": "Feature", "properties": { "CNPJ": 33238842000135, "AGENTE": "ROBERTA_ARAUJO_MEDRADO", "ACAO": "REALIZAR_SEGUNDA_VISITA", "RAZAO_SOCIAL": "MONCALIERI_CAFE_E_COOKIES_LTDA_-_BLACKCAT", "ENDERECO": "RUA_HONORIO_MAIA_314_TATUAPE_SAO_PAULO", "CIDADE": "SAO_PAULO", "LATITUDE": -23.5349389, "LONGITUDE": -46.5592424 }, "geometry": { "type": "Point", "coordinates": [ -46.5592424, -23.5349389 ] } },
{ "type": "Feature", "properties": { "CNPJ": 55209933000185, "AGENTE": "ROBERTA_ARAUJO_MEDRADO", "ACAO": "REALIZAR_SEGUNDA_VISITA", "RAZAO_SOCIAL": "55.209.933_FRANCISCO_WILDON_TELES_BRAGA_FILHO_-_AREA_TECNICA_ASSISTENCIA_TECNICA", "ENDERECO": "RUA_INACIO_MONTEIRO_1047_JARDIM_SAO_PAULO_SAO_PAULO", "CIDADE": "SAO_PAULO", "LATITUDE": -23.5695916, "LONGITUDE": -46.4002294 }, "geometry": { "type": "Point", "coordinates": [ -46.4002294, -23.5695916 ] } },
{ "type": "Feature", "properties": { "CNPJ": 40697024000166, "AGENTE": "ROBERTA_ARAUJO_MEDRADO", "ACAO": "REALIZAR_SEGUNDA_VISITA", "RAZAO_SOCIAL": "VARLEI_FERREIRA_DE_SOUZA_26550362806_-_BLESSED", "ENDERECO": "RUA_ITINGUCU_1659_VILA_RE_SAO_PAULO", "CIDADE": "SAO_PAULO", "LATITUDE": -23.528081, "LONGITUDE": -46.4998127 }, "geometry": { "type": "Point", "coordinates": [ -46.4998127, -23.528081 ] } },
{ "type": "Feature", "properties": { "CNPJ": 23475802000153, "AGENTE": "ROBERTA_ARAUJO_MEDRADO", "ACAO": "REALIZAR_SEGUNDA_VISITA", "RAZAO_SOCIAL": "DELIROFA_FAROFA_PREMIUM_-_COMERCIO_VAREJISTA_LTDA_-_DELI_FARORA", "ENDERECO": "RUA_ITINGUCU_1997_VILA_RE_SAO_PAULO", "CIDADE": "SAO_PAULO", "LATITUDE": -23.5296559, "LONGITUDE": -46.4968965 }, "geometry": { "type": "Point", "coordinates": [ -46.4968965, -23.5296559 ] } },
{ "type": "Feature", "properties": { "CNPJ": 52395891000126, "AGENTE": "ROBERTA_ARAUJO_MEDRADO", "ACAO": "REALIZAR_SEGUNDA_VISITA", "RAZAO_SOCIAL": "TJM_REFRIGERACAO_E_CLIMATIZACAO_LTDA_-_TJM_PECAS", "ENDERECO": "RUA_ITINGUCU_2387_VILA_RE_SAO_PAULO", "CIDADE": "SAO_PAULO", "LATITUDE": -23.532382, "LONGITUDE": -46.4946734 }, "geometry": { "type": "Point", "coordinates": [ -46.4946734, -23.532382 ] } },
{ "type": "Feature", "properties": { "CNPJ": 49573621000153, "AGENTE": "ROBERTA_ARAUJO_MEDRADO", "ACAO": "REALIZAR_SEGUNDA_VISITA", "RAZAO_SOCIAL": "49.573.621_BRUNO_MAGALHAES_DOS_SANTOS_-_BARBEARIA_MAGALHAES", "ENDERECO": "RUA_JARAUARA_268_VILA_RE_SAO_PAULO", "CIDADE": "SAO_PAULO", "LATITUDE": -23.5299165, "LONGITUDE": -46.4979696 }, "geometry": { "type": "Point", "coordinates": [ -46.4979696, -23.5299165 ] } },
{ "type": "Feature", "properties": { "CNPJ": 52496702000101, "AGENTE": "ROBERTA_ARAUJO_MEDRADO", "ACAO": "REALIZAR_SEGUNDA_VISITA", "RAZAO_SOCIAL": "EMPORIO_TERRA_BRASILEIRA_LTDA_-_EMPORIO_TERRA_BRASILEIRA", "ENDERECO": "RUA_JARAUARA_389_VILA_RE_SAO_PAULO", "CIDADE": "SAO_PAULO", "LATITUDE": -23.5290947, "LONGITUDE": -46.4975018 }, "geometry": { "type": "Point", "coordinates": [ -46.4975018, -23.5290947 ] } },
{ "type": "Feature", "properties": { "CNPJ": 35726963000151, "AGENTE": "ROBERTA_ARAUJO_MEDRADO", "ACAO": "REALIZAR_SEGUNDA_VISITA", "RAZAO_SOCIAL": "SANDRO_SPANO_ROMERO_11899244808_-_SPANO_HER", "ENDERECO": "RUA_JARAUARA_397_VILA_RE_SAO_PAULO", "CIDADE": "SAO_PAULO", "LATITUDE": -23.5289987, "LONGITUDE": -46.4974319 }, "geometry": { "type": "Point", "coordinates": [ -46.4974319, -23.5289987 ] } },
{ "type": "Feature", "properties": { "CNPJ": 50133840000109, "AGENTE": "ROBERTA_ARAUJO_MEDRADO", "ACAO": "REALIZAR_SEGUNDA_VISITA", "RAZAO_SOCIAL": "50.133.840_ELCIO_VITORINO_VIEIRA_-_VITORINOS_HAIR", "ENDERECO": "RUA_JARAUARA_524_VILA_RE_SAO_PAULO", "CIDADE": "SAO_PAULO", "LATITUDE": -23.5279284, "LONGITUDE": -46.496615 }, "geometry": { "type": "Point", "coordinates": [ -46.496615, -23.5279284 ] } },
{ "type": "Feature", "properties": { "CNPJ": 50134755000157, "AGENTE": "ROBERTA_ARAUJO_MEDRADO", "ACAO": "REALIZAR_SEGUNDA_VISITA", "RAZAO_SOCIAL": "50.134.755_AZENATH_RODRIGUES_DE_ALMEIDA_-_Z_DOCES", "ENDERECO": "RUA_JARAUARA_524_VILA_RE_SAO_PAULO", "CIDADE": "SAO_PAULO", "LATITUDE": -23.5280056, "LONGITUDE": -46.4967033 }, "geometry": { "type": "Point", "coordinates": [ -46.4967033, -23.5280056 ] } },
{ "type": "Feature", "properties": { "CNPJ": 45594674000108, "AGENTE": "ROBERTA_ARAUJO_MEDRADO", "ACAO": "REALIZAR_SEGUNDA_VISITA", "RAZAO_SOCIAL": "E._S._SILVA_BAR_-_RESTAURANTE_DO_BAHIA", "ENDERECO": "RUA_JERONIMO_DIAS_RIBEIRO_107_JARDIM_SAO_PAULO_SAO_PAULO", "CIDADE": "SAO_PAULO", "LATITUDE": -23.5609163, "LONGITUDE": -46.399192 }, "geometry": { "type": "Point", "coordinates": [ -46.399192, -23.5609163 ] } },
{ "type": "Feature", "properties": { "CNPJ": 52900260000117, "AGENTE": "ROBERTA_ARAUJO_MEDRADO", "ACAO": "REALIZAR_SEGUNDA_VISITA", "RAZAO_SOCIAL": "KAIROS_ELETRO_E_MAGAZINE_LTDA_-_CAIROS_ELETRO_MAGAZINE_LTDQ", "ENDERECO": "RUA_JERONIMO_DIAS_RIBEIRO_28_JARDIM_SAO_PAULO_SAO_PAULO", "CIDADE": "SAO_PAULO", "LATITUDE": -23.5584472, "LONGITUDE": -46.399443 }, "geometry": { "type": "Point", "coordinates": [ -46.399443, -23.5584472 ] } },
{ "type": "Feature", "properties": { "CNPJ": 19217291000100, "AGENTE": "ROBERTA_ARAUJO_MEDRADO", "ACAO": "REALIZAR_SEGUNDA_VISITA", "RAZAO_SOCIAL": "PLATINUM_IMOBILIARIA_LTDA_-_IMOBILIARIA_PLATUNUM", "ENDERECO": "RUA_JOSE_HIGINO_NEVES_1103_JARDIM_SAO_PAULO_SAO_PAULO", "CIDADE": "SAO_PAULO", "LATITUDE": -23.5658809, "LONGITUDE": -46.4027953 }, "geometry": { "type": "Point", "coordinates": [ -46.4027953, -23.5658809 ] } },
{ "type": "Feature", "properties": { "CNPJ": 25370336000177, "AGENTE": "ROBERTA_ARAUJO_MEDRADO", "ACAO": "REALIZAR_SEGUNDA_VISITA", "RAZAO_SOCIAL": "LAHE_BELEM_COMERCIO_DE_CALCADOS_E_ACESSORIOS_LTDA_-_LAHE_BELEM", "ENDERECO": "RUA_JULIO_DE_CASTILHOS_1103_BELENZINHO_SAO_PAULO", "CIDADE": "SAO_PAULO", "LATITUDE": -23.5400446, "LONGITUDE": -46.5905238 }, "geometry": { "type": "Point", "coordinates": [ -46.5905238, -23.5400446 ] } },
{ "type": "Feature", "properties": { "CNPJ": 45953063000109, "AGENTE": "ROBERTA_ARAUJO_MEDRADO", "ACAO": "REALIZAR_SEGUNDA_VISITA", "RAZAO_SOCIAL": "45.953.063_PATRICIA_MELQUIADES_DE_OLIVEIRA_-_LUX_BEAUTY", "ENDERECO": "RUA_JULIO_DE_CASTILHOS_1217_BELENZINHO_SAO_PAULO", "CIDADE": "SAO_PAULO", "LATITUDE": -23.5397652, "LONGITUDE": -46.5893757 }, "geometry": { "type": "Point", "coordinates": [ -46.5893757, -23.5397652 ] } },
{ "type": "Feature", "properties": { "CNPJ": 12401730000183, "AGENTE": "ROBERTA_ARAUJO_MEDRADO", "ACAO": "REALIZAR_SEGUNDA_VISITA", "RAZAO_SOCIAL": "ANA_LUCIA_DA_SILVA_SOUZA_-_BICHO_GATO", "ENDERECO": "RUA_JULIO_DE_CASTILHOS_816_BELENZINHO_SAO_PAULO", "CIDADE": "SAO_PAULO", "LATITUDE": -23.5411211, "LONGITUDE": -46.5930837 }, "geometry": { "type": "Point", "coordinates": [ -46.5930837, -23.5411211 ] } },
{ "type": "Feature", "properties": { "CNPJ": 52594355000150, "AGENTE": "ROBERTA_ARAUJO_MEDRADO", "ACAO": "REALIZAR_SEGUNDA_VISITA", "RAZAO_SOCIAL": "FOTO_OTICA_ALVIM_LTDA_-_ALVIM_FOTO_OTICA", "ENDERECO": "RUA_MACIEL_MONTEIRO_226_VILA_SANTA_TERESA_SAO_PAULO", "CIDADE": "SAO_PAULO", "LATITUDE": -23.5377336, "LONGITUDE": -46.4904987 }, "geometry": { "type": "Point", "coordinates": [ -46.4904987, -23.5377336 ] } },
{ "type": "Feature", "properties": { "CNPJ": 35502647000104, "AGENTE": "ROBERTA_ARAUJO_MEDRADO", "ACAO": "REALIZAR_SEGUNDA_VISITA", "RAZAO_SOCIAL": "PET_SHOP_AZZUMI_LTDA_-_AZUUMI_COMERCIO", "ENDERECO": "RUA_MACIEL_MONTEIRO_294_VILA_NHOCUNE_SAO_PAULO", "CIDADE": "SAO_PAULO", "LATITUDE": -23.5384474, "LONGITUDE": -46.4903818 }, "geometry": { "type": "Point", "coordinates": [ -46.4903818, -23.5384474 ] } },
{ "type": "Feature", "properties": { "CNPJ": 37260087000146, "AGENTE": "ROBERTA_ARAUJO_MEDRADO", "ACAO": "REALIZAR_SEGUNDA_VISITA", "RAZAO_SOCIAL": "37.260.087_ADRIANO_JOAO_DA_SILVA_-_SELENITA", "ENDERECO": "RUA_MACIEL_MONTEIRO_551_VILA_NHOCUNE_SAO_PAULO", "CIDADE": "SAO_PAULO", "LATITUDE": -23.5406337, "LONGITUDE": -46.4911336 }, "geometry": { "type": "Point", "coordinates": [ -46.4911336, -23.5406337 ] } },
{ "type": "Feature", "properties": { "CNPJ": 55025754000198, "AGENTE": "ROBERTA_ARAUJO_MEDRADO", "ACAO": "REALIZAR_SEGUNDA_VISITA", "RAZAO_SOCIAL": "55.025.754_SIMONE_APARECIDA_DA_SILVA_-_PEROLAS_EM_FESTA", "ENDERECO": "RUA_MACIEL_MONTEIRO_551_VILA_NHOCUNE_SAO_PAULO", "CIDADE": "SAO_PAULO", "LATITUDE": -23.540671, "LONGITUDE": -46.4910818 }, "geometry": { "type": "Point", "coordinates": [ -46.4910818, -23.540671 ] } },
{ "type": "Feature", "properties": { "CNPJ": 59824151000107, "AGENTE": "ROBERTA_ARAUJO_MEDRADO", "ACAO": "REALIZAR_SEGUNDA_VISITA", "RAZAO_SOCIAL": "JOAO_ANTONIO_DOS_SANTOS_COMERCIO_MOVEIS_LTDA_-_COMERCIAL_ASAJOS", "ENDERECO": "RUA_MACIEL_MONTEIRO_672_VILA_SANTA_TERESA_SAO_PAULO", "CIDADE": "SAO_PAULO", "LATITUDE": -23.5415255, "LONGITUDE": -46.4919824 }, "geometry": { "type": "Point", "coordinates": [ -46.4919824, -23.5415255 ] } },
{ "type": "Feature", "properties": { "CNPJ": 7311318000132, "AGENTE": "ROBERTA_ARAUJO_MEDRADO", "ACAO": "REALIZAR_SEGUNDA_VISITA", "RAZAO_SOCIAL": "OFICINA_DOS_PIJAMAS_LTDA_-_OFICIAL_DOS_PIJAMAS", "ENDERECO": "RUA_PADRE_ANTONIO_DE_SA_117_TATUAPE_SAO_PAULO", "CIDADE": "SAO_PAULO", "LATITUDE": -23.5368505, "LONGITUDE": -46.5758645 }, "geometry": { "type": "Point", "coordinates": [ -46.5758645, -23.5368505 ] } },
{ "type": "Feature", "properties": { "CNPJ": 42458096000186, "AGENTE": "ROBERTA_ARAUJO_MEDRADO", "ACAO": "REALIZAR_SEGUNDA_VISITA", "RAZAO_SOCIAL": "MR_CLINICA_PENHA_LTDA_-_MR_PENHA", "ENDERECO": "RUA_PADRE_BENEDITO_DE_CAMARGO_813_PENHA_DE_FRANCA_SAO_PAULO", "CIDADE": "SAO_PAULO", "LATITUDE": -23.5209357, "LONGITUDE": -46.548034 }, "geometry": { "type": "Point", "coordinates": [ -46.548034, -23.5209357 ] } },
{ "type": "Feature", "properties": { "CNPJ": 57172088000146, "AGENTE": "ROBERTA_ARAUJO_MEDRADO", "ACAO": "REALIZAR_SEGUNDA_VISITA", "RAZAO_SOCIAL": "OI_BONITA_ARTIGOS_DE_PERFUMARIA_E_COSMETICOS_LTDA_-_OI_BONITA_ARTIGOS_DE_PERFUMARIA_E_COSMETICOS_LTDA", "ENDERECO": "RUA_PADRE_VIEGAS_DE_MENEZES_217_ITAQUERA_SAO_PAULO", "CIDADE": "SAO_PAULO", "LATITUDE": -23.5372907, "LONGITUDE": -46.4573116 }, "geometry": { "type": "Point", "coordinates": [ -46.4573116, -23.5372907 ] } },
{ "type": "Feature", "properties": { "CNPJ": 26391406000136, "AGENTE": "ROBERTA_ARAUJO_MEDRADO", "ACAO": "REALIZAR_SEGUNDA_VISITA", "RAZAO_SOCIAL": "FARMACIA_FARMANDRE_LTDA_-_DROGARIA_FARMARCIA", "ENDERECO": "RUA_PIMENTA_BUENO_290_BELENZINHO_SAO_PAULO", "CIDADE": "SAO_PAULO", "LATITUDE": -23.5390893, "LONGITUDE": -46.5876639 }, "geometry": { "type": "Point", "coordinates": [ -46.5876639, -23.5390893 ] } },
{ "type": "Feature", "properties": { "CNPJ": 39926250000192, "AGENTE": "ROBERTA_ARAUJO_MEDRADO", "ACAO": "REALIZAR_SEGUNDA_VISITA", "RAZAO_SOCIAL": "EMBRATEC_-_COMERCIO_&_SERVICOS_LTDA._-_EMBRATEC", "ENDERECO": "RUA_POTIGUARES_265_TATUAPE_SAO_PAULO", "CIDADE": "SAO_PAULO", "LATITUDE": -23.5372012, "LONGITUDE": -46.577729 }, "geometry": { "type": "Point", "coordinates": [ -46.577729, -23.5372012 ] } },
{ "type": "Feature", "properties": { "CNPJ": 53558900000115, "AGENTE": "ROBERTA_ARAUJO_MEDRADO", "ACAO": "REALIZAR_SEGUNDA_VISITA", "RAZAO_SOCIAL": "PELOS_CAMINHOS_PET_COMERCIO_E_SERVICOS_LTDA_-_PELOS_CAMINHOS_PET", "ENDERECO": "RUA_SANTA_VIRGINIA_190_TATUAPE_SAO_PAULO", "CIDADE": "SAO_PAULO", "LATITUDE": -23.5335399, "LONGITUDE": -46.5697793 }, "geometry": { "type": "Point", "coordinates": [ -46.5697793, -23.5335399 ] } },
{ "type": "Feature", "properties": { "CNPJ": 56101502000163, "AGENTE": "ROBERTA_ARAUJO_MEDRADO", "ACAO": "REALIZAR_SEGUNDA_VISITA", "RAZAO_SOCIAL": "MANIA_DE_LIMPEZA_DISTRIBUIDORA_LTDA_-_MANIA_DE_LIMPEZA", "ENDERECO": "RUA_SANTA_VIRGINIA_300_TATUAPE_SAO_PAULO", "CIDADE": "SAO_PAULO", "LATITUDE": -23.5324595, "LONGITUDE": -46.5701309 }, "geometry": { "type": "Point", "coordinates": [ -46.5701309, -23.5324595 ] } },
{ "type": "Feature", "properties": { "CNPJ": 28833643000135, "AGENTE": "ROBERTA_ARAUJO_MEDRADO", "ACAO": "REALIZAR_SEGUNDA_VISITA", "RAZAO_SOCIAL": "P.A.GRER_ESTETICA_E_BELEZA_-_ATELIE_SANTA_UNHA", "ENDERECO": "RUA_SANTA_VIRGINIA_89_TATUAPE_SAO_PAULO", "CIDADE": "SAO_PAULO", "LATITUDE": -23.5343526, "LONGITUDE": -46.5698176 }, "geometry": { "type": "Point", "coordinates": [ -46.5698176, -23.5343526 ] } },
{ "type": "Feature", "properties": { "CNPJ": 47560348000105, "AGENTE": "ROBERTA_ARAUJO_MEDRADO", "ACAO": "REALIZAR_SEGUNDA_VISITA", "RAZAO_SOCIAL": "LARISSA_SANTOS_COSTA_-_CJA_VARIEDADES", "ENDERECO": "RUA_SAO_JORGE_68_PARQUE_SAO_JORGE_SAO_PAULO", "CIDADE": "SAO_PAULO", "LATITUDE": -23.532637, "LONGITUDE": -46.564607 }, "geometry": { "type": "Point", "coordinates": [ -46.564607, -23.532637 ] } },
{ "type": "Feature", "properties": { "CNPJ": 43604540000197, "AGENTE": "ROBERTA_ARAUJO_MEDRADO", "ACAO": "REALIZAR_SEGUNDA_VISITA", "RAZAO_SOCIAL": "MABELE_CRISTINA_SILVA_RODRIGUES_28043745803_-_STAR_PET", "ENDERECO": "RUA_SARGENTO_OSVALDO_130_VILA_ZILDA_SAO_PAULO", "CIDADE": "SAO_PAULO", "LATITUDE": -23.5351442, "LONGITUDE": -46.5657927 }, "geometry": { "type": "Point", "coordinates": [ -46.5657927, -23.5351442 ] } },
{ "type": "Feature", "properties": { "CNPJ": 51577168000103, "AGENTE": "ROBERTA_ARAUJO_MEDRADO", "ACAO": "REALIZAR_SEGUNDA_VISITA", "RAZAO_SOCIAL": "M2M_DISTRIBUIDORA_DE_DESCARTAVEIS_E_UTENSILIOS_LTDA_-_M2M_DESCARTAVEIS_E_UTENSILIOS__LTDA", "ENDERECO": "RUA_SIQUEIRA_BUENO_889_BELENZINHO_SAO_PAULO", "CIDADE": "SAO_PAULO", "LATITUDE": -23.5465273, "LONGITUDE": -46.5916059 }, "geometry": { "type": "Point", "coordinates": [ -46.5916059, -23.5465273 ] } },
{ "type": "Feature", "properties": { "CNPJ": 58688955000163, "AGENTE": "ROBERTA_ARAUJO_MEDRADO", "ACAO": "REALIZAR_SEGUNDA_VISITA", "RAZAO_SOCIAL": "58.688.955_AGNES_ROBERTA_MOREIRA_DA_SILVA_-_LOJA_CASA_DO_SEU_ZE", "ENDERECO": "RUA_TUIUTI_1192_TATUAPE_SAO_PAULO", "CIDADE": "SAO_PAULO", "LATITUDE": -23.5358489, "LONGITUDE": -46.5755289 }, "geometry": { "type": "Point", "coordinates": [ -46.5755289, -23.5358489 ] } },
{ "type": "Feature", "properties": { "CNPJ": 41941231000187, "AGENTE": "ROBERTA_ARAUJO_MEDRADO", "ACAO": "REALIZAR_SEGUNDA_VISITA", "RAZAO_SOCIAL": "CAIO_DIAS_37746584802_-_CABELO_E_CIA", "ENDERECO": "RUA_VILELA_31_TATUAPE_SAO_PAULO", "CIDADE": "SAO_PAULO", "LATITUDE": -23.534897, "LONGITUDE": -46.5682389 }, "geometry": { "type": "Point", "coordinates": [ -46.5682389, -23.534897 ] } },
{ "type": "Feature", "properties": { "CNPJ": 33224420000100, "AGENTE": "ROBERTA_ARAUJO_MEDRADO", "ACAO": "REALIZAR_SEGUNDA_VISITA", "RAZAO_SOCIAL": "33.224.420_GABRIELA_BRITO_REIS_-_GB_ATELIE", "ENDERECO": "RUA_WADIH_HATTI_216_VILA_RE_SAO_PAULO", "CIDADE": "SAO_PAULO", "LATITUDE": -23.5297605, "LONGITUDE": -46.4955301 }, "geometry": { "type": "Point", "coordinates": [ -46.4955301, -23.5297605 ] } },
{ "type": "Feature", "properties": { "CNPJ": 1493432000144, "AGENTE": "ROBERTA_ARAUJO_MEDRADO", "ACAO": "REALIZAR_SEGUNDA_VISITA", "RAZAO_SOCIAL": "WIPPER_CONFECCOES_LTDA_-_WIPPER_MODA", "ENDERECO": "RUA_WADIH_HATTI_224_VILA_RE_SAO_PAULO", "CIDADE": "SAO_PAULO", "LATITUDE": -23.529726, "LONGITUDE": -46.4954143 }, "geometry": { "type": "Point", "coordinates": [ -46.4954143, -23.529726 ] } },
{ "type": "Feature", "properties": { "CNPJ": 11430593000142, "AGENTE": "ROBERTA_ARAUJO_MEDRADO", "ACAO": "REALIZAR_SEGUNDA_VISITA", "RAZAO_SOCIAL": "MARGARETH_DA_GRACA_MORETTI_-_GRIFE_MORETTI", "ENDERECO": "RUA_WADIH_HATTI_243_VILA_RE_SAO_PAULO", "CIDADE": "SAO_PAULO", "LATITUDE": -23.529533, "LONGITUDE": -46.4953625 }, "geometry": { "type": "Point", "coordinates": [ -46.4953625, -23.529533 ] } },
{ "type": "Feature", "properties": { "CNPJ": 44426277000156, "AGENTE": "ROBERTA_ARAUJO_MEDRADO", "ACAO": "REALIZAR_SEGUNDA_VISITA", "RAZAO_SOCIAL": "SANCHEZ_COMERCIO_DE_TECIDOS_E_ENXOVAIS_LTDA_-_CORTINAS_BRESSER", "ENDERECO": "VIADUTO_VIADUTO_BRESSER_1084_BRAS_SAO_PAULO", "CIDADE": "SAO_PAULO", "LATITUDE": -23.5396297, "LONGITUDE": -46.6080386 }, "geometry": { "type": "Point", "coordinates": [ -46.6080386, -23.5396297 ] } },
{ "type": "Feature", "properties": { "CNPJ": 2899505100011, "AGENTE": "ROBERTA_ARAUJO_MEDRADO", "ACAO": "REALIZAR_PRIMEIRA_VISITA_POTENCIAL", "RAZAO_SOCIAL": "LUIZ_CLAUDIO_DOS_SANTOS", "ENDERECO": "AVENIDA_DOUTOR_ASSIS_RIBEIRO_72_JARDIM_PIRATININGA_SAO_PAULO_BRASIL", "CIDADE": "SAO_PAULO", "LATITUDE": -23.5095482, "LONGITUDE": -46.549744 }, "geometry": { "type": "Point", "coordinates": [ -46.549744, -23.5095482 ] } },
{ "type": "Feature", "properties": { "CNPJ": 7590671000107, "AGENTE": "ROBERTA_ARAUJO_MEDRADO", "ACAO": "REALIZAR_PRIMEIRA_VISITA_POTENCIAL", "RAZAO_SOCIAL": "BELP_COLOR_INDUSTRIA_E_COMERCIO_DE_ETIQUETAS_E_ROTULOS_LTDA", "ENDERECO": "RUA_PARIANAS_32_JARDIM_JAU_(ZONA_LESTE)_SAO_PAULO_BRASIL", "CIDADE": "SAO_PAULO", "LATITUDE": -23.5097351, "LONGITUDE": -46.5451421 }, "geometry": { "type": "Point", "coordinates": [ -46.5451421, -23.5097351 ] } },
{ "type": "Feature", "properties": { "CNPJ": 44213004000123, "AGENTE": "ROBERTA_ARAUJO_MEDRADO", "ACAO": "REALIZAR_PRIMEIRA_VISITA_POTENCIAL", "RAZAO_SOCIAL": "ALESSANDRO_TEIXEIRA_DE_OLIVEIRA_LTDA.", "ENDERECO": "RUA_ZUMBI_182_VILA_MESQUITA_SAO_PAULO_BRASIL", "CIDADE": "SAO_PAULO", "LATITUDE": -23.5102462, "LONGITUDE": -46.5431291 }, "geometry": { "type": "Point", "coordinates": [ -46.5431291, -23.5102462 ] } },
{ "type": "Feature", "properties": { "CNPJ": 13581423000194, "AGENTE": "ROBERTA_ARAUJO_MEDRADO", "ACAO": "REALIZAR_PRIMEIRA_VISITA_POTENCIAL", "RAZAO_SOCIAL": "ESCOLA_DE_ARTES_ALINE_RODEGUER_LTDA", "ENDERECO": "AVENIDA_CANGAIBA_1451_CANGAIBA_SAO_PAULO_BRASIL", "CIDADE": "SAO_PAULO", "LATITUDE": -23.510305, "LONGITUDE": -46.5401702 }, "geometry": { "type": "Point", "coordinates": [ -46.5401702, -23.510305 ] } },
{ "type": "Feature", "properties": { "CNPJ": 35921732000107, "AGENTE": "ROBERTA_ARAUJO_MEDRADO", "ACAO": "REALIZAR_PRIMEIRA_VISITA_POTENCIAL", "RAZAO_SOCIAL": "35.921.732_CLAUDIO_DE_ARAUJO_PEREIRA", "ENDERECO": "RUA_BRAZOPOLIS_24_JARDIM_JAU_(ZONA_LESTE)_SAO_PAULO_BRASIL", "CIDADE": "SAO_PAULO", "LATITUDE": -23.5121763, "LONGITUDE": -46.5406632 }, "geometry": { "type": "Point", "coordinates": [ -46.5406632, -23.5121763 ] } },
{ "type": "Feature", "properties": { "CNPJ": 57451290000107, "AGENTE": "ROBERTA_ARAUJO_MEDRADO", "ACAO": "REALIZAR_PRIMEIRA_VISITA_POTENCIAL", "RAZAO_SOCIAL": "INTEGRACAO_ETANOL_E_BOLSA_DE_NEGOCIOS_LTDA", "ENDERECO": "AVENIDA_GOVERNADOR_CARVALHO_PINTO_6_JARDIM_JAU_(ZONA_LESTE)_SAO_PAULO_BRASIL", "CIDADE": "SAO_PAULO", "LATITUDE": -23.5136442, "LONGITUDE": -46.5453679 }, "geometry": { "type": "Point", "coordinates": [ -46.5453679, -23.5136442 ] } },
{ "type": "Feature", "properties": { "CNPJ": 5094830100011, "AGENTE": "ROBERTA_ARAUJO_MEDRADO", "ACAO": "REALIZAR_PRIMEIRA_VISITA_POTENCIAL", "RAZAO_SOCIAL": "LISNEIDY_SANTANA_TAMAYO", "ENDERECO": "RUA_DOUTOR_JOAO_AUGUSTO_DE_ASSUNCAO_387_JARDIM_JAU_(ZONA_LESTE)_SAO_PAULO_BRASIL", "CIDADE": "SAO_PAULO", "LATITUDE": -23.5154966, "LONGITUDE": -46.5481541 }, "geometry": { "type": "Point", "coordinates": [ -46.5481541, -23.5154966 ] } },
{ "type": "Feature", "properties": { "CNPJ": 53840612000159, "AGENTE": "ROBERTA_ARAUJO_MEDRADO", "ACAO": "REALIZAR_PRIMEIRA_VISITA_POTENCIAL", "RAZAO_SOCIAL": "53.840.612_CAINAN_DE_OLIVEIRA_SANTOS", "ENDERECO": "RUA_KAMPALA_200_JARDIM_AMERICA_DA_PENHA_SAO_PAULO_BRASIL", "CIDADE": "SAO_PAULO", "LATITUDE": -23.5166578, "LONGITUDE": -46.5523162 }, "geometry": { "type": "Point", "coordinates": [ -46.5523162, -23.5166578 ] } },
{ "type": "Feature", "properties": { "CNPJ": 30377280000112, "AGENTE": "ROBERTA_ARAUJO_MEDRADO", "ACAO": "REALIZAR_PRIMEIRA_VISITA_POTENCIAL", "RAZAO_SOCIAL": "IVONETE_DA_SILVA_PESSOA", "ENDERECO": "RUA_PEDRO_ALEGRETTI_527_PENHA_DE_FRANCA_SAO_PAULO_BRASIL", "CIDADE": "SAO_PAULO", "LATITUDE": -23.5174133, "LONGITUDE": -46.5405624 }, "geometry": { "type": "Point", "coordinates": [ -46.5405624, -23.5174133 ] } },
{ "type": "Feature", "properties": { "CNPJ": 42365325000118, "AGENTE": "ROBERTA_ARAUJO_MEDRADO", "ACAO": "REALIZAR_PRIMEIRA_VISITA_POTENCIAL", "RAZAO_SOCIAL": "W.R_EMPREENDIMENTOS_LTDA", "ENDERECO": "RUA_RONDONOPOLIS_289_JARDIM_JAU_(ZONA_LESTE)_SAO_PAULO_BRASIL", "CIDADE": "SAO_PAULO", "LATITUDE": -23.5174333, "LONGITUDE": -46.5464654 }, "geometry": { "type": "Point", "coordinates": [ -46.5464654, -23.5174333 ] } },
{ "type": "Feature", "properties": { "CNPJ": 21969831000146, "AGENTE": "ROBERTA_ARAUJO_MEDRADO", "ACAO": "REALIZAR_PRIMEIRA_VISITA_POTENCIAL", "RAZAO_SOCIAL": "21.969.831_DAVID_BRUNO_DE_ARRUDA_LOPES", "ENDERECO": "RUA_CUMATI_43_VILA_SAO_GERALDO_SAO_PAULO_BRASIL", "CIDADE": "SAO_PAULO", "LATITUDE": -23.5180225, "LONGITUDE": -46.5453674 }, "geometry": { "type": "Point", "coordinates": [ -46.5453674, -23.5180225 ] } },
{ "type": "Feature", "properties": { "CNPJ": 4791205900011, "AGENTE": "ROBERTA_ARAUJO_MEDRADO", "ACAO": "REALIZAR_PRIMEIRA_VISITA_POTENCIAL", "RAZAO_SOCIAL": "CARLOS_DE_ASSIS_ARAUJO", "ENDERECO": "RUA_KAMPALA_2_JARDIM_AMERICA_DA_PENHA_SAO_PAULO_BRASIL", "CIDADE": "SOROCABA", "LATITUDE": -23.5191132, "LONGITUDE": -46.5524693 }, "geometry": { "type": "Point", "coordinates": [ -46.5524693, -23.5191132 ] } },
{ "type": "Feature", "properties": { "CNPJ": 3634403600013, "AGENTE": "ROBERTA_ARAUJO_MEDRADO", "ACAO": "REALIZAR_PRIMEIRA_VISITA_POTENCIAL", "RAZAO_SOCIAL": "EDNALDO_APARECIDO_RIBEIRO_SCARPIM", "ENDERECO": "RUA_KAMPALA_2_JARDIM_AMERICA_DA_PENHA_SAO_PAULO_BRASIL", "CIDADE": "SAO_PAULO", "LATITUDE": -23.5191132, "LONGITUDE": -46.5524693 }, "geometry": { "type": "Point", "coordinates": [ -46.5524693, -23.5191132 ] } },
{ "type": "Feature", "properties": { "CNPJ": 54092013000167, "AGENTE": "ROBERTA_ARAUJO_MEDRADO", "ACAO": "REALIZAR_PRIMEIRA_VISITA_POTENCIAL", "RAZAO_SOCIAL": "54.092.013_PETERSON_NOVAIS_DOS_SANTOS", "ENDERECO": "RUA_HENRIQUE_CASELA_365_JARDIM_AMERICA_DA_PENHA_SAO_PAULO_BRASIL", "CIDADE": "SAO_PAULO", "LATITUDE": -23.5191365, "LONGITUDE": -46.5518779 }, "geometry": { "type": "Point", "coordinates": [ -46.5518779, -23.5191365 ] } },
{ "type": "Feature", "properties": { "CNPJ": 13958911000178, "AGENTE": "ROBERTA_ARAUJO_MEDRADO", "ACAO": "REALIZAR_PRIMEIRA_VISITA_POTENCIAL", "RAZAO_SOCIAL": "13.958.911_RICARDO_MARINGOLI_BARBOSA_LEMES", "ENDERECO": "RUA_TUAPE_209_VILA_SAO_GERALDO_SAO_PAULO_BRASIL", "CIDADE": "SAO_PAULO", "LATITUDE": -23.5192444, "LONGITUDE": -46.54588529 }, "geometry": { "type": "Point", "coordinates": [ -46.54588529, -23.5192444 ] } },
{ "type": "Feature", "properties": { "CNPJ": 11908707000117, "AGENTE": "ROBERTA_ARAUJO_MEDRADO", "ACAO": "REALIZAR_PRIMEIRA_VISITA_POTENCIAL", "RAZAO_SOCIAL": "MFC_AVALIACAO_E_GESTAO_DE_ATIVOS_LTDA", "ENDERECO": "RUA_RODOVALHO_JUNIOR_775_PENHA_DE_FRANCA_SAO_PAULO_BRASIL", "CIDADE": "SAO_PAULO", "LATITUDE": -23.5195454, "LONGITUDE": -46.548148 }, "geometry": { "type": "Point", "coordinates": [ -46.548148, -23.5195454 ] } },
{ "type": "Feature", "properties": { "CNPJ": 2324236100014, "AGENTE": "ROBERTA_ARAUJO_MEDRADO", "ACAO": "REALIZAR_PRIMEIRA_VISITA_POTENCIAL", "RAZAO_SOCIAL": "FATOR_TEC_COMERCIO_E_OUTSOURCING_LTDA", "ENDERECO": "RUA_HENRIQUE_CASELA_50_JARDIM_AMERICA_DA_PENHA_SAO_PAULO_BRASIL", "CIDADE": "SAO_PAULO", "LATITUDE": -23.5196016, "LONGITUDE": -46.55305269 }, "geometry": { "type": "Point", "coordinates": [ -46.55305269, -23.5196016 ] } },
{ "type": "Feature", "properties": { "CNPJ": 42975899000108, "AGENTE": "ROBERTA_ARAUJO_MEDRADO", "ACAO": "REALIZAR_PRIMEIRA_VISITA_POTENCIAL", "RAZAO_SOCIAL": "CONCEPTXHOUSE_COMERCIO_DE_MOVEIS_LTDA", "ENDERECO": "RUA_HENRIQUE_CASELA_50_JARDIM_AMERICA_DA_PENHA_SAO_PAULO_BRASIL", "CIDADE": "SAO_PAULO", "LATITUDE": -23.5196016, "LONGITUDE": -46.5530527 }, "geometry": { "type": "Point", "coordinates": [ -46.5530527, -23.5196016 ] } },
{ "type": "Feature", "properties": { "CNPJ": 57448678000159, "AGENTE": "ROBERTA_ARAUJO_MEDRADO", "ACAO": "REALIZAR_PRIMEIRA_VISITA_POTENCIAL", "RAZAO_SOCIAL": "RENATA_LIDIA_DO_NASCIMENTO_SILVA", "ENDERECO": "RUA_HENRIQUE_CASELA_50_JARDIM_AMERICA_DA_PENHA_SAO_PAULO_BRASIL", "CIDADE": "SAO_PAULO", "LATITUDE": -23.5196016, "LONGITUDE": -46.5530527 }, "geometry": { "type": "Point", "coordinates": [ -46.5530527, -23.5196016 ] } },
{ "type": "Feature", "properties": { "CNPJ": 50059467000185, "AGENTE": "ROBERTA_ARAUJO_MEDRADO", "ACAO": "REALIZAR_PRIMEIRA_VISITA_POTENCIAL", "RAZAO_SOCIAL": "SBX_CONSULTORIA_EMPRESARIAL_LTDA", "ENDERECO": "RUA_HENRIQUE_CASELA_60_JARDIM_AMERICA_DA_PENHA_SAO_PAULO_BRASIL", "CIDADE": "SAO_PAULO", "LATITUDE": -23.5196145, "LONGITUDE": -46.5522212 }, "geometry": { "type": "Point", "coordinates": [ -46.5522212, -23.5196145 ] } },
{ "type": "Feature", "properties": { "CNPJ": 23446079000184, "AGENTE": "ROBERTA_ARAUJO_MEDRADO", "ACAO": "REALIZAR_PRIMEIRA_VISITA_POTENCIAL", "RAZAO_SOCIAL": "CAMILA_VITORINO_LTDA", "ENDERECO": "RUA_MONSENHOR_EMILIO_TEIXEIRA_74_VILA_LAIS_SAO_PAULO_BRASIL", "CIDADE": "SAO_PAULO", "LATITUDE": -23.5196926, "LONGITUDE": -46.5402744 }, "geometry": { "type": "Point", "coordinates": [ -46.5402744, -23.5196926 ] } },
{ "type": "Feature", "properties": { "CNPJ": 44529262000113, "AGENTE": "ROBERTA_ARAUJO_MEDRADO", "ACAO": "REALIZAR_PRIMEIRA_VISITA_POTENCIAL", "RAZAO_SOCIAL": "A'GUIAR_SERVICOS_DE_TREINAMENTO_E_DESENVOLVIMENTO_HUMANO_LTDA", "ENDERECO": "RUA_HENRIQUE_CASELA_54_JARDIM_AMERICA_DA_PENHA_SAO_PAULO_BRASIL", "CIDADE": "SAO_PAULO", "LATITUDE": -23.5198321, "LONGITUDE": -46.5525329 }, "geometry": { "type": "Point", "coordinates": [ -46.5525329, -23.5198321 ] } },
{ "type": "Feature", "properties": { "CNPJ": 43514594000161, "AGENTE": "ROBERTA_ARAUJO_MEDRADO", "ACAO": "REALIZAR_PRIMEIRA_VISITA_POTENCIAL", "RAZAO_SOCIAL": "LETICIA_MONTAGNANA_CABRAL", "ENDERECO": "AVENIDA_CONDESSA_ELISABETH_DE_ROBIANO_2118_JARDIM_AMERICA_DA_PENHA_SAO_PAULO_BRASIL", "CIDADE": "SAO_PAULO", "LATITUDE": -23.5199929, "LONGITUDE": -46.5550348 }, "geometry": { "type": "Point", "coordinates": [ -46.5550348, -23.5199929 ] } },
{ "type": "Feature", "properties": { "CNPJ": 41641313000106, "AGENTE": "ROBERTA_ARAUJO_MEDRADO", "ACAO": "REALIZAR_PRIMEIRA_VISITA_POTENCIAL", "RAZAO_SOCIAL": "SILVANIA_RODRIGUES_DE_SOUZA", "ENDERECO": "RUA_PADRE_BENEDITO_DE_CAMARGO_-_LADO_PAR_917_PENHA_DE_FRANCA_SAO_PAULO_BRASIL", "CIDADE": "SAO_PAULO", "LATITUDE": -23.5201171, "LONGITUDE": -46.547321 }, "geometry": { "type": "Point", "coordinates": [ -46.547321, -23.5201171 ] } },
{ "type": "Feature", "properties": { "CNPJ": 5774571700018, "AGENTE": "ROBERTA_ARAUJO_MEDRADO", "ACAO": "REALIZAR_PRIMEIRA_VISITA_POTENCIAL", "RAZAO_SOCIAL": "SL_COMERCIO_VAREJISTA_LTDA", "ENDERECO": "AVENIDA_CDSSA_ELISABETH_DE_ROBIANO_2000_JARDIM_AMERICA_DA_PENHA_SAO_PAULO_BRASIL", "CIDADE": "SAO_PAULO", "LATITUDE": -23.5201297, "LONGITUDE": -46.5542264 }, "geometry": { "type": "Point", "coordinates": [ -46.5542264, -23.5201297 ] } },
{ "type": "Feature", "properties": { "CNPJ": 28869860000185, "AGENTE": "ROBERTA_ARAUJO_MEDRADO", "ACAO": "REALIZAR_PRIMEIRA_VISITA_POTENCIAL", "RAZAO_SOCIAL": "28.869.860_KATIA_D_ANGELA_ALVES_LIMA_AFFONSO", "ENDERECO": "AVENIDA_CONDESSA_ELISABETH_DE_ROBIANO_2000_JARDIM_AMERICA_DA_PENHA_SAO_PAULO_BRASIL", "CIDADE": "SAO_PAULO", "LATITUDE": -23.5201297, "LONGITUDE": -46.5542264 }, "geometry": { "type": "Point", "coordinates": [ -46.5542264, -23.5201297 ] } },
{ "type": "Feature", "properties": { "CNPJ": 338956040001, "AGENTE": "ROBERTA_ARAUJO_MEDRADO", "ACAO": "REALIZAR_PRIMEIRA_VISITA_POTENCIAL", "RAZAO_SOCIAL": "JADER_ALEXANDRE_GRIZOTTI_MOREIRA", "ENDERECO": "TRAVESSA_LOTUS_BRANCO_1_VILA_SAO_GERALDO_SAO_PAULO_BRASIL", "CIDADE": "SAO_PAULO", "LATITUDE": -23.5204458, "LONGITUDE": -46.5416804 }, "geometry": { "type": "Point", "coordinates": [ -46.5416804, -23.5204458 ] } },
{ "type": "Feature", "properties": { "CNPJ": 54949316000153, "AGENTE": "ROBERTA_ARAUJO_MEDRADO", "ACAO": "REALIZAR_PRIMEIRA_VISITA_POTENCIAL", "RAZAO_SOCIAL": "F_MAX_FOTOGRAFIAS_LTDA", "ENDERECO": "AVENIDA_CONDESSA_ELISABETH_DE_ROBIANO_1859_VILA_MOREIRA_SAO_PAULO_BRASIL", "CIDADE": "SAO_PAULO", "LATITUDE": -23.5217384, "LONGITUDE": -46.5555927 }, "geometry": { "type": "Point", "coordinates": [ -46.5555927, -23.5217384 ] } },
{ "type": "Feature", "properties": { "CNPJ": 6461618800018, "AGENTE": "ROBERTA_ARAUJO_MEDRADO", "ACAO": "REALIZAR_PRIMEIRA_VISITA_POTENCIAL", "RAZAO_SOCIAL": "DATALAN_INFORMATICA_E_PROCESSAMENTO_DE_DADOS_LTDA", "ENDERECO": "RUA_VALENTINA_PIVA_78_PENHA_DE_FRANCA_SAO_PAULO_BRASIL", "CIDADE": "SAO_PAULO", "LATITUDE": -23.5222776, "LONGITUDE": -46.5502485 }, "geometry": { "type": "Point", "coordinates": [ -46.5502485, -23.5222776 ] } },
{ "type": "Feature", "properties": { "CNPJ": 53561751000143, "AGENTE": "ROBERTA_ARAUJO_MEDRADO", "ACAO": "REALIZAR_PRIMEIRA_VISITA_POTENCIAL", "RAZAO_SOCIAL": "ODONTOLOGIA_CARDOSO_LTDA", "ENDERECO": "AVENIDA_PENHA_DE_FRANCA_488_PENHA_DE_FRANCA_SAO_PAULO_BRASIL", "CIDADE": "SAO_PAULO", "LATITUDE": -23.5225256, "LONGITUDE": -46.5471671 }, "geometry": { "type": "Point", "coordinates": [ -46.5471671, -23.5225256 ] } },
{ "type": "Feature", "properties": { "CNPJ": 50976814000134, "AGENTE": "ROBERTA_ARAUJO_MEDRADO", "ACAO": "REALIZAR_PRIMEIRA_VISITA_POTENCIAL", "RAZAO_SOCIAL": "W7N_INFORMATICA_LTDA", "ENDERECO": "RUA_PADRE_BENEDITO_DE_CAMARGO_-_LADO_PAR_356_PENHA_DE_FRANCA_SAO_PAULO_BRASIL", "CIDADE": "SAO_PAULO", "LATITUDE": -23.5228824, "LONGITUDE": -46.5498428 }, "geometry": { "type": "Point", "coordinates": [ -46.5498428, -23.5228824 ] } },
{ "type": "Feature", "properties": { "CNPJ": 47925241000105, "AGENTE": "ROBERTA_ARAUJO_MEDRADO", "ACAO": "REALIZAR_PRIMEIRA_VISITA_POTENCIAL", "RAZAO_SOCIAL": "FABIO_RIVADAVIA_DOS_SANTOS", "ENDERECO": "RUA_SAO_SERAPIAO_849_VILA_RE_SAO_PAULO_BRASIL", "CIDADE": "SAO_PAULO", "LATITUDE": -23.5236637, "LONGITUDE": -46.4966644 }, "geometry": { "type": "Point", "coordinates": [ -46.4966644, -23.5236637 ] } },
{ "type": "Feature", "properties": { "CNPJ": 47160904000148, "AGENTE": "ROBERTA_ARAUJO_MEDRADO", "ACAO": "REALIZAR_PRIMEIRA_VISITA_POTENCIAL", "RAZAO_SOCIAL": "TANIA_REGINA_PELLICER_PEREIRA", "ENDERECO": "RUA_ATUAI_235_VILA_ESPERANCA_SAO_PAULO_BRASIL", "CIDADE": "AMERICANA", "LATITUDE": -23.5239038, "LONGITUDE": -46.529448 }, "geometry": { "type": "Point", "coordinates": [ -46.529448, -23.5239038 ] } },
{ "type": "Feature", "properties": { "CNPJ": 57380554000189, "AGENTE": "ROBERTA_ARAUJO_MEDRADO", "ACAO": "REALIZAR_PRIMEIRA_VISITA_POTENCIAL", "RAZAO_SOCIAL": "57.380.554_SERGIO_ZANIBONI_DA_SILVA", "ENDERECO": "RUA_HELOISA_PENTEADO_100_VILA_ESPERANCA_SAO_PAULO_BRASIL", "CIDADE": "SAO_PAULO", "LATITUDE": -23.5240582, "LONGITUDE": -46.5243526 }, "geometry": { "type": "Point", "coordinates": [ -46.5243526, -23.5240582 ] } },
{ "type": "Feature", "properties": { "CNPJ": 43191697000138, "AGENTE": "ROBERTA_ARAUJO_MEDRADO", "ACAO": "REALIZAR_PRIMEIRA_VISITA_POTENCIAL", "RAZAO_SOCIAL": "43.191.697_MATHEUS_DE_OLIVEIRA_TOBIAS", "ENDERECO": "RUA_ATUAI_261_VILA_ESPERANCA_SAO_PAULO_BRASIL", "CIDADE": "SAO_PAULO", "LATITUDE": -23.5241425, "LONGITUDE": -46.5295237 }, "geometry": { "type": "Point", "coordinates": [ -46.5295237, -23.5241425 ] } },
{ "type": "Feature", "properties": { "CNPJ": 3148885800017, "AGENTE": "ROBERTA_ARAUJO_MEDRADO", "ACAO": "REALIZAR_PRIMEIRA_VISITA_POTENCIAL", "RAZAO_SOCIAL": "31.488.858_VITOR_FRANCESCHINE_ALVES_CORREA", "ENDERECO": "RUA_LEOPOLDO_DE_FREITAS_143_VILA_CENTENARIO_SAO_PAULO_BRASIL", "CIDADE": "SAO_PAULO", "LATITUDE": -23.5241831, "LONGITUDE": -46.5319276 }, "geometry": { "type": "Point", "coordinates": [ -46.5319276, -23.5241831 ] } },
{ "type": "Feature", "properties": { "CNPJ": 16882601000105, "AGENTE": "ROBERTA_ARAUJO_MEDRADO", "ACAO": "REALIZAR_PRIMEIRA_VISITA_POTENCIAL", "RAZAO_SOCIAL": "NELSON_LUIZ_VIEIRA_JUNIOR_ARTE_EM_LEMBRANCAS_E_DECORACOES_ME", "ENDERECO": "RUA_MAESTRO_JOSE_TESCARI_138_VILA_GRANADA_SAO_PAULO_BRASIL", "CIDADE": "SAO_PAULO", "LATITUDE": -23.5243999, "LONGITUDE": -46.5136896 }, "geometry": { "type": "Point", "coordinates": [ -46.5136896, -23.5243999 ] } },
{ "type": "Feature", "properties": { "CNPJ": 51327895000104, "AGENTE": "ROBERTA_ARAUJO_MEDRADO", "ACAO": "REALIZAR_PRIMEIRA_VISITA_POTENCIAL", "RAZAO_SOCIAL": "51.327.895_RAYLLON_FERREIRA_PRATES", "ENDERECO": "RUA_JARAUARA_980_VILA_RE_SAO_PAULO_BRASIL", "CIDADE": "SAO_PAULO", "LATITUDE": -23.5244488, "LONGITUDE": -46.4943651 }, "geometry": { "type": "Point", "coordinates": [ -46.4943651, -23.5244488 ] } },
{ "type": "Feature", "properties": { "CNPJ": 5438053400011, "AGENTE": "ROBERTA_ARAUJO_MEDRADO", "ACAO": "REALIZAR_PRIMEIRA_VISITA_POTENCIAL", "RAZAO_SOCIAL": "R.G._PEREIRA_AR_CLIMATIZACAO", "ENDERECO": "RUA_CORIN_57_VILA_RE_SAO_PAULO_BRASIL", "CIDADE": "SAO_PAULO", "LATITUDE": -23.5244628, "LONGITUDE": -46.5051214 }, "geometry": { "type": "Point", "coordinates": [ -46.5051214, -23.5244628 ] } },
{ "type": "Feature", "properties": { "CNPJ": 890282200017, "AGENTE": "ROBERTA_ARAUJO_MEDRADO", "ACAO": "REALIZAR_PRIMEIRA_VISITA_POTENCIAL", "RAZAO_SOCIAL": "ESCOLA_DE_EDUCACAO_INFANTIL_SANCHES_LTDA", "ENDERECO": "RUA_EVANS_193_VILA_ESPERANCA_SAO_PAULO_BRASIL", "CIDADE": "SAO_PAULO", "LATITUDE": -23.5244676, "LONGITUDE": -46.5240648 }, "geometry": { "type": "Point", "coordinates": [ -46.5240648, -23.5244676 ] } },
{ "type": "Feature", "properties": { "CNPJ": 52261193000138, "AGENTE": "ROBERTA_ARAUJO_MEDRADO", "ACAO": "REALIZAR_PRIMEIRA_VISITA_POTENCIAL", "RAZAO_SOCIAL": "52.261.193_TAINA_NASCIMENTO", "ENDERECO": "RUA_PUQUIXA_96_VILA_RE_SAO_PAULO_BRASIL", "CIDADE": "SAO_PAULO", "LATITUDE": -23.5245734, "LONGITUDE": -46.5095807 }, "geometry": { "type": "Point", "coordinates": [ -46.5095807, -23.5245734 ] } },
{ "type": "Feature", "properties": { "CNPJ": 44201060000148, "AGENTE": "ROBERTA_ARAUJO_MEDRADO", "ACAO": "REALIZAR_PRIMEIRA_VISITA_POTENCIAL", "RAZAO_SOCIAL": "44.201.060_EMILY_DE_SOUZA_VENDRAMIM_RODRIGUES_SIQUEIRA", "ENDERECO": "RUA_JARAUARA_962_VILA_RE_SAO_PAULO_BRASIL", "CIDADE": "SAO_PAULO", "LATITUDE": -23.5245785, "LONGITUDE": -46.49429749 }, "geometry": { "type": "Point", "coordinates": [ -46.49429749, -23.5245785 ] } },
{ "type": "Feature", "properties": { "CNPJ": 31415307000187, "AGENTE": "ROBERTA_ARAUJO_MEDRADO", "ACAO": "REALIZAR_PRIMEIRA_VISITA_POTENCIAL", "RAZAO_SOCIAL": "HAGP_TRITON_SERVICOS_DE_FONOAUDIOLOGIA_LTDA", "ENDERECO": "RUA_OTILIA_222_VILA_ESPERANCA_SAO_PAULO_BRASIL", "CIDADE": "SAO_PAULO", "LATITUDE": -23.5247794, "LONGITUDE": -46.523463 }, "geometry": { "type": "Point", "coordinates": [ -46.523463, -23.5247794 ] } },
{ "type": "Feature", "properties": { "CNPJ": 1924916300013, "AGENTE": "ROBERTA_ARAUJO_MEDRADO", "ACAO": "REALIZAR_PRIMEIRA_VISITA_POTENCIAL", "RAZAO_SOCIAL": "A.R.T._RUFINO_BANCOS_DE_COURO", "ENDERECO": "AVENIDA_PADRES_OLIVETANOS_2978_VILA_ESPERANCA_SAO_PAULO_BRASIL", "CIDADE": "SAO_PAULO", "LATITUDE": -23.524869, "LONGITUDE": -46.5256907 }, "geometry": { "type": "Point", "coordinates": [ -46.5256907, -23.524869 ] } },
{ "type": "Feature", "properties": { "CNPJ": 58736634000197, "AGENTE": "ROBERTA_ARAUJO_MEDRADO", "ACAO": "REALIZAR_PRIMEIRA_VISITA_POTENCIAL", "RAZAO_SOCIAL": "58.736.634_ENDREWS_VINICIUS_BATISTA_SILVA", "ENDERECO": "RUA_MARIA_DAS_DORES_300_PENHA_DE_FRANCA_SAO_PAULO_BRASIL", "CIDADE": "SAO_PAULO", "LATITUDE": -23.5249157, "LONGITUDE": -46.5378837 }, "geometry": { "type": "Point", "coordinates": [ -46.5378837, -23.5249157 ] } },
{ "type": "Feature", "properties": { "CNPJ": 53028227000101, "AGENTE": "ROBERTA_ARAUJO_MEDRADO", "ACAO": "REALIZAR_PRIMEIRA_VISITA_POTENCIAL", "RAZAO_SOCIAL": "FP_SHOP_REPRESENTACOES_LTDA", "ENDERECO": "RUA_MUNICIPAL_799_VILA_RE_SAO_PAULO_BRASIL", "CIDADE": "SAO_PAULO", "LATITUDE": -23.5250193, "LONGITUDE": -46.5010434 }, "geometry": { "type": "Point", "coordinates": [ -46.5010434, -23.5250193 ] } },
{ "type": "Feature", "properties": { "CNPJ": 17909242000103, "AGENTE": "ROBERTA_ARAUJO_MEDRADO", "ACAO": "REALIZAR_PRIMEIRA_VISITA_POTENCIAL", "RAZAO_SOCIAL": "VEROFRIO_CLIMATIZACAO_E_REFRIGERACAO_LTDA", "ENDERECO": "RUA_MORENAME_116_VILA_RE_SAO_PAULO_BRASIL", "CIDADE": "SAO_PAULO", "LATITUDE": -23.5251328, "LONGITUDE": -46.5074724 }, "geometry": { "type": "Point", "coordinates": [ -46.5074724, -23.5251328 ] } },
{ "type": "Feature", "properties": { "CNPJ": 10784975000101, "AGENTE": "ROBERTA_ARAUJO_MEDRADO", "ACAO": "REALIZAR_PRIMEIRA_VISITA_POTENCIAL", "RAZAO_SOCIAL": "ROGERIO_DE_ALMEIDA_BRAUM_GINASTICA", "ENDERECO": "RUA_MARCIANO_CAPELLA_159_VILA_RE_SAO_PAULO_BRASIL", "CIDADE": "SAO_PAULO", "LATITUDE": -23.5252386, "LONGITUDE": -46.4934876 }, "geometry": { "type": "Point", "coordinates": [ -46.4934876, -23.5252386 ] } },
{ "type": "Feature", "properties": { "CNPJ": 44598800000121, "AGENTE": "ROBERTA_ARAUJO_MEDRADO", "ACAO": "REALIZAR_PRIMEIRA_VISITA_POTENCIAL", "RAZAO_SOCIAL": "INGRID_CHAGAS_SILVA_VIEIRA", "ENDERECO": "RUA_MIRANDINHA_311_PENHA_DE_FRANCA_SAO_PAULO_BRASIL", "CIDADE": "SAO_PAULO", "LATITUDE": -23.5252726, "LONGITUDE": -46.5364907 }, "geometry": { "type": "Point", "coordinates": [ -46.5364907, -23.5252726 ] } },
{ "type": "Feature", "properties": { "CNPJ": 27064824000181, "AGENTE": "ROBERTA_ARAUJO_MEDRADO", "ACAO": "REALIZAR_PRIMEIRA_VISITA_POTENCIAL", "RAZAO_SOCIAL": "RICARDO_SCAFFURI", "ENDERECO": "AVENIDA_PADRES_OLIVETANOS_350_VILA_ESPERANCA_SAO_PAULO_BRASIL", "CIDADE": "SAO_PAULO", "LATITUDE": -23.5253204, "LONGITUDE": -46.5262051 }, "geometry": { "type": "Point", "coordinates": [ -46.5262051, -23.5253204 ] } },
{ "type": "Feature", "properties": { "CNPJ": 14331100000105, "AGENTE": "ROBERTA_ARAUJO_MEDRADO", "ACAO": "REALIZAR_PRIMEIRA_VISITA_POTENCIAL", "RAZAO_SOCIAL": "DAISY_DE_OLIVEIRA_SOUZA_NUNES_27598962855", "ENDERECO": "RUA_ALMERIA_443_VILA_GRANADA_SAO_PAULO_BRASIL", "CIDADE": "SAO_PAULO", "LATITUDE": -23.5254144, "LONGITUDE": -46.5170779 }, "geometry": { "type": "Point", "coordinates": [ -46.5170779, -23.5254144 ] } },
{ "type": "Feature", "properties": { "CNPJ": 33820001000131, "AGENTE": "ROBERTA_ARAUJO_MEDRADO", "ACAO": "REALIZAR_PRIMEIRA_VISITA_POTENCIAL", "RAZAO_SOCIAL": "VITORIA_ATUAL_SERVICOS_DE_SEGURANCA_E_COMERCIO_ELETRONICO_LTDA", "ENDERECO": "RUA_S_SERAPIAO_646_VILA_RE_SAO_PAULO_BRASIL", "CIDADE": "SAO_PAULO", "LATITUDE": -23.5254229, "LONGITUDE": -46.4975896 }, "geometry": { "type": "Point", "coordinates": [ -46.4975896, -23.5254229 ] } },
{ "type": "Feature", "properties": { "CNPJ": 46928956000159, "AGENTE": "ROBERTA_ARAUJO_MEDRADO", "ACAO": "REALIZAR_PRIMEIRA_VISITA_POTENCIAL", "RAZAO_SOCIAL": "DEISE_MONICA_DOS_ANJOS_SOUZA", "ENDERECO": "RUA_GEORG_RIEMANN_225_JARDIM_SAO_NICOLAU_SAO_PAULO_BRASIL", "CIDADE": "SAO_PAULO", "LATITUDE": -23.525437, "LONGITUDE": -46.4789504 }, "geometry": { "type": "Point", "coordinates": [ -46.4789504, -23.525437 ] } },
{ "type": "Feature", "properties": { "CNPJ": 24536429000166, "AGENTE": "ROBERTA_ARAUJO_MEDRADO", "ACAO": "REALIZAR_PRIMEIRA_VISITA_POTENCIAL", "RAZAO_SOCIAL": "ELIANA_PERPETUA_BOSSOLANI", "ENDERECO": "AVENIDA_NICOLAU_JACINTO_618_JARDIM_ARTUR_ALVIM_SAO_PAULO_BRASIL", "CIDADE": "UCHOA", "LATITUDE": -23.5254655, "LONGITUDE": -46.4833267 }, "geometry": { "type": "Point", "coordinates": [ -46.4833267, -23.5254655 ] } },
{ "type": "Feature", "properties": { "CNPJ": 1034870100017, "AGENTE": "ROBERTA_ARAUJO_MEDRADO", "ACAO": "REALIZAR_PRIMEIRA_VISITA_POTENCIAL", "RAZAO_SOCIAL": "FOX_ECO_LOGISTICA_E_TRANSPORTES_LTDA", "ENDERECO": "RUA_CAPITAO_MOR_PASSOS_493_PARI_SAO_PAULO_BRASIL", "CIDADE": "SAO_PAULO", "LATITUDE": -23.5254792, "LONGITUDE": -46.6143378 }, "geometry": { "type": "Point", "coordinates": [ -46.6143378, -23.5254792 ] } },
{ "type": "Feature", "properties": { "CNPJ": 30726866000145, "AGENTE": "ROBERTA_ARAUJO_MEDRADO", "ACAO": "REALIZAR_PRIMEIRA_VISITA_POTENCIAL", "RAZAO_SOCIAL": "LUCIANO_PEREIRA_CABRAL", "ENDERECO": "RUA_CAMPO_DAS_PITANGUEIRAS_209_JARDIM_SAO_NICOLAU_SAO_PAULO_BRASIL", "CIDADE": "SAO_PAULO", "LATITUDE": -23.525532, "LONGITUDE": -46.4769608 }, "geometry": { "type": "Point", "coordinates": [ -46.4769608, -23.525532 ] } },
{ "type": "Feature", "properties": { "CNPJ": 44086595000115, "AGENTE": "ROBERTA_ARAUJO_MEDRADO", "ACAO": "REALIZAR_PRIMEIRA_VISITA_POTENCIAL", "RAZAO_SOCIAL": "NADIA_QUINDOS_MARTINEZ", "ENDERECO": "AVENIDA_AVENIDA_NICOLAU_JACINTO_72_JARDIM_ARTUR_ALVIM_SAO_PAULO_BRASIL", "CIDADE": "PERUIBE", "LATITUDE": -23.5256, "LONGITUDE": -46.484653 }, "geometry": { "type": "Point", "coordinates": [ -46.484653, -23.5256 ] } },
{ "type": "Feature", "properties": { "CNPJ": 12510352000176, "AGENTE": "ROBERTA_ARAUJO_MEDRADO", "ACAO": "REALIZAR_PRIMEIRA_VISITA_POTENCIAL", "RAZAO_SOCIAL": "EVERTON_MEDEIROS_GOMES", "ENDERECO": "RUA_MORRO_DE_SANTA_TERESA_197_JARDIM_SAO_NICOLAU_SAO_PAULO_BRASIL", "CIDADE": "SAO_PAULO", "LATITUDE": -23.5256138, "LONGITUDE": -46.4776524 }, "geometry": { "type": "Point", "coordinates": [ -46.4776524, -23.5256138 ] } },
{ "type": "Feature", "properties": { "CNPJ": 58685075000133, "AGENTE": "ROBERTA_ARAUJO_MEDRADO", "ACAO": "REALIZAR_PRIMEIRA_VISITA_POTENCIAL", "RAZAO_SOCIAL": "58.685.075_PRISCILA_CARDOSO_CADETE_ZAMPIERI", "ENDERECO": "RUA_EVANS_353_VILA_ESPERANCA_SAO_PAULO_BRASIL", "CIDADE": "SAO_PAULO", "LATITUDE": -23.5257866, "LONGITUDE": -46.5246795 }, "geometry": { "type": "Point", "coordinates": [ -46.5246795, -23.5257866 ] } },
{ "type": "Feature", "properties": { "CNPJ": 44920826000144, "AGENTE": "ROBERTA_ARAUJO_MEDRADO", "ACAO": "REALIZAR_PRIMEIRA_VISITA_POTENCIAL", "RAZAO_SOCIAL": "44.920.826_GENILSON_FERREIRA_DA_SILVA_JUNIOR", "ENDERECO": "AVENIDA_NICOLAU_JACINTO_376_JARDIM_ARTUR_ALVIM_SAO_PAULO_BRASIL", "CIDADE": "SAO_PAULO", "LATITUDE": -23.5258206, "LONGITUDE": -46.485212 }, "geometry": { "type": "Point", "coordinates": [ -46.485212, -23.5258206 ] } },
{ "type": "Feature", "properties": { "CNPJ": 45163442000197, "AGENTE": "ROBERTA_ARAUJO_MEDRADO", "ACAO": "REALIZAR_PRIMEIRA_VISITA_POTENCIAL", "RAZAO_SOCIAL": "GUIOMAR_CONCEICAO_OLIVEIRA_SANTOS", "ENDERECO": "RUA_ISAAC_TABACOW_57_VILA_GRANADA_SAO_PAULO_BRASIL", "CIDADE": "SAO_PAULO", "LATITUDE": -23.5260398, "LONGITUDE": -46.5132442 }, "geometry": { "type": "Point", "coordinates": [ -46.5132442, -23.5260398 ] } },
{ "type": "Feature", "properties": { "CNPJ": 45913636000162, "AGENTE": "ROBERTA_ARAUJO_MEDRADO", "ACAO": "REALIZAR_PRIMEIRA_VISITA_POTENCIAL", "RAZAO_SOCIAL": "45.913.636_FELIPE_MEDAWAR_OGASSAWARA", "ENDERECO": "RUA_PIRAQUARA_549_JARDIM_NORDESTE_SAO_PAULO_BRASIL", "CIDADE": "SAO_PAULO", "LATITUDE": -23.5260446, "LONGITUDE": -46.4833975 }, "geometry": { "type": "Point", "coordinates": [ -46.4833975, -23.5260446 ] } },
{ "type": "Feature", "properties": { "CNPJ": 32897125000152, "AGENTE": "ROBERTA_ARAUJO_MEDRADO", "ACAO": "REALIZAR_PRIMEIRA_VISITA_POTENCIAL", "RAZAO_SOCIAL": "ADRENA_ACADEMIA_LTDA", "ENDERECO": "AVENIDA_NICOLAU_JACINTO_183_JARDIM_ARTUR_ALVIM_SAO_PAULO_BRASIL", "CIDADE": "SAO_PAULO", "LATITUDE": -23.5261398, "LONGITUDE": -46.4870086 }, "geometry": { "type": "Point", "coordinates": [ -46.4870086, -23.5261398 ] } },
{ "type": "Feature", "properties": { "CNPJ": 33123628000133, "AGENTE": "ROBERTA_ARAUJO_MEDRADO", "ACAO": "REALIZAR_PRIMEIRA_VISITA_POTENCIAL", "RAZAO_SOCIAL": "33.123.628_SUELY_BEZERRA_DE_SOUZA", "ENDERECO": "RUA_AUGUSTO_OSTERGREEN_95_VILA_BEATRIZ_SAO_PAULO_BRASIL", "CIDADE": "SAO_PAULO", "LATITUDE": -23.52618, "LONGITUDE": -46.5354799 }, "geometry": { "type": "Point", "coordinates": [ -46.5354799, -23.52618 ] } },
{ "type": "Feature", "properties": { "CNPJ": 27316946000118, "AGENTE": "ROBERTA_ARAUJO_MEDRADO", "ACAO": "REALIZAR_PRIMEIRA_VISITA_POTENCIAL", "RAZAO_SOCIAL": "DAIANE_APARECIDA_MOREIRA", "ENDERECO": "RUA_APANHA-PEIXE_12_JARDIM_ARTUR_ALVIM_SAO_PAULO_BRASIL", "CIDADE": "SAO_PAULO", "LATITUDE": -23.5262907, "LONGITUDE": -46.4854161 }, "geometry": { "type": "Point", "coordinates": [ -46.4854161, -23.5262907 ] } },
{ "type": "Feature", "properties": { "CNPJ": 46341353000156, "AGENTE": "ROBERTA_ARAUJO_MEDRADO", "ACAO": "REALIZAR_PRIMEIRA_VISITA_POTENCIAL", "RAZAO_SOCIAL": "46.341.353_LUCAS_DI_CHIACCHIO_MATOS", "ENDERECO": "RUA_JARAUARA_693_VILA_RE_SAO_PAULO_BRASIL", "CIDADE": "SAO_PAULO", "LATITUDE": -23.5266224, "LONGITUDE": -46.4959464 }, "geometry": { "type": "Point", "coordinates": [ -46.4959464, -23.5266224 ] } },
{ "type": "Feature", "properties": { "CNPJ": 34729805000192, "AGENTE": "ROBERTA_ARAUJO_MEDRADO", "ACAO": "REALIZAR_PRIMEIRA_VISITA_POTENCIAL", "RAZAO_SOCIAL": "WILLIAM_DE_CAMPOS_RICARDO", "ENDERECO": "RUA_ALICANTE_77_VILA_GRANADA_SAO_PAULO_BRASIL", "CIDADE": "SAO_PAULO", "LATITUDE": -23.5266818, "LONGITUDE": -46.5158623 }, "geometry": { "type": "Point", "coordinates": [ -46.5158623, -23.5266818 ] } },
{ "type": "Feature", "properties": { "CNPJ": 60588309000176, "AGENTE": "ROBERTA_ARAUJO_MEDRADO", "ACAO": "REALIZAR_PRIMEIRA_VISITA_POTENCIAL", "RAZAO_SOCIAL": "60.588.309_FELIPE_MONTEIRO_DA_CRUZ", "ENDERECO": "RUA_RODOLFO_49_VILA_RE_SAO_PAULO_BRASIL", "CIDADE": "SAO_PAULO", "LATITUDE": -23.5267222, "LONGITUDE": -46.5102918 }, "geometry": { "type": "Point", "coordinates": [ -46.5102918, -23.5267222 ] } },
{ "type": "Feature", "properties": { "CNPJ": 55331758000102, "AGENTE": "ROBERTA_ARAUJO_MEDRADO", "ACAO": "REALIZAR_PRIMEIRA_VISITA_POTENCIAL", "RAZAO_SOCIAL": "55.331.758_BRUNO_AGUIRRE_FERREIRA", "ENDERECO": "RUA_NILZA_505_VILA_ESPERANCA_SAO_PAULO_BRASIL", "CIDADE": "SAO_PAULO", "LATITUDE": -23.5269081, "LONGITUDE": -46.5188953 }, "geometry": { "type": "Point", "coordinates": [ -46.5188953, -23.5269081 ] } },
{ "type": "Feature", "properties": { "CNPJ": 21624993000142, "AGENTE": "ROBERTA_ARAUJO_MEDRADO", "ACAO": "REALIZAR_PRIMEIRA_VISITA_POTENCIAL", "RAZAO_SOCIAL": "ANDREA_CRISTINA_DE_OLIVEIRA", "ENDERECO": "RUA_ISABEL_605_VILA_ESPERANCA_SAO_PAULO_BRASIL", "CIDADE": "SAO_PAULO", "LATITUDE": -23.526911, "LONGITUDE": -46.5269653 }, "geometry": { "type": "Point", "coordinates": [ -46.5269653, -23.526911 ] } },
{ "type": "Feature", "properties": { "CNPJ": 354900640001, "AGENTE": "ROBERTA_ARAUJO_MEDRADO", "ACAO": "REALIZAR_PRIMEIRA_VISITA_POTENCIAL", "RAZAO_SOCIAL": "EDISON_DE_SOUZA_AGUIAR", "ENDERECO": "RUA_PARATIBA_289_JARDIM_NORDESTE_SAO_PAULO_BRASIL", "CIDADE": "SAO_PAULO", "LATITUDE": -23.5270292, "LONGITUDE": -46.4845074 }, "geometry": { "type": "Point", "coordinates": [ -46.4845074, -23.5270292 ] } },
{ "type": "Feature", "properties": { "CNPJ": 3699527500015, "AGENTE": "ROBERTA_ARAUJO_MEDRADO", "ACAO": "REALIZAR_PRIMEIRA_VISITA_POTENCIAL", "RAZAO_SOCIAL": "EMILY_LOURENCO_DA_SILVA", "ENDERECO": "RUA_ACAIPE_40_BURGO_PAULISTA_SAO_PAULO_BRASIL", "CIDADE": "SAO_PAULO", "LATITUDE": -23.5272583, "LONGITUDE": -46.5225913 }, "geometry": { "type": "Point", "coordinates": [ -46.5225913, -23.5272583 ] } },
{ "type": "Feature", "properties": { "CNPJ": 55048627000104, "AGENTE": "ROBERTA_ARAUJO_MEDRADO", "ACAO": "REALIZAR_PRIMEIRA_VISITA_POTENCIAL", "RAZAO_SOCIAL": "55.048.627_GUILHERME_AUGUSTO_PRADO_DA_SILVA_BARBOSA", "ENDERECO": "RUA_NILZA_551_VILA_ESPERANCA_SAO_PAULO_BRASIL", "CIDADE": "SAO_PAULO", "LATITUDE": -23.5272727, "LONGITUDE": -46.5186542 }, "geometry": { "type": "Point", "coordinates": [ -46.5186542, -23.5272727 ] } },
{ "type": "Feature", "properties": { "CNPJ": 40471441000196, "AGENTE": "ROBERTA_ARAUJO_MEDRADO", "ACAO": "REALIZAR_PRIMEIRA_VISITA_POTENCIAL", "RAZAO_SOCIAL": "SILVANA_DE_FATIMA_VEIGA_MUNIZ", "ENDERECO": "RUA_MIRANDINHA_492_PENHA_DE_FRANCA_SAO_PAULO_BRASIL", "CIDADE": "SAO_PAULO", "LATITUDE": -23.5273217, "LONGITUDE": -46.537073 }, "geometry": { "type": "Point", "coordinates": [ -46.537073, -23.5273217 ] } },
{ "type": "Feature", "properties": { "CNPJ": 52252904000108, "AGENTE": "ROBERTA_ARAUJO_MEDRADO", "ACAO": "REALIZAR_PRIMEIRA_VISITA_POTENCIAL", "RAZAO_SOCIAL": "52.252.904_GLAUCILENE_DA_SILVA_VIANA", "ENDERECO": "RUA_OTI_51_VILA_RE_SAO_PAULO_BRASIL", "CIDADE": "SAO_PAULO", "LATITUDE": -23.5274104, "LONGITUDE": -46.5055922 }, "geometry": { "type": "Point", "coordinates": [ -46.5055922, -23.5274104 ] } },
{ "type": "Feature", "properties": { "CNPJ": 48892050000157, "AGENTE": "ROBERTA_ARAUJO_MEDRADO", "ACAO": "REALIZAR_PRIMEIRA_VISITA_POTENCIAL", "RAZAO_SOCIAL": "GENAI_&_MASX_COMERCIO_IMPORTACAO_E_EXPORTACAO_DE_ELETRONICOS_EM_GERAL_LTDA", "ENDERECO": "AVENIDA_CARLOS_DE_CAMPOS_523_PARI_SAO_PAULO_BRASIL", "CIDADE": "SAO_PAULO", "LATITUDE": -23.5274854, "LONGITUDE": -46.6128709 }, "geometry": { "type": "Point", "coordinates": [ -46.6128709, -23.5274854 ] } },
{ "type": "Feature", "properties": { "CNPJ": 5975457000011, "AGENTE": "ROBERTA_ARAUJO_MEDRADO", "ACAO": "REALIZAR_PRIMEIRA_VISITA_POTENCIAL", "RAZAO_SOCIAL": "59.754.570_WITALO_SIQUEIRA_DE_ALENCAR", "ENDERECO": "PRACA_ALASTAIR_QUINTAS_GONCALVES_550_JARDIM_NORDESTE_SAO_PAULO_BRASIL", "CIDADE": "SAO_PAULO", "LATITUDE": -23.5275041, "LONGITUDE": -46.483988 }, "geometry": { "type": "Point", "coordinates": [ -46.483988, -23.5275041 ] } },
{ "type": "Feature", "properties": { "CNPJ": 22691552000126, "AGENTE": "ROBERTA_ARAUJO_MEDRADO", "ACAO": "REALIZAR_PRIMEIRA_VISITA_POTENCIAL", "RAZAO_SOCIAL": "RAUL_RODRIGUES_DA_SILVA", "ENDERECO": "RUA_JUAZEIRO_DO_NORTE_500_JARDIM_ARTUR_ALVIM_SAO_PAULO_BRASIL", "CIDADE": "SAO_PAULO", "LATITUDE": -23.5275047, "LONGITUDE": -46.4881879 }, "geometry": { "type": "Point", "coordinates": [ -46.4881879, -23.5275047 ] } },
{ "type": "Feature", "properties": { "CNPJ": 763203900017, "AGENTE": "ROBERTA_ARAUJO_MEDRADO", "ACAO": "REALIZAR_PRIMEIRA_VISITA_POTENCIAL", "RAZAO_SOCIAL": "BRAZIL_CONSTRUCOES_E_INSTALACOES_LTDA", "ENDERECO": "AVENIDA_CALIM_EID_2658_VILA_RE_SAO_PAULO_BRASIL", "CIDADE": "SAO_PAULO", "LATITUDE": -23.5275484, "LONGITUDE": -46.4902927 }, "geometry": { "type": "Point", "coordinates": [ -46.4902927, -23.5275484 ] } },
{ "type": "Feature", "properties": { "CNPJ": 48590071000118, "AGENTE": "ROBERTA_ARAUJO_MEDRADO", "ACAO": "REALIZAR_PRIMEIRA_VISITA_POTENCIAL", "RAZAO_SOCIAL": "ACTION_LOGISTICA_LTDA", "ENDERECO": "RUA_CANINDE_794_CANINDE_SAO_PAULO_BRASIL", "CIDADE": "SAO_PAULO", "LATITUDE": -23.5276265, "LONGITUDE": -46.6221031 }, "geometry": { "type": "Point", "coordinates": [ -46.6221031, -23.5276265 ] } },
{ "type": "Feature", "properties": { "CNPJ": 51603802000127, "AGENTE": "ROBERTA_ARAUJO_MEDRADO", "ACAO": "REALIZAR_PRIMEIRA_VISITA_POTENCIAL", "RAZAO_SOCIAL": "SONIA_REGINA_LANGANKE_DOS_SANTOS", "ENDERECO": "RUA_NHATUMANI_243_VILA_RE_SAO_PAULO_BRASIL", "CIDADE": "SAO_PAULO", "LATITUDE": -23.5276654, "LONGITUDE": -46.5018816 }, "geometry": { "type": "Point", "coordinates": [ -46.5018816, -23.5276654 ] } },
{ "type": "Feature", "properties": { "CNPJ": 12709211000187, "AGENTE": "ROBERTA_ARAUJO_MEDRADO", "ACAO": "REALIZAR_PRIMEIRA_VISITA_POTENCIAL", "RAZAO_SOCIAL": "JOAO_GABRIEL_GUISSO_MUNHOZ_MODAS", "ENDERECO": "RUA_JUAZEIRO_DO_NORTE_496_JARDIM_ARTUR_ALVIM_SAO_PAULO_BRASIL", "CIDADE": "SAO_PAULO", "LATITUDE": -23.5277955, "LONGITUDE": -46.4878214 }, "geometry": { "type": "Point", "coordinates": [ -46.4878214, -23.5277955 ] } },
{ "type": "Feature", "properties": { "CNPJ": 23237510000182, "AGENTE": "ROBERTA_ARAUJO_MEDRADO", "ACAO": "REALIZAR_PRIMEIRA_VISITA_POTENCIAL", "RAZAO_SOCIAL": "JEDI_SISTEMAS_MEDICOS_LTDA", "ENDERECO": "RUA_BROOK_TAYLOR_205_JARDIM_NORDESTE_SAO_PAULO_BRASIL", "CIDADE": "SAO_PAULO", "LATITUDE": -23.5278562, "LONGITUDE": -46.4761941 }, "geometry": { "type": "Point", "coordinates": [ -46.4761941, -23.5278562 ] } },
{ "type": "Feature", "properties": { "CNPJ": 29596933000175, "AGENTE": "ROBERTA_ARAUJO_MEDRADO", "ACAO": "REALIZAR_PRIMEIRA_VISITA_POTENCIAL", "RAZAO_SOCIAL": "T_F_R_GONCALVES_SERVICOS", "ENDERECO": "RUA_DEZENOVE_DE_MAIO_179_VILA_ESPERANCA_SAO_PAULO_BRASIL", "CIDADE": "SAO_PAULO", "LATITUDE": -23.5279076, "LONGITUDE": -46.5275434 }, "geometry": { "type": "Point", "coordinates": [ -46.5275434, -23.5279076 ] } },
{ "type": "Feature", "properties": { "CNPJ": 35684247000159, "AGENTE": "ROBERTA_ARAUJO_MEDRADO", "ACAO": "REALIZAR_PRIMEIRA_VISITA_POTENCIAL", "RAZAO_SOCIAL": "CLIMATECH_SOLUCOES_EM_REFRIGERACAO_E_CLIMATIZACAO_LTDA", "ENDERECO": "AVENIDA_PADRES_OLIVETANOS_651A_VILA_ESPERANCA_SAO_PAULO_BRASIL", "CIDADE": "SAO_PAULO", "LATITUDE": -23.5281217, "LONGITUDE": -46.5268853 }, "geometry": { "type": "Point", "coordinates": [ -46.5268853, -23.5281217 ] } },
{ "type": "Feature", "properties": { "CNPJ": 54395024000116, "AGENTE": "ROBERTA_ARAUJO_MEDRADO", "ACAO": "REALIZAR_PRIMEIRA_VISITA_POTENCIAL", "RAZAO_SOCIAL": "54.395.024_MATHEUS_DE_OLIVEIRA_TOKUNAGA", "ENDERECO": "RUA_GILDA_398_VILA_ESPERANCA_SAO_PAULO_BRASIL", "CIDADE": "SAO_PAULO", "LATITUDE": -23.528153, "LONGITUDE": -46.5217586 }, "geometry": { "type": "Point", "coordinates": [ -46.5217586, -23.528153 ] } },
{ "type": "Feature", "properties": { "CNPJ": 167562180001, "AGENTE": "ROBERTA_ARAUJO_MEDRADO", "ACAO": "REALIZAR_PRIMEIRA_VISITA_POTENCIAL", "RAZAO_SOCIAL": "STEFANI_MODA_FASHION_LTDA", "ENDERECO": "RUA_GILDA_398_VILA_ESPERANCA_SAO_PAULO_BRASIL", "CIDADE": "SAO_PAULO", "LATITUDE": -23.528153, "LONGITUDE": -46.5217586 }, "geometry": { "type": "Point", "coordinates": [ -46.5217586, -23.528153 ] } },
{ "type": "Feature", "properties": { "CNPJ": 2981759200011, "AGENTE": "ROBERTA_ARAUJO_MEDRADO", "ACAO": "REALIZAR_PRIMEIRA_VISITA_POTENCIAL", "RAZAO_SOCIAL": "SERGIO_ROSSETTO", "ENDERECO": "RUA_SACRAMENTO_1_CANINDE_SAO_PAULO_BRASIL", "CIDADE": "SAO_PAULO", "LATITUDE": -23.5281679, "LONGITUDE": -46.6166153 }, "geometry": { "type": "Point", "coordinates": [ -46.6166153, -23.5281679 ] } },
{ "type": "Feature", "properties": { "CNPJ": 49544949000141, "AGENTE": "ROBERTA_ARAUJO_MEDRADO", "ACAO": "REALIZAR_PRIMEIRA_VISITA_POTENCIAL", "RAZAO_SOCIAL": "ESCOLA_DE_IDIOMAS_VILA_RE_LTDA", "ENDERECO": "RUA_ITINGUCU_1717_VILA_RE_SAO_PAULO_BRASIL", "CIDADE": "SAO_PAULO", "LATITUDE": -23.5282322, "LONGITUDE": -46.4992 }, "geometry": { "type": "Point", "coordinates": [ -46.4992, -23.5282322 ] } },
{ "type": "Feature", "properties": { "CNPJ": 43555365000195, "AGENTE": "ROBERTA_ARAUJO_MEDRADO", "ACAO": "REALIZAR_PRIMEIRA_VISITA_POTENCIAL", "RAZAO_SOCIAL": "KAREN_ADRIANO_DE_OLIVEIRA", "ENDERECO": "RUA_GILDA_408_VILA_ESPERANCA_SAO_PAULO_BRASIL", "CIDADE": "SAO_PAULO", "LATITUDE": -23.5283063, "LONGITUDE": -46.5215887 }, "geometry": { "type": "Point", "coordinates": [ -46.5215887, -23.5283063 ] } },
{ "type": "Feature", "properties": { "CNPJ": 2929496600016, "AGENTE": "ROBERTA_ARAUJO_MEDRADO", "ACAO": "REALIZAR_PRIMEIRA_VISITA_POTENCIAL", "RAZAO_SOCIAL": "SANMARQ_GESTAO_DE_DOCUMENTOS_E_CADASTROS_LTDA", "ENDERECO": "RUA_MARIA_CARLOTA_773_VILA_ESPERANCA_SAO_PAULO_BRASIL", "CIDADE": "SAO_PAULO", "LATITUDE": -23.5283788, "LONGITUDE": -46.5276077 }, "geometry": { "type": "Point", "coordinates": [ -46.5276077, -23.5283788 ] } },
{ "type": "Feature", "properties": { "CNPJ": 24042320000172, "AGENTE": "ROBERTA_ARAUJO_MEDRADO", "ACAO": "REALIZAR_PRIMEIRA_VISITA_POTENCIAL", "RAZAO_SOCIAL": "THIAGO_DE_SOUZA_LOBO", "ENDERECO": "RUA_BALTAZAR_BRUM_843_VILA_RE_SAO_PAULO_BRASIL", "CIDADE": "ITAQUAQUECETUBA", "LATITUDE": -23.5284483, "LONGITUDE": -46.4920937 }, "geometry": { "type": "Point", "coordinates": [ -46.4920937, -23.5284483 ] } },
{ "type": "Feature", "properties": { "CNPJ": 35624165000119, "AGENTE": "ROBERTA_ARAUJO_MEDRADO", "ACAO": "REALIZAR_PRIMEIRA_VISITA_POTENCIAL", "RAZAO_SOCIAL": "35.624.165_PAULO_ANDRE_PINTO_DE_ARAUJO", "ENDERECO": "RUA_GILDA_426_VILA_ESPERANCA_SAO_PAULO_BRASIL", "CIDADE": "SAO_PAULO", "LATITUDE": -23.5285123, "LONGITUDE": -46.5216406 }, "geometry": { "type": "Point", "coordinates": [ -46.5216406, -23.5285123 ] } },
{ "type": "Feature", "properties": { "CNPJ": 48555561000183, "AGENTE": "ROBERTA_ARAUJO_MEDRADO", "ACAO": "REALIZAR_PRIMEIRA_VISITA_POTENCIAL", "RAZAO_SOCIAL": "ELIANE_JOSE_DOS_SANTOS", "ENDERECO": "RUA_ITABUNA_1_JARDIM_NORDESTE_SAO_PAULO_BRASIL", "CIDADE": "SAO_PAULO", "LATITUDE": -23.5285713, "LONGITUDE": -46.4872685 }, "geometry": { "type": "Point", "coordinates": [ -46.4872685, -23.5285713 ] } },
{ "type": "Feature", "properties": { "CNPJ": 47218897000198, "AGENTE": "ROBERTA_ARAUJO_MEDRADO", "ACAO": "REALIZAR_PRIMEIRA_VISITA_POTENCIAL", "RAZAO_SOCIAL": "SANTE_FISIOTERAPIA_HOME_CARE_LTDA", "ENDERECO": "RUA_LIMA_CAMPOS_255_JARDIM_NORDESTE_SAO_PAULO_BRASIL", "CIDADE": "SAO_PAULO", "LATITUDE": -23.5286832, "LONGITUDE": -46.4833799 }, "geometry": { "type": "Point", "coordinates": [ -46.4833799, -23.5286832 ] } },
{ "type": "Feature", "properties": { "CNPJ": 23730387000137, "AGENTE": "ROBERTA_ARAUJO_MEDRADO", "ACAO": "REALIZAR_PRIMEIRA_VISITA_POTENCIAL", "RAZAO_SOCIAL": "BEATRIZ_GONCALVES_PIRES", "ENDERECO": "RUA_DEZENOVE_DE_MAIO_464_VILA_ESPERANCA_SAO_PAULO_BRASIL", "CIDADE": "SAO_PAULO", "LATITUDE": -23.5286837, "LONGITUDE": -46.5248351 }, "geometry": { "type": "Point", "coordinates": [ -46.5248351, -23.5286837 ] } },
{ "type": "Feature", "properties": { "CNPJ": 33676702000149, "AGENTE": "ROBERTA_ARAUJO_MEDRADO", "ACAO": "REALIZAR_PRIMEIRA_VISITA_POTENCIAL", "RAZAO_SOCIAL": "LUIS_CARLOS_BRAZ_CAMBUR", "ENDERECO": "RUA_ADOLFO_RODRIGUES_DA_SILVA_87_VILA_RE_SAO_PAULO_BRASIL", "CIDADE": "SAO_PAULO", "LATITUDE": -23.5287174, "LONGITUDE": -46.5001738 }, "geometry": { "type": "Point", "coordinates": [ -46.5001738, -23.5287174 ] } },
{ "type": "Feature", "properties": { "CNPJ": 2759435000018, "AGENTE": "ROBERTA_ARAUJO_MEDRADO", "ACAO": "REALIZAR_PRIMEIRA_VISITA_POTENCIAL", "RAZAO_SOCIAL": "ACRO_ENGENHARIA_LTDA", "ENDERECO": "AVENIDA_PADRES_OLIVETANOS_721_VILA_ESPERANCA_SAO_PAULO_BRASIL", "CIDADE": "SAO_PAULO", "LATITUDE": -23.5287447, "LONGITUDE": -46.5268491 }, "geometry": { "type": "Point", "coordinates": [ -46.5268491, -23.5287447 ] } },
{ "type": "Feature", "properties": { "CNPJ": 33943035000113, "AGENTE": "ROBERTA_ARAUJO_MEDRADO", "ACAO": "REALIZAR_PRIMEIRA_VISITA_POTENCIAL", "RAZAO_SOCIAL": "33.943.035_YARA_GOUVEIA_MORETTI", "ENDERECO": "TRAVESSA_CLAUDIONOR_FIALHO_DE_SOUZA_FILHO_7_VILA_RE_SAO_PAULO_BRASIL", "CIDADE": "SAO_PAULO", "LATITUDE": -23.5287846, "LONGITUDE": -46.4986081 }, "geometry": { "type": "Point", "coordinates": [ -46.4986081, -23.5287846 ] } },
{ "type": "Feature", "properties": { "CNPJ": 4717957800011, "AGENTE": "ROBERTA_ARAUJO_MEDRADO", "ACAO": "REALIZAR_PRIMEIRA_VISITA_POTENCIAL", "RAZAO_SOCIAL": "ALPHA_NURSE_ATENDIMENTO_DOMICILIAR_E_ASSESSORIA_LTDA", "ENDERECO": "RUA_S_SERAFIM_651_PENHA_DE_FRANCA_SAO_PAULO_BRASIL", "CIDADE": "SAO_PAULO", "LATITUDE": -23.5289658, "LONGITUDE": -46.5377353 }, "geometry": { "type": "Point", "coordinates": [ -46.5377353, -23.5289658 ] } },
{ "type": "Feature", "properties": { "CNPJ": 54999228000166, "AGENTE": "ROBERTA_ARAUJO_MEDRADO", "ACAO": "REALIZAR_PRIMEIRA_VISITA_POTENCIAL", "RAZAO_SOCIAL": "54.999.228_DOUGLAS_FRANCISCO_DE_OLIVEIRA", "ENDERECO": "RUA_TAPARI_169_VILA_ESPERANCA_SAO_PAULO_BRASIL", "CIDADE": "SAO_PAULO", "LATITUDE": -23.5290204, "LONGITUDE": -46.5190605 }, "geometry": { "type": "Point", "coordinates": [ -46.5190605, -23.5290204 ] } },
{ "type": "Feature", "properties": { "CNPJ": 56604318000136, "AGENTE": "ROBERTA_ARAUJO_MEDRADO", "ACAO": "REALIZAR_PRIMEIRA_VISITA_POTENCIAL", "RAZAO_SOCIAL": "DANIEL_DA_SILVA_LEMES", "ENDERECO": "RUA_SAO_SERAFIM_501_PENHA_DE_FRANCA_SAO_PAULO_BRASIL", "CIDADE": "SAO_PAULO", "LATITUDE": -23.5290526, "LONGITUDE": -46.5391566 }, "geometry": { "type": "Point", "coordinates": [ -46.5391566, -23.5290526 ] } },
{ "type": "Feature", "properties": { "CNPJ": 7006584000151, "AGENTE": "ROBERTA_ARAUJO_MEDRADO", "ACAO": "REALIZAR_PRIMEIRA_VISITA_POTENCIAL", "RAZAO_SOCIAL": "MARKET_ECOMMERCE_SERVICOS_COMERCIAIS_LTDA", "ENDERECO": "RUA_BALTAZAR_BRUM_677_VILA_RE_SAO_PAULO_BRASIL", "CIDADE": "SAO_PAULO", "LATITUDE": -23.5290668, "LONGITUDE": -46.4931117 }, "geometry": { "type": "Point", "coordinates": [ -46.4931117, -23.5290668 ] } },
{ "type": "Feature", "properties": { "CNPJ": 42051718000157, "AGENTE": "ROBERTA_ARAUJO_MEDRADO", "ACAO": "REALIZAR_PRIMEIRA_VISITA_POTENCIAL", "RAZAO_SOCIAL": "MARINA_LUISA_DA_SILVA_COSTA_34345963800", "ENDERECO": "RUA_PARAISOPOLIS_346_CIDADE_PATRIARCA_SAO_PAULO_BRASIL", "CIDADE": "SAO_PAULO", "LATITUDE": -23.529108, "LONGITUDE": -46.5098202 }, "geometry": { "type": "Point", "coordinates": [ -46.5098202, -23.529108 ] } },
{ "type": "Feature", "properties": { "CNPJ": 44481180000146, "AGENTE": "ROBERTA_ARAUJO_MEDRADO", "ACAO": "REALIZAR_PRIMEIRA_VISITA_POTENCIAL", "RAZAO_SOCIAL": "44.481.180_DOUGLAS_MORENO_RODRIGUES_TOMAZ", "ENDERECO": "RUA_PARAISOPOLIS_327_CIDADE_PATRIARCA_SAO_PAULO_BRASIL", "CIDADE": "SAO_PAULO", "LATITUDE": -23.5291756, "LONGITUDE": -46.51009819 }, "geometry": { "type": "Point", "coordinates": [ -46.51009819, -23.5291756 ] } },
{ "type": "Feature", "properties": { "CNPJ": 3796802000016, "AGENTE": "ROBERTA_ARAUJO_MEDRADO", "ACAO": "REALIZAR_PRIMEIRA_VISITA_POTENCIAL", "RAZAO_SOCIAL": "CARLOTA_CASA_E_CONSTRUCAO_LTDA", "ENDERECO": "RUA_MARIA_CARLOTA_877_VILA_ESPERANCA_SAO_PAULO_BRASIL", "CIDADE": "SAO_PAULO", "LATITUDE": -23.5292225, "LONGITUDE": -46.5276382 }, "geometry": { "type": "Point", "coordinates": [ -46.5276382, -23.5292225 ] } },
{ "type": "Feature", "properties": { "CNPJ": 43538639000138, "AGENTE": "ROBERTA_ARAUJO_MEDRADO", "ACAO": "REALIZAR_PRIMEIRA_VISITA_POTENCIAL", "RAZAO_SOCIAL": "BE_BOSSY_TECNOLOGIA_LTDA", "ENDERECO": "RUA_PALMEIRAS_DAS_MISSOES_27_CIDADE_PATRIARCA_SAO_PAULO_BRASIL", "CIDADE": "SAO_PAULO", "LATITUDE": -23.5293735, "LONGITUDE": -46.5085717 }, "geometry": { "type": "Point", "coordinates": [ -46.5085717, -23.5293735 ] } },
{ "type": "Feature", "properties": { "CNPJ": 73589260001, "AGENTE": "ROBERTA_ARAUJO_MEDRADO", "ACAO": "REALIZAR_PRIMEIRA_VISITA_POTENCIAL", "RAZAO_SOCIAL": "ABSOLUTA_COMERCIO_DE_ROUPAS_E_IMPORTACAO_LTDA", "ENDERECO": "RUA_RIO_TAPACURA_198_JARDIM_NORDESTE_SAO_PAULO_BRASIL", "CIDADE": "SAO_PAULO", "LATITUDE": -23.5293801, "LONGITUDE": -46.4858249 }, "geometry": { "type": "Point", "coordinates": [ -46.4858249, -23.5293801 ] } },
{ "type": "Feature", "properties": { "CNPJ": 40948601000145, "AGENTE": "ROBERTA_ARAUJO_MEDRADO", "ACAO": "REALIZAR_PRIMEIRA_VISITA_POTENCIAL", "RAZAO_SOCIAL": "GM6_E-COMMERCE_E_IMPORTACAO_LTDA", "ENDERECO": "AVENIDA_CARLOS_DE_CAMPOS_223_PARI_SAO_PAULO_BRASIL", "CIDADE": "SAO_PAULO", "LATITUDE": -23.5295779, "LONGITUDE": -46.6146769 }, "geometry": { "type": "Point", "coordinates": [ -46.6146769, -23.5295779 ] } },
{ "type": "Feature", "properties": { "CNPJ": 33718203000177, "AGENTE": "ROBERTA_ARAUJO_MEDRADO", "ACAO": "REALIZAR_PRIMEIRA_VISITA_POTENCIAL", "RAZAO_SOCIAL": "LUCIO_MAURO_VIEIRA_GENESTRA", "ENDERECO": "RUA_LAVRAS_NULL_CIDADE_PATRIARCA_SAO_PAULO_BRASIL", "CIDADE": "SAO_PAULO", "LATITUDE": -23.5298993, "LONGITUDE": -46.5095303 }, "geometry": { "type": "Point", "coordinates": [ -46.5095303, -23.5298993 ] } },
{ "type": "Feature", "properties": { "CNPJ": 38268427000148, "AGENTE": "ROBERTA_ARAUJO_MEDRADO", "ACAO": "REALIZAR_PRIMEIRA_VISITA_POTENCIAL", "RAZAO_SOCIAL": "ELIONAI_ADMINISTRACAO_DE_IMOVEIS_E_COMERCIO_DE_VARIEDADES_LTDA", "ENDERECO": "AVENIDA_AGUIA_DE_HAIA_1815_PARQUE_PAINEIRAS_SAO_PAULO_BRASIL", "CIDADE": "SAO_PAULO", "LATITUDE": -23.5299988, "LONGITUDE": -46.4741557 }, "geometry": { "type": "Point", "coordinates": [ -46.4741557, -23.5299988 ] } },
{ "type": "Feature", "properties": { "CNPJ": 539083930001, "AGENTE": "ROBERTA_ARAUJO_MEDRADO", "ACAO": "REALIZAR_PRIMEIRA_VISITA_POTENCIAL", "RAZAO_SOCIAL": "SINOBRAS_ECOMMERCE_LTDA", "ENDERECO": "RUA_CONS_DANTAS_350_CANINDE_SAO_PAULO_BRASIL", "CIDADE": "SAO_PAULO", "LATITUDE": -23.5300898, "LONGITUDE": -46.6195151 }, "geometry": { "type": "Point", "coordinates": [ -46.6195151, -23.5300898 ] } },
{ "type": "Feature", "properties": { "CNPJ": 54988785000181, "AGENTE": "ROBERTA_ARAUJO_MEDRADO", "ACAO": "REALIZAR_PRIMEIRA_VISITA_POTENCIAL", "RAZAO_SOCIAL": "54.988.785_PAULA_CHRISTINY_ARAUJO_VIANA", "ENDERECO": "RUA_SAO_SERAPIAO_80_VILA_RE_SAO_PAULO_BRASIL", "CIDADE": "SAO_PAULO", "LATITUDE": -23.5301054, "LONGITUDE": -46.5006662 }, "geometry": { "type": "Point", "coordinates": [ -46.5006662, -23.5301054 ] } },
{ "type": "Feature", "properties": { "CNPJ": 57064556000169, "AGENTE": "ROBERTA_ARAUJO_MEDRADO", "ACAO": "REALIZAR_PRIMEIRA_VISITA_POTENCIAL", "RAZAO_SOCIAL": "57.064.556_ABRAAO_SALMO_NASCIMENTO_SILVA", "ENDERECO": "RUA_MAX_PLANCK_412_JARDIM_COIMBRA_SAO_PAULO_BRASIL", "CIDADE": "SAO_PAULO", "LATITUDE": -23.5301107, "LONGITUDE": -46.4783797 }, "geometry": { "type": "Point", "coordinates": [ -46.4783797, -23.5301107 ] } },
{ "type": "Feature", "properties": { "CNPJ": 8613375000139, "AGENTE": "ROBERTA_ARAUJO_MEDRADO", "ACAO": "REALIZAR_PRIMEIRA_VISITA_POTENCIAL", "RAZAO_SOCIAL": "FENIX_SUL_COMERCIO_DE_ROUPAS_EIRELI", "ENDERECO": "RUA_DOUTOR_VIRGILIO_DO_NASCIMENTO_235_BRAS_SAO_PAULO_BRASIL", "CIDADE": "SAO_PAULO", "LATITUDE": -23.530157, "LONGITUDE": -46.6138872 }, "geometry": { "type": "Point", "coordinates": [ -46.6138872, -23.530157 ] } },
{ "type": "Feature", "properties": { "CNPJ": 24197264000145, "AGENTE": "ROBERTA_ARAUJO_MEDRADO", "ACAO": "REALIZAR_PRIMEIRA_VISITA_POTENCIAL", "RAZAO_SOCIAL": "ISAIAS_ANTUNES_REPRESENTACOES", "ENDERECO": "RUA_CAMPO_MAIOR_146_CIDADE_PATRIARCA_SAO_PAULO_BRASIL", "CIDADE": "SAO_PAULO", "LATITUDE": -23.530193, "LONGITUDE": -46.5097988 }, "geometry": { "type": "Point", "coordinates": [ -46.5097988, -23.530193 ] } },
{ "type": "Feature", "properties": { "CNPJ": 45467201000131, "AGENTE": "ROBERTA_ARAUJO_MEDRADO", "ACAO": "REALIZAR_PRIMEIRA_VISITA_POTENCIAL", "RAZAO_SOCIAL": "KARINA_JESUS_TOYOHASHI_41281376850", "ENDERECO": "RUA_MARCIANO_CAPELLA_33_VILA_RE_SAO_PAULO_BRASIL", "CIDADE": "SAO_PAULO", "LATITUDE": -23.5302189, "LONGITUDE": -46.4932679 }, "geometry": { "type": "Point", "coordinates": [ -46.4932679, -23.5302189 ] } },
{ "type": "Feature", "properties": { "CNPJ": 47117475000126, "AGENTE": "ROBERTA_ARAUJO_MEDRADO", "ACAO": "REALIZAR_PRIMEIRA_VISITA_POTENCIAL", "RAZAO_SOCIAL": "J._S._VARIEDADES_COMERCIO_E_ARTIGOS_PARA_LOJA_LTDA", "ENDERECO": "RUA_CONS_DANTAS_408_CANINDE_SAO_PAULO_BRASIL", "CIDADE": "SAO_PAULO", "LATITUDE": -23.5302441, "LONGITUDE": -46.6189191 }, "geometry": { "type": "Point", "coordinates": [ -46.6189191, -23.5302441 ] } },