{
"type": "FeatureCollection",
"name": "ROBERTA_ARAUJO_MEDRADO",
"crs": { "type": "name", "properties": { "name": "urn:ogc:def:crs:OGC:1.3:CRS84" } },
"xy_coordinate_resolution": 1e-15,
"features": [
{ "type": "Feature", "properties": { "CNPJ": 42458096000186, "AGENTE": "ROBERTA_ARAUJO_MEDRADO", "ACAO": "REALIZAR_SEGUNDA_VISITA", "RAZAO_SOCIAL": "MR_CLINICA_PENHA_LTDA_-_MR_PENHA", "ENDERECO": "RUAPADREBENEDITODECAMARGO_813_PENHADEFRANCA_SAOPAULO", "CIDADE": "SAO_PAULO", "LATITUDE": -23.5209357, "LONGITUDE": -46.548034, "LINK": "#N/D" }, "geometry": { "type": "Point", "coordinates": [ -46.548034, -23.5209357 ] } },
{ "type": "Feature", "properties": { "CNPJ": 53215267000243, "AGENTE": "ROBERTA_ARAUJO_MEDRADO", "ACAO": "REALIZAR_SEGUNDA_VISITA", "RAZAO_SOCIAL": "HEIDY_&AKEMI_COMERCIO_DE_PRODUTOS_NATURAIS_LTDA_-_BOA_FORMA", "ENDERECO": "RUAERASMOBRAGA_56_PENHADEFRANCA_SAOPAULO", "CIDADE": "SAO_PAULO", "LATITUDE": -23.5226103, "LONGITUDE": -46.5468785, "LINK": "#N/D" }, "geometry": { "type": "Point", "coordinates": [ -46.5468785, -23.5226103 ] } },
{ "type": "Feature", "properties": { "CNPJ": 14918777000144, "AGENTE": "ROBERTA_ARAUJO_MEDRADO", "ACAO": "REALIZAR_SEGUNDA_VISITA", "RAZAO_SOCIAL": "CREUSA_MARIA_RODRIGUES_PASQUALI_08306998804_-_CLEUSA_MARIA", "ENDERECO": "RUAERASMOBRAGA_48_PENHADEFRANCA_SAOPAULO", "CIDADE": "SAO_PAULO", "LATITUDE": -23.5227312, "LONGITUDE": -46.5464936, "LINK": "#N/D" }, "geometry": { "type": "Point", "coordinates": [ -46.5464936, -23.5227312 ] } },
{ "type": "Feature", "properties": { "CNPJ": 52496702000101, "AGENTE": "ROBERTA_ARAUJO_MEDRADO", "ACAO": "REALIZAR_SEGUNDA_VISITA", "RAZAO_SOCIAL": "EMPORIO_TERRA_BRASILEIRA_LTDA_-_EMPORIO_TERRA_BRASILEIRA", "ENDERECO": "RUAJARAUARA_389_VILARE_SAOPAULO", "CIDADE": "SAO_PAULO", "LATITUDE": -23.5290947, "LONGITUDE": -46.4975018, "LINK": "#N/D" }, "geometry": { "type": "Point", "coordinates": [ -46.4975018, -23.5290947 ] } },
{ "type": "Feature", "properties": { "CNPJ": 23475802000153, "AGENTE": "ROBERTA_ARAUJO_MEDRADO", "ACAO": "REALIZAR_SEGUNDA_VISITA", "RAZAO_SOCIAL": "DELIROFA_FAROFA_PREMIUM_-_COMERCIO_VAREJISTA_LTDA_-_DELI_FARORA", "ENDERECO": "RUAITINGUCU_1997_VILARE_SAOPAULO", "CIDADE": "SAO_PAULO", "LATITUDE": -23.5296559, "LONGITUDE": -46.4968965, "LINK": "#N/D" }, "geometry": { "type": "Point", "coordinates": [ -46.4968965, -23.5296559 ] } },
{ "type": "Feature", "properties": { "CNPJ": 51028870000100, "AGENTE": "ROBERTA_ARAUJO_MEDRADO", "ACAO": "REALIZAR_SEGUNDA_VISITA", "RAZAO_SOCIAL": "51.028.870_LUCINEIDE_MATTOSO_DE_SOUZA_AURICCHIO_-_MEM", "ENDERECO": "RUADOUTORANGELOVITA_42_TATUAPE_SAOPAULO", "CIDADE": "SAO_PAULO", "LATITUDE": -23.534307, "LONGITUDE": -46.5664657, "LINK": "#N/D" }, "geometry": { "type": "Point", "coordinates": [ -46.5664657, -23.534307 ] } },
{ "type": "Feature", "properties": { "CNPJ": 24662254000133, "AGENTE": "ROBERTA_ARAUJO_MEDRADO", "ACAO": "REALIZAR_SEGUNDA_VISITA", "RAZAO_SOCIAL": "MERCADINHO_ESTRELA_E_CONVENIENCIA_ARTIGOS_E_ACESSORIOS_LTDA_-_ESTRELA_CONVENIENCIA", "ENDERECO": "AVENIDACELSOGARCIA_3619_TATUAPE_SAOPAULO", "CIDADE": "SAO_PAULO", "LATITUDE": -23.5348737, "LONGITUDE": -46.5773311, "LINK": "#N/D" }, "geometry": { "type": "Point", "coordinates": [ -46.5773311, -23.5348737 ] } },
{ "type": "Feature", "properties": { "CNPJ": 43604540000197, "AGENTE": "ROBERTA_ARAUJO_MEDRADO", "ACAO": "REALIZAR_SEGUNDA_VISITA", "RAZAO_SOCIAL": "MABELE_CRISTINA_SILVA_RODRIGUES_28043745803_-_STAR_PET", "ENDERECO": "RUASARGENTOOSVALDO_130_VILAZILDA_SAOPAULO", "CIDADE": "SAO_PAULO", "LATITUDE": -23.5351442, "LONGITUDE": -46.5657927, "LINK": "#N/D" }, "geometry": { "type": "Point", "coordinates": [ -46.5657927, -23.5351442 ] } },
{ "type": "Feature", "properties": { "CNPJ": 58688955000163, "AGENTE": "ROBERTA_ARAUJO_MEDRADO", "ACAO": "REALIZAR_SEGUNDA_VISITA", "RAZAO_SOCIAL": "58.688.955_AGNES_ROBERTA_MOREIRA_DA_SILVA_-_LOJA_CASA_DO_SEU_ZE", "ENDERECO": "RUATUIUTI_1192_TATUAPE_SAOPAULO", "CIDADE": "SAO_PAULO", "LATITUDE": -23.5358489, "LONGITUDE": -46.5755289, "LINK": "#N/D" }, "geometry": { "type": "Point", "coordinates": [ -46.5755289, -23.5358489 ] } },
{ "type": "Feature", "properties": { "CNPJ": 7311318000132, "AGENTE": "ROBERTA_ARAUJO_MEDRADO", "ACAO": "REALIZAR_SEGUNDA_VISITA", "RAZAO_SOCIAL": "OFICINA_DOS_PIJAMAS_LTDA_-_OFICIAL_DOS_PIJAMAS", "ENDERECO": "RUAPADREANTONIODESA_117_TATUAPE_SAOPAULO", "CIDADE": "SAO_PAULO", "LATITUDE": -23.5368505, "LONGITUDE": -46.5758645, "LINK": "#N/D" }, "geometry": { "type": "Point", "coordinates": [ -46.5758645, -23.5368505 ] } },
{ "type": "Feature", "properties": { "CNPJ": 39926250000192, "AGENTE": "ROBERTA_ARAUJO_MEDRADO", "ACAO": "REALIZAR_SEGUNDA_VISITA", "RAZAO_SOCIAL": "EMBRATEC_-_COMERCIO_&_SERVICOS_LTDA._-_EMBRATEC", "ENDERECO": "RUAPOTIGUARES_265_TATUAPE_SAOPAULO", "CIDADE": "SAO_PAULO", "LATITUDE": -23.5372012, "LONGITUDE": -46.577729, "LINK": "#N/D" }, "geometry": { "type": "Point", "coordinates": [ -46.577729, -23.5372012 ] } },
{ "type": "Feature", "properties": { "CNPJ": 26391406000136, "AGENTE": "ROBERTA_ARAUJO_MEDRADO", "ACAO": "REALIZAR_SEGUNDA_VISITA", "RAZAO_SOCIAL": "FARMACIA_FARMANDRE_LTDA_-_DROGARIA_FARMARCIA", "ENDERECO": "RUAPIMENTABUENO_290_BELENZINHO_SAOPAULO", "CIDADE": "SAO_PAULO", "LATITUDE": -23.5390893, "LONGITUDE": -46.5876639, "LINK": "#N/D" }, "geometry": { "type": "Point", "coordinates": [ -46.5876639, -23.5390893 ] } },
{ "type": "Feature", "properties": { "CNPJ": 45953063000109, "AGENTE": "ROBERTA_ARAUJO_MEDRADO", "ACAO": "REALIZAR_SEGUNDA_VISITA", "RAZAO_SOCIAL": "45.953.063_PATRICIA_MELQUIADES_DE_OLIVEIRA_-_LUX_BEAUTY", "ENDERECO": "RUAJULIODECASTILHOS_1217_BELENZINHO_SAOPAULO", "CIDADE": "SAO_PAULO", "LATITUDE": -23.5397652, "LONGITUDE": -46.5893757, "LINK": "#N/D" }, "geometry": { "type": "Point", "coordinates": [ -46.5893757, -23.5397652 ] } },
{ "type": "Feature", "properties": { "CNPJ": 25370336000177, "AGENTE": "ROBERTA_ARAUJO_MEDRADO", "ACAO": "REALIZAR_SEGUNDA_VISITA", "RAZAO_SOCIAL": "LAHE_BELEM_COMERCIO_DE_CALCADOS_E_ACESSORIOS_LTDA_-_LAHE_BELEM", "ENDERECO": "RUAJULIODECASTILHOS_1103_BELENZINHO_SAOPAULO", "CIDADE": "SAO_PAULO", "LATITUDE": -23.5400446, "LONGITUDE": -46.5905238, "LINK": "#N/D" }, "geometry": { "type": "Point", "coordinates": [ -46.5905238, -23.5400446 ] } },
{ "type": "Feature", "properties": { "CNPJ": 60020058000129, "AGENTE": "ROBERTA_ARAUJO_MEDRADO", "ACAO": "REALIZAR_SEGUNDA_VISITA", "RAZAO_SOCIAL": "JN_CONSTRUCENTER_LTDA_-_JN_CONSTRU_CENTER", "ENDERECO": "RUAFERNANDESVIEIRA_155_BELENZINHO_SAOPAULO", "CIDADE": "SAO_PAULO", "LATITUDE": -23.540477, "LONGITUDE": -46.5903669, "LINK": "#N/D" }, "geometry": { "type": "Point", "coordinates": [ -46.5903669, -23.540477 ] } },
{ "type": "Feature", "properties": { "CNPJ": 12401730000183, "AGENTE": "ROBERTA_ARAUJO_MEDRADO", "ACAO": "REALIZAR_SEGUNDA_VISITA", "RAZAO_SOCIAL": "ANA_LUCIA_DA_SILVA_SOUZA_-_BICHO_GATO", "ENDERECO": "RUAJULIODECASTILHOS_816_BELENZINHO_SAOPAULO", "CIDADE": "SAO_PAULO", "LATITUDE": -23.5411211, "LONGITUDE": -46.5930837, "LINK": "#N/D" }, "geometry": { "type": "Point", "coordinates": [ -46.5930837, -23.5411211 ] } },
{ "type": "Feature", "properties": { "CNPJ": 17600581000103, "AGENTE": "ROBERTA_ARAUJO_MEDRADO", "ACAO": "URGENTE_REALIZAR_PRIMEIRA_VISITA", "RAZAO_SOCIAL": "ASTEC_SERVICOS_E_COMERCIO_DE_EQUIPAMENTOS_DE_COMBATE_A_INCENDIO_LTDA", "ENDERECO": "AVENIDAENGENHEIROSOARESDECAMARGO_647_CIDADEPATRIARCA_SAOPAULO", "CIDADE": "SAO_PAULO", "LATITUDE": -23.5419998, "LONGITUDE": -46.499216, "LINK": "#N/D" }, "geometry": { "type": "Point", "coordinates": [ -46.499216, -23.5419998 ] } },
{ "type": "Feature", "properties": { "CNPJ": 39941847000106, "AGENTE": "ROBERTA_ARAUJO_MEDRADO", "ACAO": "URGENTE_REALIZAR_PRIMEIRA_VISITA", "RAZAO_SOCIAL": "BRECHO_POR_KILO_COMERCIO_DE_ARTIGOS_DO_VESTUARIO_E_ACESSORIOS_LTDA", "ENDERECO": "AVENIDAMARCONDESDEBRITO_1287_CHACARASEISDEOUTUBRO_SAOPAULO", "CIDADE": "SAO_PAULO", "LATITUDE": -23.536625, "LONGITUDE": -46.527855, "LINK": "#N/D" }, "geometry": { "type": "Point", "coordinates": [ -46.527855, -23.536625 ] } },
{ "type": "Feature", "properties": { "CNPJ": 30466022000102, "AGENTE": "ROBERTA_ARAUJO_MEDRADO", "ACAO": "URGENTE_REALIZAR_PRIMEIRA_VISITA", "RAZAO_SOCIAL": "CASA_DE_CARNES_VILA_BARROS_LTDA", "ENDERECO": "AVENIDAOSVALDOVALLECORDEIRO_208_JARDIMBRASILIA_SAOPAULO", "CIDADE": "SAO_PAULO", "LATITUDE": -23.5546061, "LONGITUDE": -46.4922788, "LINK": "#N/D" }, "geometry": { "type": "Point", "coordinates": [ -46.4922788, -23.5546061 ] } },
{ "type": "Feature", "properties": { "CNPJ": 3166474000104, "AGENTE": "ROBERTA_ARAUJO_MEDRADO", "ACAO": "URGENTE_REALIZAR_PRIMEIRA_VISITA", "RAZAO_SOCIAL": "JOAO_VANDERLEI_DE_SOUZA", "ENDERECO": "AVENIDASOUSABANDEIRA_288_VILANHOCUNE_SAOPAULO", "CIDADE": "SAO_PAULO", "LATITUDE": -23.5470167, "LONGITUDE": -46.5015317, "LINK": "#N/D" }, "geometry": { "type": "Point", "coordinates": [ -46.5015317, -23.5470167 ] } },
{ "type": "Feature", "properties": { "CNPJ": 39611699000161, "AGENTE": "ROBERTA_ARAUJO_MEDRADO", "ACAO": "URGENTE_REALIZAR_PRIMEIRA_VISITA", "RAZAO_SOCIAL": "W_E_MARCENARIA_E_MOVEIS_PLANEJADOS_LTDA", "ENDERECO": "RUACAQUITO_422_VILASAOGERALDO_SAOPAULO", "CIDADE": "SAO_PAULO", "LATITUDE": -23.5202341, "LONGITUDE": -46.5429036, "LINK": "#N/D" }, "geometry": { "type": "Point", "coordinates": [ -46.5429036, -23.5202341 ] } },
{ "type": "Feature", "properties": { "CNPJ": 41737349000198, "AGENTE": "ROBERTA_ARAUJO_MEDRADO", "ACAO": "URGENTE_REALIZAR_PRIMEIRA_VISITA", "RAZAO_SOCIAL": "WH_LANCHONETE_LTDA", "ENDERECO": "RUADONAMATILDE_381_VILAMATILDE_SAOPAULO", "CIDADE": "SAO_PAULO", "LATITUDE": -23.5356454, "LONGITUDE": -46.525972, "LINK": "#N/D" }, "geometry": { "type": "Point", "coordinates": [ -46.525972, -23.5356454 ] } },
{ "type": "Feature", "properties": { "CNPJ": 39509057000156, "AGENTE": "ROBERTA_ARAUJO_MEDRADO", "ACAO": "URGENTE_REALIZAR_PRIMEIRA_VISITA", "RAZAO_SOCIAL": "BETA_FITNESS_COMERCIO_DE_ROUPAS_E_ACESSORIOS_LTDA", "ENDERECO": "RUADONAMATILDE_660_VILAMATILDE_SAOPAULO", "CIDADE": "SAO_PAULO", "LATITUDE": -23.5381817, "LONGITUDE": -46.5254541, "LINK": "#N/D" }, "geometry": { "type": "Point", "coordinates": [ -46.5254541, -23.5381817 ] } },
{ "type": "Feature", "properties": { "CNPJ": 32759512000122, "AGENTE": "ROBERTA_ARAUJO_MEDRADO", "ACAO": "URGENTE_REALIZAR_PRIMEIRA_VISITA", "RAZAO_SOCIAL": "CAIO_SIQUEIRA_LIMA_CROSSFIT", "ENDERECO": "RUADOUTORARMANDOBRANDAO_56_VILAMATILDE_SAOPAULO", "CIDADE": "SAO_PAULO", "LATITUDE": -23.53456, "LONGITUDE": -46.5250945, "LINK": "#N/D" }, "geometry": { "type": "Point", "coordinates": [ -46.5250945, -23.53456 ] } },
{ "type": "Feature", "properties": { "CNPJ": 42000724000185, "AGENTE": "ROBERTA_ARAUJO_MEDRADO", "ACAO": "URGENTE_REALIZAR_PRIMEIRA_VISITA", "RAZAO_SOCIAL": "VIVENDA_NACIONAL_LTDA", "ENDERECO": "RUAGONCALVESCRESPO_78_TATUAPE_SAOPAULO", "CIDADE": "SAO_PAULO", "LATITUDE": -23.5387753, "LONGITUDE": -46.5762709, "LINK": "#N/D" }, "geometry": { "type": "Point", "coordinates": [ -46.5762709, -23.5387753 ] } },
{ "type": "Feature", "properties": { "CNPJ": 17103428000162, "AGENTE": "ROBERTA_ARAUJO_MEDRADO", "ACAO": "URGENTE_REALIZAR_PRIMEIRA_VISITA", "RAZAO_SOCIAL": "PRISCILA_DE_MORAES_PEREIRA_MODAS__ACESSORIOS_E_APOIO_ADMINISTRATIVO", "ENDERECO": "RUAITINGUCU_1233_VILARE_SAOPAULO", "CIDADE": "SAO_PAULO", "LATITUDE": -23.526351, "LONGITUDE": -46.5034972, "LINK": "#N/D" }, "geometry": { "type": "Point", "coordinates": [ -46.5034972, -23.526351 ] } },
{ "type": "Feature", "properties": { "CNPJ": 59058713000159, "AGENTE": "ROBERTA_ARAUJO_MEDRADO", "ACAO": "URGENTE_REALIZAR_PRIMEIRA_VISITA", "RAZAO_SOCIAL": "ROQUE_BALLESTER_RESTAURANTE_E_LANCHONETE_LTDA", "ENDERECO": "RUAITINGUCU_1255_VILARE_SAOPAULO", "CIDADE": "SAO_PAULO", "LATITUDE": -23.5264997, "LONGITUDE": -46.503341, "LINK": "#N/D" }, "geometry": { "type": "Point", "coordinates": [ -46.503341, -23.5264997 ] } },
{ "type": "Feature", "properties": { "CNPJ": 10564718000164, "AGENTE": "ROBERTA_ARAUJO_MEDRADO", "ACAO": "URGENTE_REALIZAR_PRIMEIRA_VISITA", "RAZAO_SOCIAL": "WAGNER_JOSE_MARCHI_GOMES_PEQUENEZA_JUNIOR", "ENDERECO": "RUAWADIHHATTI_228_VILARE_SAOPAULO", "CIDADE": "SAO_PAULO", "LATITUDE": -23.5296158, "LONGITUDE": -46.4953742, "LINK": "#N/D" }, "geometry": { "type": "Point", "coordinates": [ -46.4953742, -23.5296158 ] } },
{ "type": "Feature", "properties": { "CNPJ": 55176742000164, "AGENTE": "ROBERTA_ARAUJO_MEDRADO", "ACAO": "URGENTE_REALIZAR_PRIMEIRA_VISITA", "RAZAO_SOCIAL": "PET_SAUDE_INTEGRAL_LTDA", "ENDERECO": "RUAANTONIODEBARROS_1148_TATUAPE_SAOPAULO", "CIDADE": "SAO_PAULO", "LATITUDE": -23.5403523, "LONGITUDE": -46.5573347, "LINK": "#N/D" }, "geometry": { "type": "Point", "coordinates": [ -46.5573347, -23.5403523 ] } },
{ "type": "Feature", "properties": { "CNPJ": 32243728000130, "AGENTE": "ROBERTA_ARAUJO_MEDRADO", "ACAO": "URGENTE_REALIZAR_PRIMEIRA_VISITA", "RAZAO_SOCIAL": "LUCIANA_CRISTINA_DE_SOUZA", "ENDERECO": "RUAANTONIODEBARROS_1355_TATUAPE_SAOPAULO", "CIDADE": "SAO_PAULO", "LATITUDE": -23.5422, "LONGITUDE": -46.556935, "LINK": "#N/D" }, "geometry": { "type": "Point", "coordinates": [ -46.556935, -23.5422 ] } },
{ "type": "Feature", "properties": { "CNPJ": 2515874000107, "AGENTE": "ROBERTA_ARAUJO_MEDRADO", "ACAO": "URGENTE_REALIZAR_PRIMEIRA_VISITA", "RAZAO_SOCIAL": "LIRIO_STUDIO_LTDA", "ENDERECO": "RUAANTONIOMORAISBARROS_4_VILAZILDA_SAOPAULO", "CIDADE": "SAO_PAULO", "LATITUDE": -23.5334691, "LONGITUDE": -46.5644971, "LINK": "#N/D" }, "geometry": { "type": "Point", "coordinates": [ -46.5644971, -23.5334691 ] } },
{ "type": "Feature", "properties": { "CNPJ": 8095703000152, "AGENTE": "ROBERTA_ARAUJO_MEDRADO", "ACAO": "URGENTE_REALIZAR_PRIMEIRA_VISITA", "RAZAO_SOCIAL": "SAUDE_FARMA_COMERCIO_DE_MEDICAMENTOS_LTDA", "ENDERECO": "RUABOMSUCESSO_1300_CIDADEMAEDOCEU_SAOPAULO", "CIDADE": "SAO_PAULO", "LATITUDE": -23.5506232, "LONGITUDE": -46.5759015, "LINK": "#N/D" }, "geometry": { "type": "Point", "coordinates": [ -46.5759015, -23.5506232 ] } },
{ "type": "Feature", "properties": { "CNPJ": 50619226000143, "AGENTE": "ROBERTA_ARAUJO_MEDRADO", "ACAO": "URGENTE_REALIZAR_PRIMEIRA_VISITA", "RAZAO_SOCIAL": "GASTROBAR_O_MEDEIROS_LTDA", "ENDERECO": "RUACESARIOGALERO_200_TATUAPE_SAOPAULO", "CIDADE": "SAO_PAULO", "LATITUDE": -23.5347569, "LONGITUDE": -46.563041, "LINK": "#N/D" }, "geometry": { "type": "Point", "coordinates": [ -46.563041, -23.5347569 ] } },
{ "type": "Feature", "properties": { "CNPJ": 22262435000147, "AGENTE": "ROBERTA_ARAUJO_MEDRADO", "ACAO": "URGENTE_REALIZAR_PRIMEIRA_VISITA", "RAZAO_SOCIAL": "GESSO_ART_BELLA_LTDA", "ENDERECO": "RUADOUTORRAULDAROCHAMEDEIROS_157_TATUAPE_SAOPAULO", "CIDADE": "SAO_PAULO", "LATITUDE": -23.5343009, "LONGITUDE": -46.562971, "LINK": "#N/D" }, "geometry": { "type": "Point", "coordinates": [ -46.562971, -23.5343009 ] } },
{ "type": "Feature", "properties": { "CNPJ": 53909296000124, "AGENTE": "ROBERTA_ARAUJO_MEDRADO", "ACAO": "URGENTE_REALIZAR_PRIMEIRA_VISITA", "RAZAO_SOCIAL": "MR_FIT_CAFE_EXPRESS_TATUAPE_LTDA", "ENDERECO": "RUAEMILIOMALLET_150_VILAGOMESCARDIM_SAOPAULO", "CIDADE": "SAO_PAULO", "LATITUDE": -23.5478954, "LONGITUDE": -46.5723002, "LINK": "#N/D" }, "geometry": { "type": "Point", "coordinates": [ -46.5723002, -23.5478954 ] } },
{ "type": "Feature", "properties": { "CNPJ": 49766105000145, "AGENTE": "ROBERTA_ARAUJO_MEDRADO", "ACAO": "URGENTE_REALIZAR_PRIMEIRA_VISITA", "RAZAO_SOCIAL": "ARTENO_COMERCIO_DE_PAES_LTDA", "ENDERECO": "RUAITAPETI_294_VILAGOMESCARDIM_SAOPAULO", "CIDADE": "SAO_PAULO", "LATITUDE": -23.5514538, "LONGITUDE": -46.5684643, "LINK": "#N/D" }, "geometry": { "type": "Point", "coordinates": [ -46.5684643, -23.5514538 ] } },
{ "type": "Feature", "properties": { "CNPJ": 45901515000109, "AGENTE": "ROBERTA_ARAUJO_MEDRADO", "ACAO": "URGENTE_REALIZAR_PRIMEIRA_VISITA", "RAZAO_SOCIAL": "VSDD_COMERCIO_DE_ALIMENTOS_LTDA", "ENDERECO": "RUAOTELORIZZO_13_VILAGOMESCARDIM_SAOPAULO", "CIDADE": "SAO_PAULO", "LATITUDE": -23.55109, "LONGITUDE": -46.5666767, "LINK": "#N/D" }, "geometry": { "type": "Point", "coordinates": [ -46.5666767, -23.55109 ] } },
{ "type": "Feature", "properties": { "CNPJ": 44156218000105, "AGENTE": "ROBERTA_ARAUJO_MEDRADO", "ACAO": "URGENTE_REALIZAR_PRIMEIRA_VISITA", "RAZAO_SOCIAL": "MAMEDIO'S_MATERIAIS_DE_CONSTRUCAO_LTDA", "ENDERECO": "RUASERRADEBOTUCATU_1779_VILAGOMESCARDIM_SAOPAULO", "CIDADE": "SAO_PAULO", "LATITUDE": -23.5410874, "LONGITUDE": -46.554054, "LINK": "#N/D" }, "geometry": { "type": "Point", "coordinates": [ -46.554054, -23.5410874 ] } },
{ "type": "Feature", "properties": { "CNPJ": 58675802000181, "AGENTE": "ROBERTA_ARAUJO_MEDRADO", "ACAO": "URGENTE_REALIZAR_PRIMEIRA_VISITA", "RAZAO_SOCIAL": "MODAS_PRIACA_LIMITADA", "ENDERECO": "RUASERRADEJAPI_1335_VILAGOMESCARDIM_SAOPAULO", "CIDADE": "SAO_PAULO", "LATITUDE": -23.5512346, "LONGITUDE": -46.5677643, "LINK": "#N/D" }, "geometry": { "type": "Point", "coordinates": [ -46.5677643, -23.5512346 ] } },
{ "type": "Feature", "properties": { "CNPJ": 40623016000175, "AGENTE": "ROBERTA_ARAUJO_MEDRADO", "ACAO": "URGENTE_REALIZAR_PRIMEIRA_VISITA", "RAZAO_SOCIAL": "PROVENCE_CAFES_ESPECIAIS_LTDA", "ENDERECO": "RUASERRADEJAPI_1378_VILAGOMESCARDIM_SAOPAULO", "CIDADE": "SAO_PAULO", "LATITUDE": -23.5514267, "LONGITUDE": -46.56772, "LINK": "#N/D" }, "geometry": { "type": "Point", "coordinates": [ -46.56772, -23.5514267 ] } },
{ "type": "Feature", "properties": { "CNPJ": 57820838000149, "AGENTE": "ROBERTA_ARAUJO_MEDRADO", "ACAO": "URGENTE_REALIZAR_PRIMEIRA_VISITA", "RAZAO_SOCIAL": "ISA&GI_COMERCIO_OTICO_LTDA", "ENDERECO": "RUATUIUTI_2297_TATUAPE_SAOPAULO", "CIDADE": "SAO_PAULO", "LATITUDE": -23.5449995, "LONGITUDE": -46.5743791, "LINK": "#N/D" }, "geometry": { "type": "Point", "coordinates": [ -46.5743791, -23.5449995 ] } },
{ "type": "Feature", "properties": { "CNPJ": 60513177000113, "AGENTE": "ROBERTA_ARAUJO_MEDRADO", "ACAO": "URGENTE_REALIZAR_PRIMEIRA_VISITA", "RAZAO_SOCIAL": "GRAO_JARDIM_CAFE_LTDA", "ENDERECO": "RUATUIUTI_2641_TATUAPE_SAOPAULO", "CIDADE": "SAO_PAULO", "LATITUDE": -23.5488197, "LONGITUDE": -46.5735146, "LINK": "#N/D" }, "geometry": { "type": "Point", "coordinates": [ -46.5735146, -23.5488197 ] } },
{ "type": "Feature", "properties": { "CNPJ": 48317276000124, "AGENTE": "ROBERTA_ARAUJO_MEDRADO", "ACAO": "URGENTE_REALIZAR_PRIMEIRA_VISITA", "RAZAO_SOCIAL": "CLINICA_JS_ODONTOLOGIA_ESTETICA_E_HARMONIZACAO_LTDA", "ENDERECO": "RUATUIUTI_2663_TATUAPE_SAOPAULO", "CIDADE": "SAO_PAULO", "LATITUDE": -23.5489783, "LONGITUDE": -46.5734756, "LINK": "#N/D" }, "geometry": { "type": "Point", "coordinates": [ -46.5734756, -23.5489783 ] } },
{ "type": "Feature", "properties": { "CNPJ": 7594265000104, "AGENTE": "ROBERTA_ARAUJO_MEDRADO", "ACAO": "URGENTE_REALIZAR_SEGUNDA_VISITA", "RAZAO_SOCIAL": "ADONAY_ITA_COMERCIO_DE_COIFAS_E_CALHAS_LTDA", "ENDERECO": "AVENIDAITAQUERA_2507_JARDIMMARINGA_SAOPAULO", "CIDADE": "SAO_PAULO", "LATITUDE": -23.5496898, "LONGITUDE": -46.5015931, "LINK": "#N/D" }, "geometry": { "type": "Point", "coordinates": [ -46.5015931, -23.5496898 ] } },
{ "type": "Feature", "properties": { "CNPJ": 3272006000106, "AGENTE": "ROBERTA_ARAUJO_MEDRADO", "ACAO": "URGENTE_REALIZAR_SEGUNDA_VISITA", "RAZAO_SOCIAL": "ORGANIZACAO_DE_NEGOCIOS_TR_S/S_LTDA", "ENDERECO": "AVENIDAITAQUERA_2575_JARDIMMARINGA_SAOPAULO", "CIDADE": "SAO_PAULO", "LATITUDE": -23.5499833, "LONGITUDE": -46.50106, "LINK": "#N/D" }, "geometry": { "type": "Point", "coordinates": [ -46.50106, -23.5499833 ] } },
{ "type": "Feature", "properties": { "CNPJ": 60792033000143, "AGENTE": "ROBERTA_ARAUJO_MEDRADO", "ACAO": "URGENTE_REALIZAR_SEGUNDA_VISITA", "RAZAO_SOCIAL": "COMERCIAL_TUBO_LESTE_LTDA", "ENDERECO": "AVENIDAITAQUERA_2671_JARDIMMARINGA_SAOPAULO", "CIDADE": "SAO_PAULO", "LATITUDE": -23.5496161, "LONGITUDE": -46.4999867, "LINK": "#N/D" }, "geometry": { "type": "Point", "coordinates": [ -46.4999867, -23.5496161 ] } },
{ "type": "Feature", "properties": { "CNPJ": 20184612000199, "AGENTE": "ROBERTA_ARAUJO_MEDRADO", "ACAO": "URGENTE_REALIZAR_SEGUNDA_VISITA", "RAZAO_SOCIAL": "CONVERSAO_COMERCIO_DE_VESTUARIO_LTDA", "ENDERECO": "AVENIDAOSVALDOVALLECORDEIRO_208_JARDIMBRASILIA_SAOPAULO", "CIDADE": "SAO_PAULO", "LATITUDE": -23.5547115, "LONGITUDE": -46.4923332, "LINK": "#N/D" }, "geometry": { "type": "Point", "coordinates": [ -46.4923332, -23.5547115 ] } },
{ "type": "Feature", "properties": { "CNPJ": 12369182000232, "AGENTE": "ROBERTA_ARAUJO_MEDRADO", "ACAO": "URGENTE_REALIZAR_SEGUNDA_VISITA", "RAZAO_SOCIAL": "CASA_DE_TINTAS_V.W._LTDA", "ENDERECO": "AVENIDAOSVALDOVALLECORDEIRO_498_JARDIMBRASILIA_SAOPAULO", "CIDADE": "SAO_PAULO", "LATITUDE": -23.5575212, "LONGITUDE": -46.4916868, "LINK": "#N/D" }, "geometry": { "type": "Point", "coordinates": [ -46.4916868, -23.5575212 ] } },
{ "type": "Feature", "properties": { "CNPJ": 30285874000101, "AGENTE": "ROBERTA_ARAUJO_MEDRADO", "ACAO": "URGENTE_REALIZAR_SEGUNDA_VISITA", "RAZAO_SOCIAL": "MARCENARIA_FERREIRA_LTDA_-_MARCENARIA_FERREIRA", "ENDERECO": "AVENIDACELSOGARCIA_3615_TATUAPE_SAOPAULO", "CIDADE": "SAO_PAULO", "LATITUDE": -23.5347799, "LONGITUDE": -46.5774734, "LINK": "#N/D" }, "geometry": { "type": "Point", "coordinates": [ -46.5774734, -23.5347799 ] } },
{ "type": "Feature", "properties": { "CNPJ": 33238842000135, "AGENTE": "ROBERTA_ARAUJO_MEDRADO", "ACAO": "URGENTE_REALIZAR_SEGUNDA_VISITA", "RAZAO_SOCIAL": "MONCALIERI_CAFE_E_COOKIES_LTDA_-_BLACKCAT", "ENDERECO": "RUAHONORIOMAIA_314_TATUAPE_SAOPAULO", "CIDADE": "SAO_PAULO", "LATITUDE": -23.5349389, "LONGITUDE": -46.5592424, "LINK": "#N/D" }, "geometry": { "type": "Point", "coordinates": [ -46.5592424, -23.5349389 ] } },
{ "type": "Feature", "properties": { "CNPJ": 8063500000184, "AGENTE": "ROBERTA_ARAUJO_MEDRADO", "ACAO": "URGENTE_REALIZAR_SEGUNDA_VISITA", "RAZAO_SOCIAL": "CELMAR_FOTO_E_VIDEO_LTDA_-_OPTICA_LINI", "ENDERECO": "AVENIDACELSOGARCIA_3970_TATUAPE_SAOPAULO", "CIDADE": "SAO_PAULO", "LATITUDE": -23.5356317, "LONGITUDE": -46.5739392, "LINK": "#N/D" }, "geometry": { "type": "Point", "coordinates": [ -46.5739392, -23.5356317 ] } },
{ "type": "Feature", "properties": { "CNPJ": 14963486000178, "AGENTE": "ROBERTA_ARAUJO_MEDRADO", "ACAO": "URGENTE_REALIZAR_SEGUNDA_VISITA", "RAZAO_SOCIAL": "ROSA_CHICLE_MODA_FEMININA_LTDA", "ENDERECO": "RUACOSTAREGO_44_VILAGUILHERMINA_SAOPAULO", "CIDADE": "SAO_PAULO", "LATITUDE": -23.5319093, "LONGITUDE": -46.5166205, "LINK": "#N/D" }, "geometry": { "type": "Point", "coordinates": [ -46.5166205, -23.5319093 ] } },
{ "type": "Feature", "properties": { "CNPJ": 53794775000142, "AGENTE": "ROBERTA_ARAUJO_MEDRADO", "ACAO": "URGENTE_REALIZAR_SEGUNDA_VISITA", "RAZAO_SOCIAL": "COMERCIO_MATERIAL_DE_ELETRICA_E_ILUMINACAO_DE_LED_D_GRACA_LTDA", "ENDERECO": "RUACOSTAREGO_57_VILAGUILHERMINA_SAOPAULO", "CIDADE": "SAO_PAULO", "LATITUDE": -23.5318823, "LONGITUDE": -46.516535, "LINK": "#N/D" }, "geometry": { "type": "Point", "coordinates": [ -46.516535, -23.5318823 ] } },
{ "type": "Feature", "properties": { "CNPJ": 55333427000101, "AGENTE": "ROBERTA_ARAUJO_MEDRADO", "ACAO": "URGENTE_REALIZAR_SEGUNDA_VISITA", "RAZAO_SOCIAL": "CONFEITARIA_MORAES_&_MARTOS_LTDA", "ENDERECO": "RUAFIGUEIRADABARBARIA_28_JARDIMBRASILIA_SAOPAULO", "CIDADE": "SAO_PAULO", "LATITUDE": -23.5557549, "LONGITUDE": -46.4922873, "LINK": "#N/D" }, "geometry": { "type": "Point", "coordinates": [ -46.4922873, -23.5557549 ] } },
{ "type": "Feature", "properties": { "CNPJ": 51680919000104, "AGENTE": "ROBERTA_ARAUJO_MEDRADO", "ACAO": "URGENTE_REALIZAR_SEGUNDA_VISITA", "RAZAO_SOCIAL": "BC_UNIFORMES_LTDA", "ENDERECO": "RUAFIGUEIRADABARBARIA_28_JARDIMBRASILIA_SAOPAULO", "CIDADE": "SAO_PAULO", "LATITUDE": -23.5557797, "LONGITUDE": -46.4923063, "LINK": "#N/D" }, "geometry": { "type": "Point", "coordinates": [ -46.4923063, -23.5557797 ] } },
{ "type": "Feature", "properties": { "CNPJ": 21522137000186, "AGENTE": "ROBERTA_ARAUJO_MEDRADO", "ACAO": "URGENTE_REALIZAR_SEGUNDA_VISITA", "RAZAO_SOCIAL": "COYOTE_PET_SHOP_COMERCIO_E_SERVICOS_PARA_ANIMAIS_LTDA", "ENDERECO": "RUASAOBENTODOSAPUCAI_674_VILAGUILHERMINA_SAOPAULO", "CIDADE": "SAO_PAULO", "LATITUDE": -23.5327568, "LONGITUDE": -46.5144569, "LINK": "#N/D" }, "geometry": { "type": "Point", "coordinates": [ -46.5144569, -23.5327568 ] } },
{ "type": "Feature", "properties": { "CNPJ": 44873650000117, "AGENTE": "ROBERTA_ARAUJO_MEDRADO", "ACAO": "URGENTE_REALIZAR_SEGUNDA_VISITA", "RAZAO_SOCIAL": "EDSON_ROCHA_DONHA_MECANICA", "ENDERECO": "RUATAPAIUNA_199_JARDIMSANTAMARIA_SAOPAULO", "CIDADE": "SAO_PAULO", "LATITUDE": -23.5516197, "LONGITUDE": -46.5074306, "LINK": "#N/D" }, "geometry": { "type": "Point", "coordinates": [ -46.5074306, -23.5516197 ] } },
{ "type": "Feature", "properties": { "CNPJ": 45798536000132, "AGENTE": "ROBERTA_ARAUJO_MEDRADO", "ACAO": "REALIZAR_SEGUNDA_VISITA", "RAZAO_SOCIAL": "PEROLAS_MODAS", "ENDERECO": "RUA_ROSINA_FERRARESI_MARSURA_55_JARDIM_ITAPEMIRIM_SAO_PAULO_BRASIL", "CIDADE": "SAO_PAULO", "LATITUDE": -23.5343556, "LONGITUDE": -46.457466, "LINK": "#N/D" }, "geometry": { "type": "Point", "coordinates": [ -46.457466, -23.5343556 ] } },
{ "type": "Feature", "properties": { "CNPJ": 22953547000144, "AGENTE": "ROBERTA_ARAUJO_MEDRADO", "ACAO": "REALIZAR_SEGUNDA_VISITA", "RAZAO_SOCIAL": "BARBEARIA_BORTHERS", "ENDERECO": "AVENIDA_ERNESTO_SOUSA_1088_CONJUNTO_HABITACIONAL_A_E_CARV_SAO_PAULO_BRASIL", "CIDADE": "SAO_PAULO", "LATITUDE": -23.5255254, "LONGITUDE": -46.4635308, "LINK": "#N/D" }, "geometry": { "type": "Point", "coordinates": [ -46.4635308, -23.5255254 ] } },
{ "type": "Feature", "properties": { "CNPJ": 43751715000199, "AGENTE": "ROBERTA_ARAUJO_MEDRADO", "ACAO": "REALIZAR_SEGUNDA_VISITA", "RAZAO_SOCIAL": "HELO_CEL", "ENDERECO": "AVENIDA_ERNESTO_SOUZA_CRUZ_1356_CIDADE_ANTONIO_ESTEVAO_DE_CARVALHO_SAO_PAULO_BRASIL", "CIDADE": "SAO_PAULO", "LATITUDE": -23.5232235, "LONGITUDE": -46.4612876, "LINK": "#N/D" }, "geometry": { "type": "Point", "coordinates": [ -46.4612876, -23.5232235 ] } },
{ "type": "Feature", "properties": { "CNPJ": 47065143000145, "AGENTE": "ROBERTA_ARAUJO_MEDRADO", "ACAO": "REALIZAR_SEGUNDA_VISITA", "RAZAO_SOCIAL": "BRANKIDS", "ENDERECO": "AVENIDA_ERNESTO_SOUZA_CRUZ_793_CIDADE_ANTONIO_ESTEVAO_DE_CARVALHO_SAO_PAULO_BRASIL", "CIDADE": "SAO_PAULO", "LATITUDE": -23.5262803, "LONGITUDE": -46.4642438, "LINK": "#N/D" }, "geometry": { "type": "Point", "coordinates": [ -46.4642438, -23.5262803 ] } },
{ "type": "Feature", "properties": { "CNPJ": 37031760000176, "AGENTE": "ROBERTA_ARAUJO_MEDRADO", "ACAO": "REALIZAR_SEGUNDA_VISITA", "RAZAO_SOCIAL": "REI_DOS_FIOS", "ENDERECO": "AVENIDA_IMPERADOR_5161_JARDIM_SANTANA_SAO_PAULO_BRASIL", "CIDADE": "SAO_PAULO", "LATITUDE": -23.5144895, "LONGITUDE": -46.4532811, "LINK": "#N/D" }, "geometry": { "type": "Point", "coordinates": [ -46.4532811, -23.5144895 ] } },
{ "type": "Feature", "properties": { "CNPJ": 47327319000190, "AGENTE": "ROBERTA_ARAUJO_MEDRADO", "ACAO": "REALIZAR_SEGUNDA_VISITA", "RAZAO_SOCIAL": "IMPERIO_QUEIJOS_E_DOCES", "ENDERECO": "AVENIDA_IMPERADOR_5374_VILA_VERDE_SAO_PAULO_BRASIL", "CIDADE": "SAO_PAULO", "LATITUDE": -23.5144416, "LONGITUDE": -46.4523168, "LINK": "#N/D" }, "geometry": { "type": "Point", "coordinates": [ -46.4523168, -23.5144416 ] } },
{ "type": "Feature", "properties": { "CNPJ": 58687603000193, "AGENTE": "ROBERTA_ARAUJO_MEDRADO", "ACAO": "REALIZAR_SEGUNDA_VISITA", "RAZAO_SOCIAL": "INDIO_BOX_VIDROS", "ENDERECO": "AVENIDA_IMPERADOR_6200_JARDIM_SAO_SEBASTIAO_SAO_PAULO_BRASIL", "CIDADE": "SAO_PAULO", "LATITUDE": -23.5134497, "LONGITUDE": -46.4447128, "LINK": "#N/D" }, "geometry": { "type": "Point", "coordinates": [ -46.4447128, -23.5134497 ] } },
{ "type": "Feature", "properties": { "CNPJ": 33432855000140, "AGENTE": "ROBERTA_ARAUJO_MEDRADO", "ACAO": "REALIZAR_SEGUNDA_VISITA", "RAZAO_SOCIAL": "OTICA_VIZZO", "ENDERECO": "RUA_INTRUDO_23_JARDIM_RUTH_SAO_PAULO_BRASIL", "CIDADE": "SAO_PAULO", "LATITUDE": -23.51323, "LONGITUDE": -46.4443617, "LINK": "#N/D" }, "geometry": { "type": "Point", "coordinates": [ -46.4443617, -23.51323 ] } },
{ "type": "Feature", "properties": { "CNPJ": 37104872000100, "AGENTE": "ROBERTA_ARAUJO_MEDRADO", "ACAO": "REALIZAR_SEGUNDA_VISITA", "RAZAO_SOCIAL": "ACAI_DO_GEA", "ENDERECO": "RUA_ENTRUDO_27_JARDIM_RUTH_SAO_PAULO_BRASIL", "CIDADE": "SAO_PAULO", "LATITUDE": -23.5132137, "LONGITUDE": -46.4443094, "LINK": "#N/D" }, "geometry": { "type": "Point", "coordinates": [ -46.4443094, -23.5132137 ] } },
{ "type": "Feature", "properties": { "CNPJ": 3876013000117, "AGENTE": "ROBERTA_ARAUJO_MEDRADO", "ACAO": "REALIZAR_SEGUNDA_VISITA", "RAZAO_SOCIAL": "DECORACOES_VILLANY", "ENDERECO": "AVENIDA_IMPERADOR_5581_VILA_VERDE_SAO_PAULO_BRASIL", "CIDADE": "SAO_PAULO", "LATITUDE": -23.5134432, "LONGITUDE": -46.4458015, "LINK": "#N/D" }, "geometry": { "type": "Point", "coordinates": [ -46.4458015, -23.5134432 ] } },
{ "type": "Feature", "properties": { "CNPJ": 28639569000110, "AGENTE": "ROBERTA_ARAUJO_MEDRADO", "ACAO": "REALIZAR_SEGUNDA_VISITA", "RAZAO_SOCIAL": "HORIZON_AUTO_VIDROS", "ENDERECO": "AVENIDA_IMPERADOR_5485_JARDIM_SAO_SEBASTIAO_SAO_PAULO_BRASIL", "CIDADE": "SAO_PAULO", "LATITUDE": -23.5139038, "LONGITUDE": -46.4505351, "LINK": "#N/D" }, "geometry": { "type": "Point", "coordinates": [ -46.4505351, -23.5139038 ] } },
{ "type": "Feature", "properties": { "CNPJ": 18954457000109, "AGENTE": "ROBERTA_ARAUJO_MEDRADO", "ACAO": "REALIZAR_SEGUNDA_VISITA", "RAZAO_SOCIAL": "JR_OLIVEIRA", "ENDERECO": "AVENIDA_IMPERADOR_5455_JARDIM_SAO_SEBASTIAO_SAO_PAULO_BRASIL", "CIDADE": "SAO_PAULO", "LATITUDE": -23.5139378, "LONGITUDE": -46.4509239, "LINK": "#N/D" }, "geometry": { "type": "Point", "coordinates": [ -46.4509239, -23.5139378 ] } },
{ "type": "Feature", "properties": { "CNPJ": 15571916000179, "AGENTE": "ROBERTA_ARAUJO_MEDRADO", "ACAO": "REALIZAR_SEGUNDA_VISITA", "RAZAO_SOCIAL": "JAIRO_SOUZA", "ENDERECO": "AVENIDA_IMPERADOR_5155_JARDIM_SAO_JOAO_(ZONA_LESTE)_SAO_PAULO_BRASIL", "CIDADE": "SAO_PAULO", "LATITUDE": -23.5144831, "LONGITUDE": -46.453319, "LINK": "#N/D" }, "geometry": { "type": "Point", "coordinates": [ -46.453319, -23.5144831 ] } },
{ "type": "Feature", "properties": { "CNPJ": 15490802000102, "AGENTE": "ROBERTA_ARAUJO_MEDRADO", "ACAO": "REALIZAR_SEGUNDA_VISITA", "RAZAO_SOCIAL": "RMSS_CONFECCAO", "ENDERECO": "AVENIDA_IMPERADOR_4841_SAO_MIGUEL_PAULISTA_SAO_PAULO_BRASIL", "CIDADE": "SAO_PAULO", "LATITUDE": -23.5152796, "LONGITUDE": -46.4569082, "LINK": "#N/D" }, "geometry": { "type": "Point", "coordinates": [ -46.4569082, -23.5152796 ] } },
{ "type": "Feature", "properties": { "CNPJ": 48172478000125, "AGENTE": "ROBERTA_ARAUJO_MEDRADO", "ACAO": "REALIZAR_SEGUNDA_VISITA", "RAZAO_SOCIAL": "IDEAL_SUPLEMENTOS", "ENDERECO": "AVENIDA_IMPERADOR_4803_PARQUE_GUARANI_SAO_PAULO_BRASIL", "CIDADE": "SAO_PAULO", "LATITUDE": -23.5152252, "LONGITUDE": -46.4573555, "LINK": "#N/D" }, "geometry": { "type": "Point", "coordinates": [ -46.4573555, -23.5152252 ] } },
{ "type": "Feature", "properties": { "CNPJ": 46929871000195, "AGENTE": "ROBERTA_ARAUJO_MEDRADO", "ACAO": "REALIZAR_SEGUNDA_VISITA", "RAZAO_SOCIAL": "MENINA_DE_LUXO", "ENDERECO": "AVENIDA_IMPERADOR_4946_JARDIM_SAO_SEBASTIAO_SAO_PAULO_BRASIL", "CIDADE": "SAO_PAULO", "LATITUDE": -23.5155191, "LONGITUDE": -46.4568554, "LINK": "#N/D" }, "geometry": { "type": "Point", "coordinates": [ -46.4568554, -23.5155191 ] } }
]
}
