{
"type": "FeatureCollection",
"name": "RONALDO_PEREIRA",
"crs": { "type": "name", "properties": { "name": "urn:ogc:def:crs:OGC:1.3:CRS84" } },
"xy_coordinate_resolution": 1e-15,
"features": [
{ "type": "Feature", "properties": { "CNPJ": 53919572000135, "AGENTE": "RONALDO_PEREIRA", "ACAO": "REALIZAR_SEGUNDA_VISITA", "RAZAO_SOCIAL": "DISTRIBUIDORA_DE_BEBIDAS_DSL_LTDA_-_DSL_ADEGO", "ENDERECO": "AVENIDA_ADOLPHO_BLOCH_1914_CONJUNTO_HABITACIONAL_PARQUE_DA_FLORESTA_CAMPINAS", "CIDADE": "CAMPINAS", "LATITUDE": -22.9577217, "LONGITUDE": -47.2000617 }, "geometry": { "type": "Point", "coordinates": [ -47.2000617, -22.9577217 ] } },
{ "type": "Feature", "properties": { "CNPJ": 30911322000153, "AGENTE": "RONALDO_PEREIRA", "ACAO": "REALIZAR_SEGUNDA_VISITA", "RAZAO_SOCIAL": "J_L_B_DOS_REIS_VAREJAO_-_HOT_FRUT_DA_ROCA", "ENDERECO": "AVENIDA_ADOLPHO_BLOCH_470_CONJUNTO_HABITACIONAL_PARQUE_DA_FLORESTA_CAMPINAS", "CIDADE": "CAMPINAS", "LATITUDE": -22.9642053, "LONGITUDE": -47.2009341 }, "geometry": { "type": "Point", "coordinates": [ -47.2009341, -22.9642053 ] } },
{ "type": "Feature", "properties": { "CNPJ": 19660973000185, "AGENTE": "RONALDO_PEREIRA", "ACAO": "REALIZAR_SEGUNDA_VISITA", "RAZAO_SOCIAL": "RM_ALMEIDA_MERCADO_LTDA_-_RM_MERCADO", "ENDERECO": "AVENIDA_ADOLPHO_BLOCH_875_CONJUNTO_HABITACIONAL_PARQUE_DA_FLORESTA_CAMPINAS", "CIDADE": "CAMPINAS", "LATITUDE": -22.9632579, "LONGITUDE": -47.2009457 }, "geometry": { "type": "Point", "coordinates": [ -47.2009457, -22.9632579 ] } },
{ "type": "Feature", "properties": { "CNPJ": 19158569000108, "AGENTE": "RONALDO_PEREIRA", "ACAO": "REALIZAR_SEGUNDA_VISITA", "RAZAO_SOCIAL": "DROGARIA_RODRIGUES_E_MORAES_LTDA_-_DROGARIA_SAO_BENTO", "ENDERECO": "AVENIDA_ADOLPHO_BLOCH_895_CONJUNTO_RESIDENCIAL_PARQUE_SAO_BENTO_CAMPINAS", "CIDADE": "CAMPINAS", "LATITUDE": -22.9635123, "LONGITUDE": -47.2008331 }, "geometry": { "type": "Point", "coordinates": [ -47.2008331, -22.9635123 ] } },
{ "type": "Feature", "properties": { "CNPJ": 39665887000172, "AGENTE": "RONALDO_PEREIRA", "ACAO": "REALIZAR_SEGUNDA_VISITA", "RAZAO_SOCIAL": "MISTER_VINO_ADEGA_LTDA_-_MISTER_VINO_ADEGA", "ENDERECO": "AVENIDA_BADEN_POWELL_1929_JARDIM_NOVA_EUROPA_CAMPINAS", "CIDADE": "CAMPINAS", "LATITUDE": -22.945066, "LONGITUDE": -47.0518061 }, "geometry": { "type": "Point", "coordinates": [ -47.0518061, -22.945066 ] } },
{ "type": "Feature", "properties": { "CNPJ": 42618937000175, "AGENTE": "RONALDO_PEREIRA", "ACAO": "REALIZAR_SEGUNDA_VISITA", "RAZAO_SOCIAL": "PARQUE_PRADO_DELICIA_DE_BOLOS_LTDA_-_PARQUE_PRADO_DELICIA_DE_BOLOS", "ENDERECO": "AVENIDA_BADEN_POWELL_2026_JARDIM_NOVA_EUROPA_CAMPINAS", "CIDADE": "CAMPINAS", "LATITUDE": -22.9463201, "LONGITUDE": -47.0527696 }, "geometry": { "type": "Point", "coordinates": [ -47.0527696, -22.9463201 ] } },
{ "type": "Feature", "properties": { "CNPJ": 11373146000107, "AGENTE": "RONALDO_PEREIRA", "ACAO": "REALIZAR_SEGUNDA_VISITA", "RAZAO_SOCIAL": "JOSE_DE_SOUZA_FILHO_CABELEIREIRO_-_ZEZINHO_CABELEIREIRO", "ENDERECO": "AVENIDA_BADEN_POWELL_2026_JARDIM_NOVA_EUROPA_CAMPINAS", "CIDADE": "CAMPINAS", "LATITUDE": -22.9463629, "LONGITUDE": -47.0532056 }, "geometry": { "type": "Point", "coordinates": [ -47.0532056, -22.9463629 ] } },
{ "type": "Feature", "properties": { "CNPJ": 19906620000112, "AGENTE": "RONALDO_PEREIRA", "ACAO": "REALIZAR_SEGUNDA_VISITA", "RAZAO_SOCIAL": "MACEDO_&_GOMES_SEMI_JOIAS_E_ACESSORIOS_LTDA_-_LYSA_SEMI_JOIAS_E_ACESSORIOS", "ENDERECO": "AVENIDA_BADEN_POWELL_2026_JARDIM_NOVA_EUROPA_CAMPINAS", "CIDADE": "CAMPINAS", "LATITUDE": -22.9463647, "LONGITUDE": -47.0526165 }, "geometry": { "type": "Point", "coordinates": [ -47.0526165, -22.9463647 ] } },
{ "type": "Feature", "properties": { "CNPJ": 17548940000112, "AGENTE": "RONALDO_PEREIRA", "ACAO": "REALIZAR_SEGUNDA_VISITA", "RAZAO_SOCIAL": "TOPMAIS_-_SUPLEMENTOS_ALIMENTICIOS_PRODUTOS_NATURAIS_E_INSUMOS_PARA_CERVEJARIA_LTDA_-_TOPMAIS_-_SUPLEMENTOS_ALIMENTICIOS_PRODUTOS_NATURAIS", "ENDERECO": "AVENIDA_BADEN_POWELL_2026_JARDIM_NOVA_EUROPA_CAMPINAS", "CIDADE": "CAMPINAS", "LATITUDE": -22.9464358, "LONGITUDE": -47.052533 }, "geometry": { "type": "Point", "coordinates": [ -47.052533, -22.9464358 ] } },
{ "type": "Feature", "properties": { "CNPJ": 4279077000101, "AGENTE": "RONALDO_PEREIRA", "ACAO": "REALIZAR_SEGUNDA_VISITA", "RAZAO_SOCIAL": "JV_EMPREENDIMENTOS_EM_COMERCIO_LTDA_-_HOMEM.COM.STORE", "ENDERECO": "AVENIDA_BADEN_POWELL_2026_JARDIM_NOVA_EUROPA_CAMPINAS", "CIDADE": "CAMPINAS", "LATITUDE": -22.9464367, "LONGITUDE": -47.0528637 }, "geometry": { "type": "Point", "coordinates": [ -47.0528637, -22.9464367 ] } },
{ "type": "Feature", "properties": { "CNPJ": 24708462000126, "AGENTE": "RONALDO_PEREIRA", "ACAO": "REALIZAR_SEGUNDA_VISITA", "RAZAO_SOCIAL": "R_DO_N_RECUPERADORA_DE_FAROIS_-_RECUPERADORA_DE_FAROIS", "ENDERECO": "AVENIDA_BRASILIA_1206_VILA_PERSEU_LEITE_DE_BARROS_CAMPINAS", "CIDADE": "CAMPINAS", "LATITUDE": -22.9213067, "LONGITUDE": -47.1147602 }, "geometry": { "type": "Point", "coordinates": [ -47.1147602, -22.9213067 ] } },
{ "type": "Feature", "properties": { "CNPJ": 59874707000170, "AGENTE": "RONALDO_PEREIRA", "ACAO": "REALIZAR_SEGUNDA_VISITA", "RAZAO_SOCIAL": "59.874.707_ISABELY_RAYSSA_DE_SOUZA_SANTOS_-_ESPELHO_ENCANTADO", "ENDERECO": "AVENIDA_CINCO_617_NUCLEO_RESIDENCIAL_VILA_VITORIA_CAMPINAS", "CIDADE": "CAMPINAS", "LATITUDE": -22.9769213, "LONGITUDE": -47.1692187 }, "geometry": { "type": "Point", "coordinates": [ -47.1692187, -22.9769213 ] } },
{ "type": "Feature", "properties": { "CNPJ": 36271111000180, "AGENTE": "RONALDO_PEREIRA", "ACAO": "REALIZAR_SEGUNDA_VISITA", "RAZAO_SOCIAL": "LEONARDO_DOS_SANTOS_COSTA_-_AGRO_COSTA", "ENDERECO": "AVENIDA_COMENDADOR_EMILIO_PIERI_25_CONJUNTO_HABITACIONAL_VIDA_NOVA_CAMPINAS", "CIDADE": "CAMPINAS", "LATITUDE": -22.9759447, "LONGITUDE": -47.1718789 }, "geometry": { "type": "Point", "coordinates": [ -47.1718789, -22.9759447 ] } },
{ "type": "Feature", "properties": { "CNPJ": 35845954000180, "AGENTE": "RONALDO_PEREIRA", "ACAO": "REALIZAR_SEGUNDA_VISITA", "RAZAO_SOCIAL": "DOM_BOSCO_SUPERMERCADOS_LTDA_-_MERCADO_DOM_BOSCO", "ENDERECO": "AVENIDA_COMENDADOR_EMILIO_PIERI_605_CONJUNTO_HABITACIONAL_VIDA_NOVA_CAMPINAS", "CIDADE": "CAMPINAS", "LATITUDE": -22.9753914, "LONGITUDE": -47.1740488 }, "geometry": { "type": "Point", "coordinates": [ -47.1740488, -22.9753914 ] } },
{ "type": "Feature", "properties": { "CNPJ": 54878424000182, "AGENTE": "RONALDO_PEREIRA", "ACAO": "REALIZAR_SEGUNDA_VISITA", "RAZAO_SOCIAL": "S_2_X_-_SOLUCOES_EM_PECAS_E_FERRAMENTAS_LTDA_-_S_2_X_-_SOLUCOES_EM_PECAS_E_FERRAMENTAS", "ENDERECO": "AVENIDA_COMENDADOR_EMILIO_PIERI_794_CAMPINAS_CAMPINAS", "CIDADE": "CAMPINAS", "LATITUDE": -22.9760648, "LONGITUDE": -47.1720133 }, "geometry": { "type": "Point", "coordinates": [ -47.1720133, -22.9760648 ] } },
{ "type": "Feature", "properties": { "CNPJ": 48240747000143, "AGENTE": "RONALDO_PEREIRA", "ACAO": "REALIZAR_SEGUNDA_VISITA", "RAZAO_SOCIAL": "ARENA_VINCI_LTDA_-_ARENA_VINCI", "ENDERECO": "AVENIDA_HOMERO_VASCONCELOS_DE_SOUZA_CAMARGO_1003_JARDIM_IPAUSSURAMA_CAMPINAS", "CIDADE": "CAMPINAS", "LATITUDE": -22.925287, "LONGITUDE": -47.1204793 }, "geometry": { "type": "Point", "coordinates": [ -47.1204793, -22.925287 ] } },
{ "type": "Feature", "properties": { "CNPJ": 4294064000101, "AGENTE": "RONALDO_PEREIRA", "ACAO": "REALIZAR_SEGUNDA_VISITA", "RAZAO_SOCIAL": "ARTHUR-ARAUJO_COMERCIO_DE_ROUPAS_LTDA_-_MARKA_MODAS", "ENDERECO": "AVENIDA_HOMERO_VASCONCELOS_DE_SOUZA_CAMARGO_946_PARQUE_DA_FAZENDA_CAMPINAS", "CIDADE": "CAMPINAS", "LATITUDE": -22.9253923, "LONGITUDE": -47.1211828 }, "geometry": { "type": "Point", "coordinates": [ -47.1211828, -22.9253923 ] } },
{ "type": "Feature", "properties": { "CNPJ": 68211713000138, "AGENTE": "RONALDO_PEREIRA", "ACAO": "REALIZAR_SEGUNDA_VISITA", "RAZAO_SOCIAL": "UAI-LANCHONETE_E_DOCERIA_LTDA_-_REW_RESTAURANTE_UAI", "ENDERECO": "AVENIDA_IBIRAPUERA_932_JARDIM_LONDRES_CAMPINAS", "CIDADE": "CAMPINAS", "LATITUDE": -22.9070853, "LONGITUDE": -47.1089607 }, "geometry": { "type": "Point", "coordinates": [ -47.1089607, -22.9070853 ] } },
{ "type": "Feature", "properties": { "CNPJ": 54123924000104, "AGENTE": "RONALDO_PEREIRA", "ACAO": "REALIZAR_SEGUNDA_VISITA", "RAZAO_SOCIAL": "TERA_METAL_LTDA_-_TERA_METAL", "ENDERECO": "AVENIDA_JOHN_BOYD_DUNLOP_4873_CIDADE_SATELITE_IRIS_CAMPINAS", "CIDADE": "CAMPINAS", "LATITUDE": -22.9329593, "LONGITUDE": -47.1303141 }, "geometry": { "type": "Point", "coordinates": [ -47.1303141, -22.9329593 ] } },
{ "type": "Feature", "properties": { "CNPJ": 61023345000155, "AGENTE": "RONALDO_PEREIRA", "ACAO": "REALIZAR_SEGUNDA_VISITA", "RAZAO_SOCIAL": "61.023.345_ROSEMEIRE_DA_ROCHA_TAVARES_-_MEI_SALGADOS", "ENDERECO": "AVENIDA_JOHN_BOYD_DUNLOP_8600_JARDIM_AURELIA_CAMPINAS", "CIDADE": "CAMPINAS", "LATITUDE": -22.9367286, "LONGITUDE": -47.1602707 }, "geometry": { "type": "Point", "coordinates": [ -47.1602707, -22.9367286 ] } },
{ "type": "Feature", "properties": { "CNPJ": 53963883000100, "AGENTE": "RONALDO_PEREIRA", "ACAO": "REALIZAR_SEGUNDA_VISITA", "RAZAO_SOCIAL": "53.963.883_GERSON_LUIZ_DE_SOUZA_FILHO_-_GM_MODAS", "ENDERECO": "AVENIDA_JOHN_BOYD_DUNLOP_8620_CIDADE_SATELITE_IRIS_CAMPINAS", "CIDADE": "CAMPINAS", "LATITUDE": -22.9366883, "LONGITUDE": -47.16194 }, "geometry": { "type": "Point", "coordinates": [ -47.16194, -22.9366883 ] } },
{ "type": "Feature", "properties": { "CNPJ": 46246044000105, "AGENTE": "RONALDO_PEREIRA", "ACAO": "REALIZAR_SEGUNDA_VISITA", "RAZAO_SOCIAL": "CONSERVATORIO_CAMPINAS_LTDA_-_CONSERVATORIO_CAMPINAS", "ENDERECO": "AVENIDA_JORGE_TIBIRICA_1945_JARDIM_DOS_OLIVEIRAS_CAMPINAS", "CIDADE": "CAMPINAS", "LATITUDE": -22.9356632, "LONGITUDE": -47.0496234 }, "geometry": { "type": "Point", "coordinates": [ -47.0496234, -22.9356632 ] } },
{ "type": "Feature", "properties": { "CNPJ": 39953460000170, "AGENTE": "RONALDO_PEREIRA", "ACAO": "REALIZAR_SEGUNDA_VISITA", "RAZAO_SOCIAL": "ARMARINHOS_PIVA_LTDA_-_ARMARINHOS_PIVQ", "ENDERECO": "AVENIDA_LUIS_ANTONIO_PINHEIRO_PORTO_272_LOTEAMENTO_RESIDENCIAL_PORTO_SEGURO_CAMPINAS", "CIDADE": "CAMPINAS", "LATITUDE": -22.9709442, "LONGITUDE": -47.16995 }, "geometry": { "type": "Point", "coordinates": [ -47.16995, -22.9709442 ] } },
{ "type": "Feature", "properties": { "CNPJ": 40696638000123, "AGENTE": "RONALDO_PEREIRA", "ACAO": "REALIZAR_SEGUNDA_VISITA", "RAZAO_SOCIAL": "PADARIA_E_CONFEITARIA_PORTO_SEGURO_LTDA_-_PADARIA_E_CONFEITARIA_ESTRELA_DA_VILA", "ENDERECO": "AVENIDA_LUIS_ANTONIO_PINHEIRO_PORTO_302_LOTEAMENTO_RESIDENCIAL_PORTO_SEGURO_CAMPINAS", "CIDADE": "CAMPINAS", "LATITUDE": -22.9713046, "LONGITUDE": -47.1703225 }, "geometry": { "type": "Point", "coordinates": [ -47.1703225, -22.9713046 ] } },
{ "type": "Feature", "properties": { "CNPJ": 29081096000141, "AGENTE": "RONALDO_PEREIRA", "ACAO": "REALIZAR_SEGUNDA_VISITA", "RAZAO_SOCIAL": "ZANON_FITNESS_ACADEMIA_LTDA_-_ZANON_FITNESS_ACADEMIA", "ENDERECO": "AVENIDA_LUIS_ANTONIO_PINHEIRO_PORTO_332_RESIDENCIAL_CAMPINA_VERDE_CAMPINAS", "CIDADE": "CAMPINAS", "LATITUDE": -22.9713277, "LONGITUDE": -47.1705418 }, "geometry": { "type": "Point", "coordinates": [ -47.1705418, -22.9713277 ] } },
{ "type": "Feature", "properties": { "CNPJ": 47951117000114, "AGENTE": "RONALDO_PEREIRA", "ACAO": "REALIZAR_SEGUNDA_VISITA", "RAZAO_SOCIAL": "ARNALDO_VENANCIO_RIBEIRO_LTDA_-_LS_LAR_E_CONSTRUCAO", "ENDERECO": "AVENIDA_LUIS_ANTONIO_PINHEIRO_PORTO_386_RESIDENCIAL_SAO_JOSE_CAMPINAS", "CIDADE": "CAMPINAS", "LATITUDE": -22.9690464, "LONGITUDE": -47.1674003 }, "geometry": { "type": "Point", "coordinates": [ -47.1674003, -22.9690464 ] } },
{ "type": "Feature", "properties": { "CNPJ": 15260521000155, "AGENTE": "RONALDO_PEREIRA", "ACAO": "REALIZAR_SEGUNDA_VISITA", "RAZAO_SOCIAL": "MARCIO_GOMES_PNEUS_-_FERRARI_AUTO_CENTER", "ENDERECO": "AVENIDA_LUIS_ANTONIO_PINHEIRO_PORTO_402_LOTEAMENTO_RESIDENCIAL_PORTO_SEGURO_CAMPINAS", "CIDADE": "CAMPINAS", "LATITUDE": -22.971825, "LONGITUDE": -47.1710433 }, "geometry": { "type": "Point", "coordinates": [ -47.1710433, -22.971825 ] } },
{ "type": "Feature", "properties": { "CNPJ": 13885233000160, "AGENTE": "RONALDO_PEREIRA", "ACAO": "REALIZAR_SEGUNDA_VISITA", "RAZAO_SOCIAL": "13.885.233_JUVENAL_RODRIGUES_-_FUNILARIA_JUVENAL", "ENDERECO": "AVENIDA_MARCIO_EGIDIO_DE_SOUZA_ARANHA_421_JARDIM_IPAUSSURAMA_CAMPINAS", "CIDADE": "CAMPINAS", "LATITUDE": -22.9302104, "LONGITUDE": -47.1217119 }, "geometry": { "type": "Point", "coordinates": [ -47.1217119, -22.9302104 ] } },
{ "type": "Feature", "properties": { "CNPJ": 74356452000147, "AGENTE": "RONALDO_PEREIRA", "ACAO": "REALIZAR_SEGUNDA_VISITA", "RAZAO_SOCIAL": "MINI_MERCADO_CONCEICAO_DE_SA_LTDA_-_MINI_MERCADO_CONCEICAO_DE_SA", "ENDERECO": "AVENIDA_MARCIO_EGIDIO_DE_SOUZA_ARANHA_50_JARDIM_IPAUSSURAMA_CAMPINAS", "CIDADE": "CAMPINAS", "LATITUDE": -22.9279477, "LONGITUDE": -47.1242418 }, "geometry": { "type": "Point", "coordinates": [ -47.1242418, -22.9279477 ] } },
{ "type": "Feature", "properties": { "CNPJ": 39383220000187, "AGENTE": "RONALDO_PEREIRA", "ACAO": "REALIZAR_SEGUNDA_VISITA", "RAZAO_SOCIAL": "VANDERLEI_PEREIRA_DOS_SANTOS_49089110968_-_DERLEY_LANCHES", "ENDERECO": "AVENIDA_MARCIO_EGIDIO_DE_SOUZA_ARANHA_85_JARDIM_IPAUSSURAMA_CAMPINAS", "CIDADE": "CAMPINAS", "LATITUDE": -22.9278284, "LONGITUDE": -47.1237749 }, "geometry": { "type": "Point", "coordinates": [ -47.1237749, -22.9278284 ] } },
{ "type": "Feature", "properties": { "CNPJ": 32029155000147, "AGENTE": "RONALDO_PEREIRA", "ACAO": "REALIZAR_SEGUNDA_VISITA", "RAZAO_SOCIAL": "AGRO_PETS_PEDRINIS_LTDA_-_AGRO_PEDRINI", "ENDERECO": "AVENIDA_NELSON_FERREIRA_DE_SOUZA_37_JARDIM_FLORENCE_CAMPINAS", "CIDADE": "CAMPINAS", "LATITUDE": -22.9369702, "LONGITUDE": -47.1616135 }, "geometry": { "type": "Point", "coordinates": [ -47.1616135, -22.9369702 ] } },
{ "type": "Feature", "properties": { "CNPJ": 44132825000135, "AGENTE": "RONALDO_PEREIRA", "ACAO": "REALIZAR_SEGUNDA_VISITA", "RAZAO_SOCIAL": "BR1_COMERCIO_DE_PRODUTOS_ALIMENTICIOS_LTDA_-_SUPERMERCADO_CONQUISTA", "ENDERECO": "AVENIDA_NELSON_FERREIRA_DE_SOUZA_400_JARDIM_FLORENCE_2_CAMPINAS", "CIDADE": "CAMPINAS", "LATITUDE": -22.9395913, "LONGITUDE": -47.163774 }, "geometry": { "type": "Point", "coordinates": [ -47.163774, -22.9395913 ] } },
{ "type": "Feature", "properties": { "CNPJ": 50715613000183, "AGENTE": "RONALDO_PEREIRA", "ACAO": "REALIZAR_SEGUNDA_VISITA", "RAZAO_SOCIAL": "50.715.613_GEAN_CARLOS_CONSOLARO_DE_ALMEIDA_-_SOS_NARQUILLE", "ENDERECO": "AVENIDA_NELSON_FERREIRA_DE_SOUZA_610_JARDIM_FLORENCE_CAMPINAS", "CIDADE": "CAMPINAS", "LATITUDE": -22.9412135, "LONGITUDE": -47.1645487 }, "geometry": { "type": "Point", "coordinates": [ -47.1645487, -22.9412135 ] } },
{ "type": "Feature", "properties": { "CNPJ": 3223482000137, "AGENTE": "RONALDO_PEREIRA", "ACAO": "REALIZAR_SEGUNDA_VISITA", "RAZAO_SOCIAL": "HOT_GAS_COMERCIO_DE_GAS_LTDA_-_HOT_GAS", "ENDERECO": "AVENIDA_NELSON_FERREIRA_DE_SOUZA_640_JARDIM_FLORENCE_CAMPINAS", "CIDADE": "CAMPINAS", "LATITUDE": -22.9413583, "LONGITUDE": -47.1647867 }, "geometry": { "type": "Point", "coordinates": [ -47.1647867, -22.9413583 ] } },
{ "type": "Feature", "properties": { "CNPJ": 65720872000170, "AGENTE": "RONALDO_PEREIRA", "ACAO": "REALIZAR_SEGUNDA_VISITA", "RAZAO_SOCIAL": "ALFREDO_JOSE_TEIXEIRA_E_CIA_LTDA_-_DEPOSITO_TEIXEIRA", "ENDERECO": "AVENIDA_NELSON_FERREIRA_DE_SOUZA_716_JARDIM_FLORENCE_CAMPINAS", "CIDADE": "CAMPINAS", "LATITUDE": -22.9420867, "LONGITUDE": -47.1652233 }, "geometry": { "type": "Point", "coordinates": [ -47.1652233, -22.9420867 ] } },
{ "type": "Feature", "properties": { "CNPJ": 43809451000187, "AGENTE": "RONALDO_PEREIRA", "ACAO": "REALIZAR_SEGUNDA_VISITA", "RAZAO_SOCIAL": "JOYCE_LOPES_CARVALHO_COSTA_42625112867_-_BAR_E_MERCEARIA_2J", "ENDERECO": "AVENIDA_NELSON_FERREIRA_DE_SOUZA_770_JARDIM_FLORENCE_CAMPINAS", "CIDADE": "CAMPINAS", "LATITUDE": -22.942676, "LONGITUDE": -47.1655534 }, "geometry": { "type": "Point", "coordinates": [ -47.1655534, -22.942676 ] } },
{ "type": "Feature", "properties": { "CNPJ": 33219110000106, "AGENTE": "RONALDO_PEREIRA", "ACAO": "REALIZAR_SEGUNDA_VISITA", "RAZAO_SOCIAL": "ALEXANDRE_DE_MELO_DOS_SANTOS_11925539857_-_MELO_MAFERIQIS", "ENDERECO": "AVENIDA_NELSON_FERREIRA_DE_SOUZA_961_JARDIM_FLORENCE_CAMPINAS", "CIDADE": "CAMPINAS", "LATITUDE": -22.9441659, "LONGITUDE": -47.1659225 }, "geometry": { "type": "Point", "coordinates": [ -47.1659225, -22.9441659 ] } },
{ "type": "Feature", "properties": { "CNPJ": 60152397000169, "AGENTE": "RONALDO_PEREIRA", "ACAO": "REALIZAR_SEGUNDA_VISITA", "RAZAO_SOCIAL": "60.152.397_FELIPE_DOS_SANTOS_FERREIRA_-_ALLAN_TOQUE", "ENDERECO": "AVENIDA_NELSON_FERREIRA_DE_SOUZA_970_JARDIM_FLORENCE_CAMPINAS", "CIDADE": "CAMPINAS", "LATITUDE": -22.9442233, "LONGITUDE": -47.16593 }, "geometry": { "type": "Point", "coordinates": [ -47.16593, -22.9442233 ] } },
{ "type": "Feature", "properties": { "CNPJ": 57905670000174, "AGENTE": "RONALDO_PEREIRA", "ACAO": "REALIZAR_SEGUNDA_VISITA", "RAZAO_SOCIAL": "KEITAI_STORE_LTDA_-_KEITAI_STORE", "ENDERECO": "AVENIDA_OSWALDO_VEIGA_628_BELA_ALIANCA_CAMPINAS", "CIDADE": "CAMPINAS", "LATITUDE": -22.9341607, "LONGITUDE": -47.1332878 }, "geometry": { "type": "Point", "coordinates": [ -47.1332878, -22.9341607 ] } },
{ "type": "Feature", "properties": { "CNPJ": 38244549000102, "AGENTE": "RONALDO_PEREIRA", "ACAO": "REALIZAR_SEGUNDA_VISITA", "RAZAO_SOCIAL": "PRAIA_DO_ACAI_LTDA_-_PRAIA_DO_ACAI", "ENDERECO": "AVENIDA_PAULO_PROVENZA_SOBRINHO_1100_JARDIM_CAMPOS_ELISEOS_CAMPINAS", "CIDADE": "CAMPINAS", "LATITUDE": -22.9272823, "LONGITUDE": -47.1100971 }, "geometry": { "type": "Point", "coordinates": [ -47.1100971, -22.9272823 ] } },
{ "type": "Feature", "properties": { "CNPJ": 52822913000197, "AGENTE": "RONALDO_PEREIRA", "ACAO": "REALIZAR_SEGUNDA_VISITA", "RAZAO_SOCIAL": "FRANTINS_CAMPINAS_LTDA_-_FARMACIA_MAESTRA", "ENDERECO": "AVENIDA_PRESIDENTE_JUSCELINO_1404_JARDIM_CAMPOS_ELISEOS_CAMPINAS", "CIDADE": "CAMPINAS", "LATITUDE": -22.9305382, "LONGITUDE": -47.1091556 }, "geometry": { "type": "Point", "coordinates": [ -47.1091556, -22.9305382 ] } },
{ "type": "Feature", "properties": { "CNPJ": 32421082000134, "AGENTE": "RONALDO_PEREIRA", "ACAO": "REALIZAR_SEGUNDA_VISITA", "RAZAO_SOCIAL": "32.421.082_JESSE_JAMES_TELES_JUNIOR_-_4_4_BONI_LAVA_RAPIDO", "ENDERECO": "AVENIDA_SAO_JOSE_DOS_CAMPOS_1100_JARDIM_NOVA_EUROPA_CAMPINAS", "CIDADE": "CAMPINAS", "LATITUDE": -22.9418777, "LONGITUDE": -47.0520579 }, "geometry": { "type": "Point", "coordinates": [ -47.0520579, -22.9418777 ] } },
{ "type": "Feature", "properties": { "CNPJ": 58532129000120, "AGENTE": "RONALDO_PEREIRA", "ACAO": "REALIZAR_SEGUNDA_VISITA", "RAZAO_SOCIAL": "ESPETINHO_TUTTI_ICE_FOODS_LTDA_-_ESPETINHO_TUTTI_ICE_FOODS", "ENDERECO": "AVENIDA_SAO_JOSE_DOS_CAMPOS_1235_JARDIM_NOVA_EUROPA_CAMPINAS", "CIDADE": "CAMPINAS", "LATITUDE": -22.942745, "LONGITUDE": -47.0516493 }, "geometry": { "type": "Point", "coordinates": [ -47.0516493, -22.942745 ] } },
{ "type": "Feature", "properties": { "CNPJ": 5596302000198, "AGENTE": "RONALDO_PEREIRA", "ACAO": "REALIZAR_SEGUNDA_VISITA", "RAZAO_SOCIAL": "SOUZA-SOUZA_BORRACHARIA_E_PNEUS_LTDA_-_BORRACHARIA_SOUZA", "ENDERECO": "AVENIDA_SAO_JOSE_DOS_CAMPOS_1316_VILA_CAMPOS_SALES_CAMPINAS", "CIDADE": "CAMPINAS", "LATITUDE": -22.9435383, "LONGITUDE": -47.0521183 }, "geometry": { "type": "Point", "coordinates": [ -47.0521183, -22.9435383 ] } },
{ "type": "Feature", "properties": { "CNPJ": 31112365000131, "AGENTE": "RONALDO_PEREIRA", "ACAO": "REALIZAR_SEGUNDA_VISITA", "RAZAO_SOCIAL": "MRH_COMERCIO_E_SERVICOS_DE_PET-SHOP_LTDA_-_PET_MAIS", "ENDERECO": "AVENIDA_SAO_JOSE_DOS_CAMPOS_1379_VILA_CAMPOS_SALES_CAMPINAS", "CIDADE": "CAMPINAS", "LATITUDE": -22.9438421, "LONGITUDE": -47.0517094 }, "geometry": { "type": "Point", "coordinates": [ -47.0517094, -22.9438421 ] } },
{ "type": "Feature", "properties": { "CNPJ": 20660838000119, "AGENTE": "RONALDO_PEREIRA", "ACAO": "REALIZAR_SEGUNDA_VISITA", "RAZAO_SOCIAL": "LUIZ_FLORINDO_DE_PIERI_60053550820_-_LF_SOLDAS", "ENDERECO": "AVENIDA_SAO_JOSE_DOS_CAMPOS_1380_VILA_CAMPOS_SALES_CAMPINAS", "CIDADE": "CAMPINAS", "LATITUDE": -22.9444883, "LONGITUDE": -47.0523632 }, "geometry": { "type": "Point", "coordinates": [ -47.0523632, -22.9444883 ] } },
{ "type": "Feature", "properties": { "CNPJ": 3557313000133, "AGENTE": "RONALDO_PEREIRA", "ACAO": "REALIZAR_SEGUNDA_VISITA", "RAZAO_SOCIAL": "CIVILSANE_EQUIPAMENTOS_E_BOMBAS_LTDA_-_CIVILSANE_EQUIPAMENTOS_E_BOMBAS", "ENDERECO": "AVENIDA_SAO_JOSE_DOS_CAMPOS_1398_VILA_CAMPOS_SALES_CAMPINAS", "CIDADE": "CAMPINAS", "LATITUDE": -22.9438638, "LONGITUDE": -47.0516946 }, "geometry": { "type": "Point", "coordinates": [ -47.0516946, -22.9438638 ] } },
{ "type": "Feature", "properties": { "CNPJ": 17863414000147, "AGENTE": "RONALDO_PEREIRA", "ACAO": "REALIZAR_SEGUNDA_VISITA", "RAZAO_SOCIAL": "17.863.414_ALEXANDRE_FRAGA_MOREIRA_STORTI_-_STORT_FITNESS", "ENDERECO": "AVENIDA_SAO_JOSE_DOS_CAMPOS_1400_VILA_CAMPOS_SALES_CAMPINAS", "CIDADE": "CAMPINAS", "LATITUDE": -22.9443799, "LONGITUDE": -47.052214 }, "geometry": { "type": "Point", "coordinates": [ -47.052214, -22.9443799 ] } },
{ "type": "Feature", "properties": { "CNPJ": 24683879000181, "AGENTE": "RONALDO_PEREIRA", "ACAO": "REALIZAR_SEGUNDA_VISITA", "RAZAO_SOCIAL": "ANTONIO_SERGIO_FORIGATO_82027935800_-_COCO_DOCE", "ENDERECO": "AVENIDA_SAO_JOSE_DOS_CAMPOS_1423_VILA_CAMPOS_SALES_CAMPINAS", "CIDADE": "CAMPINAS", "LATITUDE": -22.9443358, "LONGITUDE": -47.0517949 }, "geometry": { "type": "Point", "coordinates": [ -47.0517949, -22.9443358 ] } },
{ "type": "Feature", "properties": { "CNPJ": 12313035000160, "AGENTE": "RONALDO_PEREIRA", "ACAO": "REALIZAR_SEGUNDA_VISITA", "RAZAO_SOCIAL": "M.L.R._DE_CASTRO_-_GANASU_RESTAURANTE", "ENDERECO": "ESTRADA_FRIBURGO_110_CONJUNTO_HABITACIONAL_VIDA_NOVA_CAMPINAS", "CIDADE": "CAMPINAS", "LATITUDE": -22.9737, "LONGITUDE": -47.1716195 }, "geometry": { "type": "Point", "coordinates": [ -47.1716195, -22.9737 ] } },
{ "type": "Feature", "properties": { "CNPJ": 17170827000146, "AGENTE": "RONALDO_PEREIRA", "ACAO": "REALIZAR_SEGUNDA_VISITA", "RAZAO_SOCIAL": "BRUNO_ERIK_DA_SILVA_SOARES_-_ADEGA_O_CANECO", "ENDERECO": "ESTRADA_FRIBURGO_158_CONJUNTO_HABITACIONAL_VIDA_NOVA_CAMPINAS", "CIDADE": "CAMPINAS", "LATITUDE": -22.9742324, "LONGITUDE": -47.1715575 }, "geometry": { "type": "Point", "coordinates": [ -47.1715575, -22.9742324 ] } },
{ "type": "Feature", "properties": { "CNPJ": 2438335000111, "AGENTE": "RONALDO_PEREIRA", "ACAO": "REALIZAR_SEGUNDA_VISITA", "RAZAO_SOCIAL": "TA_&_TALY_DROGARIA_LTDA_-_FARMA_VIDA", "ENDERECO": "ESTRADA_FRIBURGO_220_CONJUNTO_HABITACIONAL_VIDA_NOVA_CAMPINAS", "CIDADE": "CAMPINAS", "LATITUDE": -22.9747559, "LONGITUDE": -47.1716064 }, "geometry": { "type": "Point", "coordinates": [ -47.1716064, -22.9747559 ] } },
{ "type": "Feature", "properties": { "CNPJ": 45380488000168, "AGENTE": "RONALDO_PEREIRA", "ACAO": "REALIZAR_SEGUNDA_VISITA", "RAZAO_SOCIAL": "AJRA_COMERCIO_DE_MEDICAMENTOS_LTDA_-_DROGARIA_DOM_BOSCO", "ENDERECO": "ESTRADA_FRIBURGO_312_CONJUNTO_HABITACIONAL_VIDA_NOVA_CAMPINAS", "CIDADE": "CAMPINAS", "LATITUDE": -22.9756328, "LONGITUDE": -47.1715823 }, "geometry": { "type": "Point", "coordinates": [ -47.1715823, -22.9756328 ] } },
{ "type": "Feature", "properties": { "CNPJ": 10549937000174, "AGENTE": "RONALDO_PEREIRA", "ACAO": "REALIZAR_SEGUNDA_VISITA", "RAZAO_SOCIAL": "M_&_R_-_MATERIAIS_PARA_CONSTRUCAO_LTDA_-_M_&_R_-_MATERIAIS_PARA_CONSTRUCAO", "ENDERECO": "ESTRADA_FRIBURGO_52_CONJUNTO_HABITACIONAL_VIDA_NOVA_CAMPINAS", "CIDADE": "CAMPINAS", "LATITUDE": -22.9732767, "LONGITUDE": -47.1716414 }, "geometry": { "type": "Point", "coordinates": [ -47.1716414, -22.9732767 ] } },
{ "type": "Feature", "properties": { "CNPJ": 3065263000177, "AGENTE": "RONALDO_PEREIRA", "ACAO": "REALIZAR_SEGUNDA_VISITA", "RAZAO_SOCIAL": "CONSTRU-SAN_MATERIAIS_PARA_CONSTRUCOES_LTDA_-_CONSTRU-SAN_MATERIAIS_PARA_CONSTRUCOES", "ENDERECO": "ESTRADA_FRIBURGO_690_JARDIM_MARAJO_CAMPINAS", "CIDADE": "CAMPINAS", "LATITUDE": -22.9786956, "LONGITUDE": -47.1732972 }, "geometry": { "type": "Point", "coordinates": [ -47.1732972, -22.9786956 ] } },
{ "type": "Feature", "properties": { "CNPJ": 42398273000186, "AGENTE": "RONALDO_PEREIRA", "ACAO": "REALIZAR_SEGUNDA_VISITA", "RAZAO_SOCIAL": "42.398.273_RICARDO_DA_SILVA_DE_SOUZA_-_HELETRICA_E_HIDRAULICA_TRIGEMEOS", "ENDERECO": "ESTRADA_MUNICIPAL_DA_PAZ_13_SANTA_CLARA_CAMPINAS", "CIDADE": "CAMPINAS", "LATITUDE": -22.9516637, "LONGITUDE": -47.1880824 }, "geometry": { "type": "Point", "coordinates": [ -47.1880824, -22.9516637 ] } },
{ "type": "Feature", "properties": { "CNPJ": 28938644000144, "AGENTE": "RONALDO_PEREIRA", "ACAO": "REALIZAR_SEGUNDA_VISITA", "RAZAO_SOCIAL": "FREIZA_COMERCIO_DE_ROUPAS_LTDA_-_PINK_MODA_FEMININA", "ENDERECO": "RUA_13_DE_MAIO_200_CENTRO_CAMPINAS", "CIDADE": "CAMPINAS", "LATITUDE": -22.9076585, "LONGITUDE": -47.0646023 }, "geometry": { "type": "Point", "coordinates": [ -47.0646023, -22.9076585 ] } },
{ "type": "Feature", "properties": { "CNPJ": 4041427000199, "AGENTE": "RONALDO_PEREIRA", "ACAO": "REALIZAR_SEGUNDA_VISITA", "RAZAO_SOCIAL": "MENDES_&_OLIVEIRA_LTDA_-_MERCADO_OLIVEIRA", "ENDERECO": "RUA_5_8_NUCLEO_RESIDENCIAL_VILA_VITORIA_CAMPINAS", "CIDADE": "CAMPINAS", "LATITUDE": -22.9749666, "LONGITUDE": -47.1706137 }, "geometry": { "type": "Point", "coordinates": [ -47.1706137, -22.9749666 ] } },
{ "type": "Feature", "properties": { "CNPJ": 15369278000108, "AGENTE": "RONALDO_PEREIRA", "ACAO": "REALIZAR_SEGUNDA_VISITA", "RAZAO_SOCIAL": "ISRAEL_GOMES_DUARTE_LAJES_-_LAJES_CAMPO_GRANDE", "ENDERECO": "RUA_ACHILLES_BERTOLDI_143_CIDADE_SATELITE_IRIS_CAMPINAS", "CIDADE": "CAMPINAS", "LATITUDE": -22.9362039, "LONGITUDE": -47.165592 }, "geometry": { "type": "Point", "coordinates": [ -47.165592, -22.9362039 ] } },
{ "type": "Feature", "properties": { "CNPJ": 33009608000136, "AGENTE": "RONALDO_PEREIRA", "ACAO": "REALIZAR_SEGUNDA_VISITA", "RAZAO_SOCIAL": "FLAVIO_EDUARDO_ANIZAU_PINTO_39830230880_-_AGUAS_ANIZAU", "ENDERECO": "RUA_ALCIDES_BAREL_47_JARDIM_IPAUSSURAMA_CAMPINAS", "CIDADE": "CAMPINAS", "LATITUDE": -22.9263683, "LONGITUDE": -47.12475 }, "geometry": { "type": "Point", "coordinates": [ -47.12475, -22.9263683 ] } },
{ "type": "Feature", "properties": { "CNPJ": 19984302000170, "AGENTE": "RONALDO_PEREIRA", "ACAO": "REALIZAR_SEGUNDA_VISITA", "RAZAO_SOCIAL": "LILIANE_DE_SOUZA_MELLO_-_ESPACO_DE_DANCA_LILIANE_MELLO", "ENDERECO": "RUA_ALCIDES_BAREL_750_JARDIM_IPAUSSURAMA_CAMPINAS", "CIDADE": "CAMPINAS", "LATITUDE": -22.9275295, "LONGITUDE": -47.1212528 }, "geometry": { "type": "Point", "coordinates": [ -47.1212528, -22.9275295 ] } },
{ "type": "Feature", "properties": { "CNPJ": 42841527000199, "AGENTE": "RONALDO_PEREIRA", "ACAO": "REALIZAR_SEGUNDA_VISITA", "RAZAO_SOCIAL": "JULIO_CESAR_MENDES_DA_ROSA_38868068800_-_DSN_MECANICA", "ENDERECO": "RUA_ALCIDES_BAREL_766_JARDIM_IPAUSSURAMA_CAMPINAS", "CIDADE": "CAMPINAS", "LATITUDE": -22.9276715, "LONGITUDE": -47.121164 }, "geometry": { "type": "Point", "coordinates": [ -47.121164, -22.9276715 ] } },
{ "type": "Feature", "properties": { "CNPJ": 37187619000167, "AGENTE": "RONALDO_PEREIRA", "ACAO": "REALIZAR_SEGUNDA_VISITA", "RAZAO_SOCIAL": "SUSHI_HOUSE_DELIVERY_DE_COMIDA_JAPONESA_LTDA_-_SUSHI_HOUSE_DELIVERY_DE_COMIDA_JAPONESA", "ENDERECO": "RUA_ALZIRA_VIEGAS_CORREA_DE_CASTRO_155_JARDIM_IPAUSSURAMA_CAMPINAS", "CIDADE": "CAMPINAS", "LATITUDE": -22.9261615, "LONGITUDE": -47.1217328 }, "geometry": { "type": "Point", "coordinates": [ -47.1217328, -22.9261615 ] } },
{ "type": "Feature", "properties": { "CNPJ": 11493018000199, "AGENTE": "RONALDO_PEREIRA", "ACAO": "REALIZAR_SEGUNDA_VISITA", "RAZAO_SOCIAL": "HILTON_DE_OLIVEIRA_OFICINA_MECANICA_-_HP_OFICINA", "ENDERECO": "RUA_AMADEU_SEGALLIO_233_JARDIM_EULINA_CAMPINAS", "CIDADE": "CAMPINAS", "LATITUDE": -22.8886436, "LONGITUDE": -47.1108626 }, "geometry": { "type": "Point", "coordinates": [ -47.1108626, -22.8886436 ] } },
{ "type": "Feature", "properties": { "CNPJ": 41709876000199, "AGENTE": "RONALDO_PEREIRA", "ACAO": "REALIZAR_SEGUNDA_VISITA", "RAZAO_SOCIAL": "ABEL_DE_CARVALHO_VIEIRA_96528206368_-_GENIAIS_SUSHI", "ENDERECO": "RUA_ARMANDO_PINARELI_48_RESIDENCIAL_SIRIUS_CAMPINAS", "CIDADE": "CAMPINAS", "LATITUDE": -22.9509917, "LONGITUDE": -47.1623567 }, "geometry": { "type": "Point", "coordinates": [ -47.1623567, -22.9509917 ] } },
{ "type": "Feature", "properties": { "CNPJ": 54887987000137, "AGENTE": "RONALDO_PEREIRA", "ACAO": "REALIZAR_SEGUNDA_VISITA", "RAZAO_SOCIAL": "54.887.987_ANDERSON_ALVES_MACHADO_-_ANDERSON_USASOS", "ENDERECO": "RUA_BENEDITO_GONSALVES_162_PARQUE_RESIDENCIAL_CAMPINA_GRANDE_CAMPINAS", "CIDADE": "CAMPINAS", "LATITUDE": -22.9572314, "LONGITUDE": -47.2161432 }, "geometry": { "type": "Point", "coordinates": [ -47.2161432, -22.9572314 ] } },
{ "type": "Feature", "properties": { "CNPJ": 56959643000111, "AGENTE": "RONALDO_PEREIRA", "ACAO": "REALIZAR_SEGUNDA_VISITA", "RAZAO_SOCIAL": "CLX_EQUIPAMENTOS_LTDA_-_KAHELEXIS_ACADEMIA", "ENDERECO": "RUA_BENEDITO_MOREIRA_LOPES_546_CONJUNTO_HABITACIONAL_PARQUE_DA_FLORESTA_CAMPINAS", "CIDADE": "CAMPINAS", "LATITUDE": -22.9637216, "LONGITUDE": -47.1985976 }, "geometry": { "type": "Point", "coordinates": [ -47.1985976, -22.9637216 ] } },
{ "type": "Feature", "properties": { "CNPJ": 21598709000100, "AGENTE": "RONALDO_PEREIRA", "ACAO": "REALIZAR_SEGUNDA_VISITA", "RAZAO_SOCIAL": "CICERO_MARQUES_DE_SOUZA_76423484953_-_MERCADO_E_ACOUGUE_DESCONTAO", "ENDERECO": "RUA_BENIN_173_NUCLEO_RESIDENCIAL_VILA_VITORIA_CAMPINAS", "CIDADE": "CAMPINAS", "LATITUDE": -22.9795256, "LONGITUDE": -47.1706564 }, "geometry": { "type": "Point", "coordinates": [ -47.1706564, -22.9795256 ] } },
{ "type": "Feature", "properties": { "CNPJ": 26084841000118, "AGENTE": "RONALDO_PEREIRA", "ACAO": "REALIZAR_SEGUNDA_VISITA", "RAZAO_SOCIAL": "26.084.841_MARCIA_DA_SILVA_DOS_SANTOS_-_AGRO_VITORIA", "ENDERECO": "RUA_BENIN_182_NUCLEO_RESIDENCIAL_VILA_VITORIA_CAMPINAS", "CIDADE": "CAMPINAS", "LATITUDE": -22.979628, "LONGITUDE": -47.1707683 }, "geometry": { "type": "Point", "coordinates": [ -47.1707683, -22.979628 ] } },
{ "type": "Feature", "properties": { "CNPJ": 43992195000106, "AGENTE": "RONALDO_PEREIRA", "ACAO": "REALIZAR_SEGUNDA_VISITA", "RAZAO_SOCIAL": "RENAN_EDUARDO_DA_SILVA_DE_SOUZA_52885673877_-_NAM_SUCATAS", "ENDERECO": "RUA_BENIN_218_NUCLEO_RESIDENCIAL_VILA_VITORIA_CAMPINAS", "CIDADE": "CAMPINAS", "LATITUDE": -22.980745, "LONGITUDE": -47.1710733 }, "geometry": { "type": "Point", "coordinates": [ -47.1710733, -22.980745 ] } },
{ "type": "Feature", "properties": { "CNPJ": 25372450000136, "AGENTE": "RONALDO_PEREIRA", "ACAO": "REALIZAR_SEGUNDA_VISITA", "RAZAO_SOCIAL": "ADIRSON_FIRMINO_PEDRO_SIMAO_16517298835_-_ADEGA_ADISCON", "ENDERECO": "RUA_BENIN_229_NUCLEO_RESIDENCIAL_VILA_VITORIA_CAMPINAS", "CIDADE": "CAMPINAS", "LATITUDE": -22.9797833, "LONGITUDE": -47.1704533 }, "geometry": { "type": "Point", "coordinates": [ -47.1704533, -22.9797833 ] } },
{ "type": "Feature", "properties": { "CNPJ": 12220611000124, "AGENTE": "RONALDO_PEREIRA", "ACAO": "REALIZAR_SEGUNDA_VISITA", "RAZAO_SOCIAL": "MERCADINHO_WDK_COMERCIO_LTDA._-_MERCADINHO_WD", "ENDERECO": "RUA_BENIN_263_NUCLEO_RESIDENCIAL_VILA_VITORIA_CAMPINAS", "CIDADE": "CAMPINAS", "LATITUDE": -22.9801464, "LONGITUDE": -47.1700905 }, "geometry": { "type": "Point", "coordinates": [ -47.1700905, -22.9801464 ] } },
{ "type": "Feature", "properties": { "CNPJ": 43141638000155, "AGENTE": "RONALDO_PEREIRA", "ACAO": "REALIZAR_SEGUNDA_VISITA", "RAZAO_SOCIAL": "43.141.638_SAMUEL_CALIXTO_NUNES_-_ADEGA_JHON_STOP", "ENDERECO": "RUA_BENTO_PRADO_DE_ALMEIDA_FERRAZ_JUNIOR_382_LOTEAMENTO_RESIDENCIAL_PORTO_SEGURO_CAMPINAS", "CIDADE": "CAMPINAS", "LATITUDE": -22.9714443, "LONGITUDE": -47.1709742 }, "geometry": { "type": "Point", "coordinates": [ -47.1709742, -22.9714443 ] } },
{ "type": "Feature", "properties": { "CNPJ": 47032492000160, "AGENTE": "RONALDO_PEREIRA", "ACAO": "REALIZAR_SEGUNDA_VISITA", "RAZAO_SOCIAL": "JOAO_BATISTA_LIMA_38106800873_-_ADEGA_100_RESSACA", "ENDERECO": "RUA_BOTSUANA_11_NUCLEO_RESIDENCIAL_VILA_VITORIA_CAMPINAS", "CIDADE": "CAMPINAS", "LATITUDE": -22.9769104, "LONGITUDE": -47.1708876 }, "geometry": { "type": "Point", "coordinates": [ -47.1708876, -22.9769104 ] } },
{ "type": "Feature", "properties": { "CNPJ": 27908786000104, "AGENTE": "RONALDO_PEREIRA", "ACAO": "REALIZAR_SEGUNDA_VISITA", "RAZAO_SOCIAL": "27.908.786_JOSE_WILSON_DE_OLIVEIRA_GONZAGA_FIGUEIREDO_-_MANINHO_DO_ESPETINHO", "ENDERECO": "RUA_CADETE_DIRCEU_VEDOVELLO_4_CONJUNTO_HABITACIONAL_PARQUE_DA_FLORESTA_CAMPINAS", "CIDADE": "CAMPINAS", "LATITUDE": -22.9586075, "LONGITUDE": -47.2009631 }, "geometry": { "type": "Point", "coordinates": [ -47.2009631, -22.9586075 ] } },
{ "type": "Feature", "properties": { "CNPJ": 56024008000142, "AGENTE": "RONALDO_PEREIRA", "ACAO": "REALIZAR_SEGUNDA_VISITA", "RAZAO_SOCIAL": "MERCADO_E_PADARIA_SAO_DOMINGOS_LTDA_-_EMPORIO_MARAJO", "ENDERECO": "RUA_CARLOS_BARRETO_11_JARDIM_MARAJO_CAMPINAS", "CIDADE": "CAMPINAS", "LATITUDE": -22.9690267, "LONGITUDE": -47.1641633 }, "geometry": { "type": "Point", "coordinates": [ -47.1641633, -22.9690267 ] } },
{ "type": "Feature", "properties": { "CNPJ": 28669519000186, "AGENTE": "RONALDO_PEREIRA", "ACAO": "REALIZAR_SEGUNDA_VISITA", "RAZAO_SOCIAL": "SILVANA_REGINA_DE_LIMA_16826290820_-_UPA_BAR", "ENDERECO": "RUA_CINCO_784_NUCLEO_RESIDENCIAL_VILA_VITORIA_CAMPINAS", "CIDADE": "CAMPINAS", "LATITUDE": -22.9782624, "LONGITUDE": -47.1683146 }, "geometry": { "type": "Point", "coordinates": [ -47.1683146, -22.9782624 ] } },
{ "type": "Feature", "properties": { "CNPJ": 31895722000185, "AGENTE": "RONALDO_PEREIRA", "ACAO": "REALIZAR_SEGUNDA_VISITA", "RAZAO_SOCIAL": "31.895.722_DEMERSON_THALLES_CAMARGO_RODRIGUES_-_VIDA_AGRO_PET", "ENDERECO": "RUA_CONGO_115_NUCLEO_RESIDENCIAL_VILA_VITORIA_CAMPINAS", "CIDADE": "CAMPINAS", "LATITUDE": -22.9773334, "LONGITUDE": -47.1705587 }, "geometry": { "type": "Point", "coordinates": [ -47.1705587, -22.9773334 ] } },
{ "type": "Feature", "properties": { "CNPJ": 44908131000147, "AGENTE": "RONALDO_PEREIRA", "ACAO": "REALIZAR_SEGUNDA_VISITA", "RAZAO_SOCIAL": "44.908.131_GABRIEL_DE_BRITO_CONCON_-_GC_IMPORTADORA", "ENDERECO": "RUA_CONGO_115_NUCLEO_RESIDENCIAL_VILA_VITORIA_CAMPINAS", "CIDADE": "CAMPINAS", "LATITUDE": -22.9774712, "LONGITUDE": -47.1704386 }, "geometry": { "type": "Point", "coordinates": [ -47.1704386, -22.9774712 ] } },
{ "type": "Feature", "properties": { "CNPJ": 8652411000173, "AGENTE": "RONALDO_PEREIRA", "ACAO": "REALIZAR_SEGUNDA_VISITA", "RAZAO_SOCIAL": "QUIOSQUE_DO_MARCAO_-_SUCOS_E_PASTEIS_LTDA_-_QUIOSQUE_DO_MARCAO", "ENDERECO": "RUA_DAS_ACACIAS_888_VILA_BOA_VISTA_CAMPINAS", "CIDADE": "CAMPINAS", "LATITUDE": -22.8887088, "LONGITUDE": -47.1241127 }, "geometry": { "type": "Point", "coordinates": [ -47.1241127, -22.8887088 ] } },
{ "type": "Feature", "properties": { "CNPJ": 31356924000159, "AGENTE": "RONALDO_PEREIRA", "ACAO": "REALIZAR_SEGUNDA_VISITA", "RAZAO_SOCIAL": "ANA_PAULA_OLIVEIRA_DE_CARVALHO_12062195800_-_MEGACELL", "ENDERECO": "RUA_DAS_ACACIAS_888_VILA_BOA_VISTA_CAMPINAS", "CIDADE": "CAMPINAS", "LATITUDE": -22.8888833, "LONGITUDE": -47.1238317 }, "geometry": { "type": "Point", "coordinates": [ -47.1238317, -22.8888833 ] } },
{ "type": "Feature", "properties": { "CNPJ": 52650928000115, "AGENTE": "RONALDO_PEREIRA", "ACAO": "REALIZAR_SEGUNDA_VISITA", "RAZAO_SOCIAL": "52.650.928_MIRIAN_COSTA_DE_FREITAS_-_MIRIAN_FREITAS_MODA_FEMININA", "ENDERECO": "RUA_DAS_ACACIAS_888_VILA_BOA_VISTA_CAMPINAS", "CIDADE": "CAMPINAS", "LATITUDE": -22.888937, "LONGITUDE": -47.12377 }, "geometry": { "type": "Point", "coordinates": [ -47.12377, -22.888937 ] } },
{ "type": "Feature", "properties": { "CNPJ": 11324489000173, "AGENTE": "RONALDO_PEREIRA", "ACAO": "REALIZAR_SEGUNDA_VISITA", "RAZAO_SOCIAL": "VALDIR_PEREIRA_GUEDES_-_DISK_RACAO", "ENDERECO": "RUA_DAS_ACACIAS_888_VILA_BOA_VISTA_CAMPINAS", "CIDADE": "CAMPINAS", "LATITUDE": -22.8889999, "LONGITUDE": -47.1236917 }, "geometry": { "type": "Point", "coordinates": [ -47.1236917, -22.8889999 ] } },
{ "type": "Feature", "properties": { "CNPJ": 32604534000113, "AGENTE": "RONALDO_PEREIRA", "ACAO": "REALIZAR_SEGUNDA_VISITA", "RAZAO_SOCIAL": "CARLOS_EDUARDO_CORREIA_DE_JESUS_19491666860_-_RENOVOCAR", "ENDERECO": "RUA_DJALMA_DIAS_79_CAMPINA_GRANDE_CAMPINAS", "CIDADE": "CAMPINAS", "LATITUDE": -22.9576059, "LONGITUDE": -47.2164304 }, "geometry": { "type": "Point", "coordinates": [ -47.2164304, -22.9576059 ] } },
{ "type": "Feature", "properties": { "CNPJ": 41207297000148, "AGENTE": "RONALDO_PEREIRA", "ACAO": "REALIZAR_SEGUNDA_VISITA", "RAZAO_SOCIAL": "SAMUEL_DE_SOUZA_31158526814_-_ACAI_POINT_SORVETERIA", "ENDERECO": "RUA_DOMICIO_PACHECO_E_SILVA_1339_JARDIM_CAMPOS_ELISEOS_CAMPINAS", "CIDADE": "CAMPINAS", "LATITUDE": -22.9210133, "LONGITUDE": -47.1081483 }, "geometry": { "type": "Point", "coordinates": [ -47.1081483, -22.9210133 ] } },
{ "type": "Feature", "properties": { "CNPJ": 50898745000198, "AGENTE": "RONALDO_PEREIRA", "ACAO": "REALIZAR_SEGUNDA_VISITA", "RAZAO_SOCIAL": "STRONG_GYM_LTDA_-_STONG_GYM", "ENDERECO": "RUA_DOS_CAMBARAS_400_PARQUE_VIA_NORTE_CAMPINAS", "CIDADE": "CAMPINAS", "LATITUDE": -22.8844762, "LONGITUDE": -47.1270237 }, "geometry": { "type": "Point", "coordinates": [ -47.1270237, -22.8844762 ] } },
{ "type": "Feature", "properties": { "CNPJ": 4825861000160, "AGENTE": "RONALDO_PEREIRA", "ACAO": "REALIZAR_SEGUNDA_VISITA", "RAZAO_SOCIAL": "JF_UTILIDADES_E_PRESENTES_LTDA_-_JF_PRESENTES", "ENDERECO": "RUA_DOS_IPES_AMARELOS_888_VILA_BOA_VISTA_CAMPINAS", "CIDADE": "CAMPINAS", "LATITUDE": -22.8891423, "LONGITUDE": -47.1236756 }, "geometry": { "type": "Point", "coordinates": [ -47.1236756, -22.8891423 ] } },
{ "type": "Feature", "properties": { "CNPJ": 14214432000100, "AGENTE": "RONALDO_PEREIRA", "ACAO": "REALIZAR_SEGUNDA_VISITA", "RAZAO_SOCIAL": "LIZZA_CARVALHO_CALCADOS_MODAS_E_ARTIGOS_DO_VESTUARIO_LTDA_-_LIZZA_CALCADOS", "ENDERECO": "RUA_DOS_IPES_ROXOS_888_VILA_BOA_VISTA_CAMPINAS", "CIDADE": "CAMPINAS", "LATITUDE": -22.8886142, "LONGITUDE": -47.1238073 }, "geometry": { "type": "Point", "coordinates": [ -47.1238073, -22.8886142 ] } },
{ "type": "Feature", "properties": { "CNPJ": 30972346000112, "AGENTE": "RONALDO_PEREIRA", "ACAO": "REALIZAR_SEGUNDA_VISITA", "RAZAO_SOCIAL": "AIRLAB_-_SOLUCOES_LOGISTICAS_LTDA_-_AIRLAB", "ENDERECO": "RUA_DOUTOR_EDUARDO_EDARGE_BADARO_1206_JARDIM_EULINA_CAMPINAS", "CIDADE": "CAMPINAS", "LATITUDE": -22.8964633, "LONGITUDE": -47.1077517 }, "geometry": { "type": "Point", "coordinates": [ -47.1077517, -22.8964633 ] } },
{ "type": "Feature", "properties": { "CNPJ": 46570795000174, "AGENTE": "RONALDO_PEREIRA", "ACAO": "REALIZAR_SEGUNDA_VISITA", "RAZAO_SOCIAL": "P_&_E_MINAS_AUTO_CENTER_LTDA_-_MINAS_MECANICA", "ENDERECO": "RUA_DOUTOR_JOSE_EMANUEL_TEIXEIRA_DE_CAMARGO_398_JARDIM_SANTA_ROSA_CAMPINAS", "CIDADE": "CAMPINAS", "LATITUDE": -22.9338109, "LONGITUDE": -47.1807851 }, "geometry": { "type": "Point", "coordinates": [ -47.1807851, -22.9338109 ] } },
{ "type": "Feature", "properties": { "CNPJ": 23497568000165, "AGENTE": "RONALDO_PEREIRA", "ACAO": "REALIZAR_SEGUNDA_VISITA", "RAZAO_SOCIAL": "LINE_FLEX_COMERCIAL_LTDA_-_LINE_FLEX", "ENDERECO": "RUA_DOUTOR_LAURO_DE_SOUZA_LIMA_777_PARQUE_RESIDENCIAL_VILA_UNIAO_CAMPINAS", "CIDADE": "CAMPINAS", "LATITUDE": -22.9313297, "LONGITUDE": -47.1272406 }, "geometry": { "type": "Point", "coordinates": [ -47.1272406, -22.9313297 ] } },
{ "type": "Feature", "properties": { "CNPJ": 39805515000102, "AGENTE": "RONALDO_PEREIRA", "ACAO": "REALIZAR_SEGUNDA_VISITA", "RAZAO_SOCIAL": "DANIELA_QUEIROZ_DA_SILVA_SANTOS_33083838883_-_ESPACO_FEMININO", "ENDERECO": "RUA_DOUTOR_MAURICIO_LOURENCAO_SEBER_3_CONJUNTO_HABITACIONAL_PARQUE_DA_FLORESTA_CAMPINAS", "CIDADE": "CAMPINAS", "LATITUDE": -22.9583557, "LONGITUDE": -47.2004902 }, "geometry": { "type": "Point", "coordinates": [ -47.2004902, -22.9583557 ] } },
{ "type": "Feature", "properties": { "CNPJ": 28359646000189, "AGENTE": "RONALDO_PEREIRA", "ACAO": "REALIZAR_SEGUNDA_VISITA", "RAZAO_SOCIAL": "SALGADERIA_MOGIANA_LTDA_-_FABRICA_GOURMET_SALGADERIA", "ENDERECO": "RUA_ERNESTO_ALVES_FILHO_12_JARDIM_CAMPOS_ELISEOS_CAMPINAS", "CIDADE": "CAMPINAS", "LATITUDE": -22.9304742, "LONGITUDE": -47.1087221 }, "geometry": { "type": "Point", "coordinates": [ -47.1087221, -22.9304742 ] } },
{ "type": "Feature", "properties": { "CNPJ": 42967189000136, "AGENTE": "RONALDO_PEREIRA", "ACAO": "REALIZAR_SEGUNDA_VISITA", "RAZAO_SOCIAL": "VINICIUS_HENRIQUE_MARTINES_40029899842_-_VINI_CORTES", "ENDERECO": "RUA_ERNESTO_ALVES_FILHO_189_JARDIM_CAMPOS_ELISEOS_CAMPINAS", "CIDADE": "CAMPINAS", "LATITUDE": -22.9289026, "LONGITUDE": -47.1085347 }, "geometry": { "type": "Point", "coordinates": [ -47.1085347, -22.9289026 ] } },
{ "type": "Feature", "properties": { "CNPJ": 58288250000159, "AGENTE": "RONALDO_PEREIRA", "ACAO": "REALIZAR_SEGUNDA_VISITA", "RAZAO_SOCIAL": "M._S._DOMINGOS_VEICULOS_-_KAIXA_MOTORS", "ENDERECO": "RUA_ERNESTO_ALVES_FILHO_202_JARDIM_CAMPOS_ELISEOS_CAMPINAS", "CIDADE": "CAMPINAS", "LATITUDE": -22.9291417, "LONGITUDE": -47.1076633 }, "geometry": { "type": "Point", "coordinates": [ -47.1076633, -22.9291417 ] } },
{ "type": "Feature", "properties": { "CNPJ": 46650204000179, "AGENTE": "RONALDO_PEREIRA", "ACAO": "REALIZAR_SEGUNDA_VISITA", "RAZAO_SOCIAL": "MARIA_TERESINHA_BONTEMPI_COLARINI_21385303883_-_SALAO_DA_TERESA", "ENDERECO": "RUA_ERNESTO_ALVES_FILHO_22_JARDIM_CAMPOS_ELISEOS_CAMPINAS", "CIDADE": "CAMPINAS", "LATITUDE": -22.9303458, "LONGITUDE": -47.1087311 }, "geometry": { "type": "Point", "coordinates": [ -47.1087311, -22.9303458 ] } },
{ "type": "Feature", "properties": { "CNPJ": 52750761000164, "AGENTE": "RONALDO_PEREIRA", "ACAO": "REALIZAR_SEGUNDA_VISITA", "RAZAO_SOCIAL": "52.750.761_ROBERTO_GIL_DOS_SANTOS_-_G_MAIS_PNEUS", "ENDERECO": "RUA_ERNESTO_ALVES_FILHO_244_JARDIM_CAMPOS_ELISEOS_CAMPINAS", "CIDADE": "CAMPINAS", "LATITUDE": -22.9284606, "LONGITUDE": -47.1081703 }, "geometry": { "type": "Point", "coordinates": [ -47.1081703, -22.9284606 ] } },
{ "type": "Feature", "properties": { "CNPJ": 50850212000136, "AGENTE": "RONALDO_PEREIRA", "ACAO": "REALIZAR_SEGUNDA_VISITA", "RAZAO_SOCIAL": "GRAN_SABOR_PIZZARIA_LTDA_-_GRAN_SABOR_PIZZARIA", "ENDERECO": "RUA_ERNESTO_ALVES_FILHO_325_JARDIM_CAMPOS_ELISEOS_CAMPINAS", "CIDADE": "CAMPINAS", "LATITUDE": -22.9277652, "LONGITUDE": -47.1081304 }, "geometry": { "type": "Point", "coordinates": [ -47.1081304, -22.9277652 ] } },
{ "type": "Feature", "properties": { "CNPJ": 29691344000176, "AGENTE": "RONALDO_PEREIRA", "ACAO": "REALIZAR_SEGUNDA_VISITA", "RAZAO_SOCIAL": "LEANDRO_MATIAS_MARINHO_32184087840_-_SERVCONNECTION", "ENDERECO": "RUA_ERNESTO_ALVES_FILHO_33_JARDIM_CAMPOS_ELISEOS_CAMPINAS", "CIDADE": "CAMPINAS", "LATITUDE": -22.9302058, "LONGITUDE": -47.1089019 }, "geometry": { "type": "Point", "coordinates": [ -47.1089019, -22.9302058 ] } },
{ "type": "Feature", "properties": { "CNPJ": 15717418000191, "AGENTE": "RONALDO_PEREIRA", "ACAO": "REALIZAR_SEGUNDA_VISITA", "RAZAO_SOCIAL": "THIAGO_CORREIA_MARTINHAO_36241014803_-_MV_SALGADOS", "ENDERECO": "RUA_ERNESTO_ALVES_FILHO_351_JARDIM_CAMPOS_ELISEOS_CAMPINAS", "CIDADE": "CAMPINAS", "LATITUDE": -22.927557, "LONGITUDE": -47.1080086 }, "geometry": { "type": "Point", "coordinates": [ -47.1080086, -22.927557 ] } },
{ "type": "Feature", "properties": { "CNPJ": 30450895000127, "AGENTE": "RONALDO_PEREIRA", "ACAO": "REALIZAR_SEGUNDA_VISITA", "RAZAO_SOCIAL": "ATLANTA_MOTORS_COMERCIO_DE_VEICULOS_LTDA_-_ATLANTA_MOTORS", "ENDERECO": "RUA_ERNESTO_ALVES_FILHO_352_JARDIM_CAMPOS_ELISEOS_CAMPINAS", "CIDADE": "CAMPINAS", "LATITUDE": -22.9276258, "LONGITUDE": -47.1075656 }, "geometry": { "type": "Point", "coordinates": [ -47.1075656, -22.9276258 ] } },
{ "type": "Feature", "properties": { "CNPJ": 29067463000152, "AGENTE": "RONALDO_PEREIRA", "ACAO": "REALIZAR_SEGUNDA_VISITA", "RAZAO_SOCIAL": "CAMPVANS_COMERCIO_VAREJISTA_DE_AUTO_PECAS_LTDA_-_CAMPVANS_COMERCIO_VAREJISTA_DE_AUTO_PECAS", "ENDERECO": "RUA_ERNESTO_ALVES_FILHO_366_JARDIM_CAMPOS_ELISEOS_CAMPINAS", "CIDADE": "CAMPINAS", "LATITUDE": -22.9273916, "LONGITUDE": -47.1077565 }, "geometry": { "type": "Point", "coordinates": [ -47.1077565, -22.9273916 ] } },
{ "type": "Feature", "properties": { "CNPJ": 36024427000177, "AGENTE": "RONALDO_PEREIRA", "ACAO": "REALIZAR_SEGUNDA_VISITA", "RAZAO_SOCIAL": "36.024.427_ALINE_NOGUEIRA_DO_AMARAL_ARAUJO_-_MERCADO_JOAO_E_MARIA", "ENDERECO": "RUA_ERNESTO_ALVES_FILHO_461_JARDIM_CAMPOS_ELISEOS_CAMPINAS", "CIDADE": "CAMPINAS", "LATITUDE": -22.9265476, "LONGITUDE": -47.1077521 }, "geometry": { "type": "Point", "coordinates": [ -47.1077521, -22.9265476 ] } },
{ "type": "Feature", "properties": { "CNPJ": 44190462000194, "AGENTE": "RONALDO_PEREIRA", "ACAO": "REALIZAR_SEGUNDA_VISITA", "RAZAO_SOCIAL": "DANIELE_NEVES_DE_MEDEIROS_06054902520_-_ELISEOS_CARNES_DN", "ENDERECO": "RUA_ERNESTO_ALVES_FILHO_474_JARDIM_CAMPOS_ELISEOS_CAMPINAS", "CIDADE": "CAMPINAS", "LATITUDE": -22.9266193, "LONGITUDE": -47.1074126 }, "geometry": { "type": "Point", "coordinates": [ -47.1074126, -22.9266193 ] } },
{ "type": "Feature", "properties": { "CNPJ": 36969008000108, "AGENTE": "RONALDO_PEREIRA", "ACAO": "REALIZAR_SEGUNDA_VISITA", "RAZAO_SOCIAL": "CENTRO_DE_TREINAMENTO_E_PERFORM_LTDA_-_CENTRO_DE_TREINAMENTO_E_PERFORM", "ENDERECO": "RUA_ERNESTO_ALVES_FILHO_65_JARDIM_CAMPOS_ELISEOS_CAMPINAS", "CIDADE": "CAMPINAS", "LATITUDE": -22.9299883, "LONGITUDE": -47.1090733 }, "geometry": { "type": "Point", "coordinates": [ -47.1090733, -22.9299883 ] } },
{ "type": "Feature", "properties": { "CNPJ": 35167277000198, "AGENTE": "RONALDO_PEREIRA", "ACAO": "REALIZAR_SEGUNDA_VISITA", "RAZAO_SOCIAL": "WD_LOCACAO_DE_VEICULOS_LTDA_-_WD_LOCACOES_VEICULOS", "ENDERECO": "RUA_ERNESTO_ALVES_FILHO_77_JARDIM_CAMPOS_ELISEOS_CAMPINAS", "CIDADE": "CAMPINAS", "LATITUDE": -22.9298993, "LONGITUDE": -47.1088812 }, "geometry": { "type": "Point", "coordinates": [ -47.1088812, -22.9298993 ] } },
{ "type": "Feature", "properties": { "CNPJ": 37543655000116, "AGENTE": "RONALDO_PEREIRA", "ACAO": "REALIZAR_SEGUNDA_VISITA", "RAZAO_SOCIAL": "CLAUDIO_BRUNOZI_92565972849_-_BRU_LEDS_CAMPINAS", "ENDERECO": "RUA_ERNESTO_ALVES_FILHO_87_JARDIM_CAMPOS_ELISEOS_CAMPINAS", "CIDADE": "CAMPINAS", "LATITUDE": -22.9298919, "LONGITUDE": -47.1088841 }, "geometry": { "type": "Point", "coordinates": [ -47.1088841, -22.9298919 ] } },
{ "type": "Feature", "properties": { "CNPJ": 43107978000160, "AGENTE": "RONALDO_PEREIRA", "ACAO": "REALIZAR_SEGUNDA_VISITA", "RAZAO_SOCIAL": "ARLINDO_GRANDOLFI_SORVETERIA_-_SORVETETRENO", "ENDERECO": "RUA_ERNESTO_ALVES_FILHO_98_JARDIM_CAMPOS_ELISEOS_CAMPINAS", "CIDADE": "CAMPINAS", "LATITUDE": -22.9298008, "LONGITUDE": -47.1084546 }, "geometry": { "type": "Point", "coordinates": [ -47.1084546, -22.9298008 ] } },
{ "type": "Feature", "properties": { "CNPJ": 11158432000141, "AGENTE": "RONALDO_PEREIRA", "ACAO": "REALIZAR_SEGUNDA_VISITA", "RAZAO_SOCIAL": "ARS_SERVICOS_AUTOMOTIVOS_LTDA_-_MECANICA_DOIS_IRMAOS", "ENDERECO": "RUA_EUDES_BATISTA_RIBEIRO_47_JARDIM_SUL_AMERICA_CAMPINAS", "CIDADE": "CAMPINAS", "LATITUDE": -22.9415189, "LONGITUDE": -47.1820342 }, "geometry": { "type": "Point", "coordinates": [ -47.1820342, -22.9415189 ] } },
{ "type": "Feature", "properties": { "CNPJ": 37079251000113, "AGENTE": "RONALDO_PEREIRA", "ACAO": "REALIZAR_SEGUNDA_VISITA", "RAZAO_SOCIAL": "DAYKON_RESTAURANTE_LTDA_-_DAYKON_RESTAURANTE", "ENDERECO": "RUA_FERDINANDO_PANATTONI_1126_JARDIM_PAULICEIA_CAMPINAS", "CIDADE": "CAMPINAS", "LATITUDE": -22.9203776, "LONGITUDE": -47.1113167 }, "geometry": { "type": "Point", "coordinates": [ -47.1113167, -22.9203776 ] } },
{ "type": "Feature", "properties": { "CNPJ": 55368743000100, "AGENTE": "RONALDO_PEREIRA", "ACAO": "REALIZAR_SEGUNDA_VISITA", "RAZAO_SOCIAL": "EVER_SHOP_MAQUINAS_INDUSTRIAIS_LTDA_-_EVER_SHOP_LOCACAO_E_VENDA_DE_MAQUINAS_DE_INDUSTRIAIS", "ENDERECO": "RUA_FRANZ_MARYSSAEL_332_JARDIM_CAMPOS_ELISEOS_CAMPINAS", "CIDADE": "CAMPINAS", "LATITUDE": -22.9299478, "LONGITUDE": -47.1088813 }, "geometry": { "type": "Point", "coordinates": [ -47.1088813, -22.9299478 ] } },
{ "type": "Feature", "properties": { "CNPJ": 36068163000153, "AGENTE": "RONALDO_PEREIRA", "ACAO": "REALIZAR_SEGUNDA_VISITA", "RAZAO_SOCIAL": "RITA_MARIA_DOS_SANTOS_22552506836_-_BOM_PASTEL", "ENDERECO": "RUA_GERALDO_JOSE_DE_ALMEIDA_696_CAMPINA_GRANDE_CAMPINAS", "CIDADE": "CAMPINAS", "LATITUDE": -22.958429, "LONGITUDE": -47.2153977 }, "geometry": { "type": "Point", "coordinates": [ -47.2153977, -22.958429 ] } },
{ "type": "Feature", "properties": { "CNPJ": 36711439000170, "AGENTE": "RONALDO_PEREIRA", "ACAO": "REALIZAR_SEGUNDA_VISITA", "RAZAO_SOCIAL": "36.711.439_KATIA_APARECIDA_COPETE_-_COPETE_MATERIAL_DE_CONSTRUCAO", "ENDERECO": "RUA_GERALDO_JOSE_DE_ALMEIDA_779_CAMPINA_GRANDE_CAMPINAS", "CIDADE": "CAMPINAS", "LATITUDE": -22.9576366, "LONGITUDE": -47.2151667 }, "geometry": { "type": "Point", "coordinates": [ -47.2151667, -22.9576366 ] } },
{ "type": "Feature", "properties": { "CNPJ": 9557189000192, "AGENTE": "RONALDO_PEREIRA", "ACAO": "REALIZAR_SEGUNDA_VISITA", "RAZAO_SOCIAL": "C_F_C_MARIAH_LTDA_-_AUTO_ESCOLA_MARIAH_03", "ENDERECO": "RUA_GERALDO_NOGUEIRA_PORTO_66_JARDIM_LONDRES_CAMPINAS", "CIDADE": "CAMPINAS", "LATITUDE": -22.9090793, "LONGITUDE": -47.1086563 }, "geometry": { "type": "Point", "coordinates": [ -47.1086563, -22.9090793 ] } },
{ "type": "Feature", "properties": { "CNPJ": 25290177000109, "AGENTE": "RONALDO_PEREIRA", "ACAO": "REALIZAR_SEGUNDA_VISITA", "RAZAO_SOCIAL": "DEBORA_MAIUMI_HIROTA_17421068899_-_SETE_JAPAO_LAVA_RAPIDO", "ENDERECO": "RUA_GERALDO_SUSSOLINI_1591_JARDIM_ROSEIRA_CAMPINAS", "CIDADE": "CAMPINAS", "LATITUDE": -22.9204536, "LONGITUDE": -47.1171176 }, "geometry": { "type": "Point", "coordinates": [ -47.1171176, -22.9204536 ] } },
{ "type": "Feature", "properties": { "CNPJ": 37681693000135, "AGENTE": "RONALDO_PEREIRA", "ACAO": "REALIZAR_SEGUNDA_VISITA", "RAZAO_SOCIAL": "W._G._G._COSTA_-_TACTICAL_ADVENTURE", "ENDERECO": "RUA_GERALDO_SUSSOLINI_1611_JARDIM_ROSEIRA_CAMPINAS", "CIDADE": "CAMPINAS", "LATITUDE": -22.9212642, "LONGITUDE": -47.1145328 }, "geometry": { "type": "Point", "coordinates": [ -47.1145328, -22.9212642 ] } },
{ "type": "Feature", "properties": { "CNPJ": 56227215000102, "AGENTE": "RONALDO_PEREIRA", "ACAO": "REALIZAR_SEGUNDA_VISITA", "RAZAO_SOCIAL": "56.227.215_CAMILA_CAETANO_BENITES_-_GRAFICA_JOHN_BOYD", "ENDERECO": "RUA_GERALDO_SUSSOLINI_7_JARDIM_ROSEIRA_CAMPINAS", "CIDADE": "CAMPINAS", "LATITUDE": -22.9215132, "LONGITUDE": -47.1154629 }, "geometry": { "type": "Point", "coordinates": [ -47.1154629, -22.9215132 ] } },
{ "type": "Feature", "properties": { "CNPJ": 28069558000142, "AGENTE": "RONALDO_PEREIRA", "ACAO": "REALIZAR_SEGUNDA_VISITA", "RAZAO_SOCIAL": "PANIFICADORA_E_CONFEITARIA_DAN_LOPES_LTDA_-_PANIFICADORA_UNIAO", "ENDERECO": "RUA_GRANDE_OTELO_10_PARQUE_RESIDENCIAL_VILA_UNIAO_CAMPINAS", "CIDADE": "CAMPINAS", "LATITUDE": -22.9317388, "LONGITUDE": -47.1219394 }, "geometry": { "type": "Point", "coordinates": [ -47.1219394, -22.9317388 ] } },
{ "type": "Feature", "properties": { "CNPJ": 54613283000176, "AGENTE": "RONALDO_PEREIRA", "ACAO": "REALIZAR_SEGUNDA_VISITA", "RAZAO_SOCIAL": "VL_PIZZARIA_LTDA_-_THAT'S", "ENDERECO": "RUA_GUIDO_SEGALHO_148_JARDIM_EULINA_CAMPINAS", "CIDADE": "CAMPINAS", "LATITUDE": -22.8880481, "LONGITUDE": -47.110125 }, "geometry": { "type": "Point", "coordinates": [ -47.110125, -22.8880481 ] } },
{ "type": "Feature", "properties": { "CNPJ": 59425141000107, "AGENTE": "RONALDO_PEREIRA", "ACAO": "REALIZAR_SEGUNDA_VISITA", "RAZAO_SOCIAL": "59.425.141_PATRICIA_RODRIGUES_MOTA_-_SKINNA_TROPICAL_BAR", "ENDERECO": "RUA_HELIO_PINTO_FERREIRA_13_CAMPINAS_CAMPINAS", "CIDADE": "CAMPINAS", "LATITUDE": -22.9725882, "LONGITUDE": -47.171669 }, "geometry": { "type": "Point", "coordinates": [ -47.171669, -22.9725882 ] } },
{ "type": "Feature", "properties": { "CNPJ": 22570350000126, "AGENTE": "RONALDO_PEREIRA", "ACAO": "REALIZAR_SEGUNDA_VISITA", "RAZAO_SOCIAL": "SUELEN_PAULA_DA_SILVA_PIRES_DE_ARAUJO_-_CAFE_NO_PONTO", "ENDERECO": "RUA_HELOISA_PRATO_GALBIATTI_10_JARDIM_FLORENCE_CAMPINAS", "CIDADE": "CAMPINAS", "LATITUDE": -22.9370233, "LONGITUDE": -47.160562 }, "geometry": { "type": "Point", "coordinates": [ -47.160562, -22.9370233 ] } },
{ "type": "Feature", "properties": { "CNPJ": 50718427000106, "AGENTE": "RONALDO_PEREIRA", "ACAO": "REALIZAR_SEGUNDA_VISITA", "RAZAO_SOCIAL": "50.718.427_PAULO_SERGIO_PEIXOTO_-_PHB_OFICINA", "ENDERECO": "RUA_HELOISA_PRATO_GALBIATTI_34_JARDIM_FLORENCE_CAMPINAS", "CIDADE": "CAMPINAS", "LATITUDE": -22.9373434, "LONGITUDE": -47.1606071 }, "geometry": { "type": "Point", "coordinates": [ -47.1606071, -22.9373434 ] } },
{ "type": "Feature", "properties": { "CNPJ": 14793444000136, "AGENTE": "RONALDO_PEREIRA", "ACAO": "REALIZAR_SEGUNDA_VISITA", "RAZAO_SOCIAL": "14.793.444_ANDREIA_BARROS_LOURENCO_DOS_SANTOS_-_LOJA_DA_DEIA", "ENDERECO": "RUA_HERMANO_PENTEADO_402_JARDIM_IPAUSSURAMA_CAMPINAS", "CIDADE": "CAMPINAS", "LATITUDE": -22.9271787, "LONGITUDE": -47.1260128 }, "geometry": { "type": "Point", "coordinates": [ -47.1260128, -22.9271787 ] } },
{ "type": "Feature", "properties": { "CNPJ": 53325834000133, "AGENTE": "RONALDO_PEREIRA", "ACAO": "REALIZAR_SEGUNDA_VISITA", "RAZAO_SOCIAL": "53.325.834_CELIA_APARECIDA_EPIFANIO_DA_SILVA_-_NOVA_JC_AUTO_CENTER", "ENDERECO": "RUA_HERMINIA_MARIA_VICENTINI_8_JARDIM_MARAJO_CAMPINAS", "CIDADE": "CAMPINAS", "LATITUDE": -22.9691186, "LONGITUDE": -47.1659493 }, "geometry": { "type": "Point", "coordinates": [ -47.1659493, -22.9691186 ] } },
{ "type": "Feature", "properties": { "CNPJ": 56341776000120, "AGENTE": "RONALDO_PEREIRA", "ACAO": "REALIZAR_SEGUNDA_VISITA", "RAZAO_SOCIAL": "56.341.776_ELISABETE_LIMA_GUEDES_-_ACOUGUE_ANGUS", "ENDERECO": "RUA_HILARIO_BALDO_310_CONJUNTO_MAURO_MARCONDES_CAMPINAS", "CIDADE": "CAMPINAS", "LATITUDE": -22.9750677, "LONGITUDE": -47.1705157 }, "geometry": { "type": "Point", "coordinates": [ -47.1705157, -22.9750677 ] } },
{ "type": "Feature", "properties": { "CNPJ": 50421413000118, "AGENTE": "RONALDO_PEREIRA", "ACAO": "REALIZAR_SEGUNDA_VISITA", "RAZAO_SOCIAL": "DROGARIA_SANTOS_E_AGUIAR_LTDA_-_PARMA_GENTE_UNIDADE_AVILA_VITORIA", "ENDERECO": "RUA_HILARIO_BALDO_637_VILA_VITORIA_CAMPINAS", "CIDADE": "CAMPINAS", "LATITUDE": -22.9772592, "LONGITUDE": -47.1691203 }, "geometry": { "type": "Point", "coordinates": [ -47.1691203, -22.9772592 ] } },
{ "type": "Feature", "properties": { "CNPJ": 22130046000168, "AGENTE": "RONALDO_PEREIRA", "ACAO": "REALIZAR_SEGUNDA_VISITA", "RAZAO_SOCIAL": "MINI_MERCADO_PAO_DA_VIDA_LTDA_-_PAO_DA_VIDA_MERCADO", "ENDERECO": "RUA_JANA_MORONI_BARROSO_56_RESIDENCIAL_COSMOS_CAMPINAS", "CIDADE": "CAMPINAS", "LATITUDE": -22.9498359, "LONGITUDE": -47.1615156 }, "geometry": { "type": "Point", "coordinates": [ -47.1615156, -22.9498359 ] } },
{ "type": "Feature", "properties": { "CNPJ": 40878305000115, "AGENTE": "RONALDO_PEREIRA", "ACAO": "REALIZAR_SEGUNDA_VISITA", "RAZAO_SOCIAL": "THIAGO_SILVA_MEDEIROS_36327351824_-_DOM_PASTEL", "ENDERECO": "RUA_JOSE_BERTOLDI_280_PARQUE_VIA_NORTE_CAMPINAS", "CIDADE": "CAMPINAS", "LATITUDE": -22.8839334, "LONGITUDE": -47.1276644 }, "geometry": { "type": "Point", "coordinates": [ -47.1276644, -22.8839334 ] } },
{ "type": "Feature", "properties": { "CNPJ": 46398646000170, "AGENTE": "RONALDO_PEREIRA", "ACAO": "REALIZAR_SEGUNDA_VISITA", "RAZAO_SOCIAL": "PRISCILA_RIBEIRO_DE_AMORIM_33912099847_-_FIT_CLOSET", "ENDERECO": "RUA_JOSE_FERREIRA_DE_BRITO_124_CONJUNTO_HABITACIONAL_VIDA_NOVA_CAMPINAS", "CIDADE": "CAMPINAS", "LATITUDE": -22.973983, "LONGITUDE": -47.1715681 }, "geometry": { "type": "Point", "coordinates": [ -47.1715681, -22.973983 ] } },
{ "type": "Feature", "properties": { "CNPJ": 51955049000139, "AGENTE": "RONALDO_PEREIRA", "ACAO": "REALIZAR_SEGUNDA_VISITA", "RAZAO_SOCIAL": "51.955.049_GABRIEL_SILVA_PODAVIN_-_PODAVIN_MOVEIS", "ENDERECO": "RUA_JOSE_FERREIRA_DE_BRITO_304_CONJUNTO_MAURO_MARCONDES_CAMPINAS", "CIDADE": "CAMPINAS", "LATITUDE": -22.9755667, "LONGITUDE": -47.1713352 }, "geometry": { "type": "Point", "coordinates": [ -47.1713352, -22.9755667 ] } },
{ "type": "Feature", "properties": { "CNPJ": 33518198000159, "AGENTE": "RONALDO_PEREIRA", "ACAO": "REALIZAR_SEGUNDA_VISITA", "RAZAO_SOCIAL": "JUNIOR_GOMES_LOPES_43844280812_-_JUNIOR_CAR_GAREGE", "ENDERECO": "RUA_JOSE_FERREIRA_DE_BRITO_315_CONJUNTO_MAURO_MARCONDES_CAMPINAS", "CIDADE": "CAMPINAS", "LATITUDE": -22.9721036, "LONGITUDE": -47.1705729 }, "geometry": { "type": "Point", "coordinates": [ -47.1705729, -22.9721036 ] } },
{ "type": "Feature", "properties": { "CNPJ": 58652913000172, "AGENTE": "RONALDO_PEREIRA", "ACAO": "REALIZAR_SEGUNDA_VISITA", "RAZAO_SOCIAL": "58.652.913_ANDREIA_ELISA_BARBOSA_DOS_SANTOS_-_BAR_WAL_OLIVEIRA", "ENDERECO": "RUA_JOSE_FERREIRA_DE_BRITO_325_CONJUNTO_MAURO_MARCONDES_CAMPINAS", "CIDADE": "CAMPINAS", "LATITUDE": -22.9721205, "LONGITUDE": -47.1707338 }, "geometry": { "type": "Point", "coordinates": [ -47.1707338, -22.9721205 ] } },
{ "type": "Feature", "properties": { "CNPJ": 48338344000131, "AGENTE": "RONALDO_PEREIRA", "ACAO": "REALIZAR_SEGUNDA_VISITA", "RAZAO_SOCIAL": "E._OLIVEIRA_RUSTICUS_LTDA_-_AGRO_RUSTICU'S_OLIVEIRA", "ENDERECO": "RUA_JOSE_FERREIRA_DE_BRITO_457_CONJUNTO_MAURO_MARCONDES_CAMPINAS", "CIDADE": "CAMPINAS", "LATITUDE": -22.9731512, "LONGITUDE": -47.1710906 }, "geometry": { "type": "Point", "coordinates": [ -47.1710906, -22.9731512 ] } },
{ "type": "Feature", "properties": { "CNPJ": 17150390000189, "AGENTE": "RONALDO_PEREIRA", "ACAO": "REALIZAR_SEGUNDA_VISITA", "RAZAO_SOCIAL": "S.M.P._E_FORTALEZA_LTDA_-_VIDRACARIA_FORTALEZA", "ENDERECO": "RUA_JOSE_FERREIRA_DE_BRITO_55_CONJUNTO_MAURO_MARCONDES_CAMPINAS", "CIDADE": "CAMPINAS", "LATITUDE": -22.97067, "LONGITUDE": -47.1685717 }, "geometry": { "type": "Point", "coordinates": [ -47.1685717, -22.97067 ] } },
{ "type": "Feature", "properties": { "CNPJ": 33619421000154, "AGENTE": "RONALDO_PEREIRA", "ACAO": "REALIZAR_SEGUNDA_VISITA", "RAZAO_SOCIAL": "33.619.421_FRANCIEL_CORREA_SOARES_-_HELP_CELULARES", "ENDERECO": "RUA_JOSE_MARTINS_DE_OLIVEIRA_15_CONJUNTO_HABITACIONAL_PARQUE_DA_FLORESTA_CAMPINAS", "CIDADE": "CAMPINAS", "LATITUDE": -22.9580508, "LONGITUDE": -47.2005389 }, "geometry": { "type": "Point", "coordinates": [ -47.2005389, -22.9580508 ] } },
{ "type": "Feature", "properties": { "CNPJ": 57209685000106, "AGENTE": "RONALDO_PEREIRA", "ACAO": "REALIZAR_SEGUNDA_VISITA", "RAZAO_SOCIAL": "57.209.685_DANIEL_RODRIGUES_VIANA_-_PADARIA_DA_FAMILIA", "ENDERECO": "RUA_JOSE_PACHECO_12_RESIDENCIAL_COSMOS_CAMPINAS", "CIDADE": "CAMPINAS", "LATITUDE": -22.9511933, "LONGITUDE": -47.162883 }, "geometry": { "type": "Point", "coordinates": [ -47.162883, -22.9511933 ] } },
{ "type": "Feature", "properties": { "CNPJ": 35771535000140, "AGENTE": "RONALDO_PEREIRA", "ACAO": "REALIZAR_SEGUNDA_VISITA", "RAZAO_SOCIAL": "ANDRE_BEZERRA_SILVA_05562361493_-_ANDRE_MATERIAL_DE_CONSTRUCAO", "ENDERECO": "RUA_JOSE_PACHECO_24_CIDADE_SATELITE_IRIS_CAMPINAS", "CIDADE": "CAMPINAS", "LATITUDE": -22.9511747, "LONGITUDE": -47.1624525 }, "geometry": { "type": "Point", "coordinates": [ -47.1624525, -22.9511747 ] } },
{ "type": "Feature", "properties": { "CNPJ": 51978354000146, "AGENTE": "RONALDO_PEREIRA", "ACAO": "REALIZAR_SEGUNDA_VISITA", "RAZAO_SOCIAL": "51.978.354_ALEXANDRE_DA_SILVA_ALVES_-_ADEGA_72", "ENDERECO": "RUA_JOSE_PACHECO_88_CIDADE_SATELITE_IRIS_CAMPINAS", "CIDADE": "CAMPINAS", "LATITUDE": -22.9515917, "LONGITUDE": -47.1640367 }, "geometry": { "type": "Point", "coordinates": [ -47.1640367, -22.9515917 ] } },
{ "type": "Feature", "properties": { "CNPJ": 4052078000100, "AGENTE": "RONALDO_PEREIRA", "ACAO": "REALIZAR_SEGUNDA_VISITA", "RAZAO_SOCIAL": "JOAO_SALVADOR_DE_SOUZA_CHAVEIRO_-_DUDU_CHAVEIROS", "ENDERECO": "RUA_JOSE_ROSOLEM_521_JARDIM_LONDRES_CAMPINAS", "CIDADE": "CAMPINAS", "LATITUDE": -22.9090793, "LONGITUDE": -47.1086563 }, "geometry": { "type": "Point", "coordinates": [ -47.1086563, -22.9090793 ] } },
{ "type": "Feature", "properties": { "CNPJ": 7111084000180, "AGENTE": "RONALDO_PEREIRA", "ACAO": "REALIZAR_SEGUNDA_VISITA", "RAZAO_SOCIAL": "PC_INFO_COMERCIO_E_SERVICOS_DE_INFORMATICA_LTDA_-_INFO_INFORMATICA", "ENDERECO": "RUA_JOSE_ROSOLEM_521_JARDIM_LONDRES_CAMPINAS", "CIDADE": "CAMPINAS", "LATITUDE": -22.9090793, "LONGITUDE": -47.1086563 }, "geometry": { "type": "Point", "coordinates": [ -47.1086563, -22.9090793 ] } },
{ "type": "Feature", "properties": { "CNPJ": 7187158000161, "AGENTE": "RONALDO_PEREIRA", "ACAO": "REALIZAR_SEGUNDA_VISITA", "RAZAO_SOCIAL": "RELOJOARIA_JOY_SANTOS_LTDA_-_RELOJOARIA_JOY", "ENDERECO": "RUA_JOSE_ROSOLEM_521_JARDIM_LONDRES_CAMPINAS", "CIDADE": "CAMPINAS", "LATITUDE": -22.9090793, "LONGITUDE": -47.1086563 }, "geometry": { "type": "Point", "coordinates": [ -47.1086563, -22.9090793 ] } },
{ "type": "Feature", "properties": { "CNPJ": 42587371000161, "AGENTE": "RONALDO_PEREIRA", "ACAO": "REALIZAR_SEGUNDA_VISITA", "RAZAO_SOCIAL": "R.C.C.S_COMERCIO_DE_ACESSORIOS_DE_TELEFONIA_E_INFORMATICA_LTDA_-_CAMPINAS_CELULADES_COVABRA", "ENDERECO": "RUA_JOSE_ROSOLEM_521_JARDIM_LONDRES_CAMPINAS", "CIDADE": "CAMPINAS", "LATITUDE": -22.9090793, "LONGITUDE": -47.1086563 }, "geometry": { "type": "Point", "coordinates": [ -47.1086563, -22.9090793 ] } },
{ "type": "Feature", "properties": { "CNPJ": 9593811000118, "AGENTE": "RONALDO_PEREIRA", "ACAO": "REALIZAR_SEGUNDA_VISITA", "RAZAO_SOCIAL": "MARIA_APARECIDA_DA_SILVA_MESSIAS_MERCEARIA_-_PAPITO_HIDRAULICA_E_ELETRICA", "ENDERECO": "RUA_JOSE_SEBASTIAO_NAPOLE_6_RESIDENCIAL_SAO_JOSE_CAMPINAS", "CIDADE": "CAMPINAS", "LATITUDE": -22.9672683, "LONGITUDE": -47.16098 }, "geometry": { "type": "Point", "coordinates": [ -47.16098, -22.9672683 ] } },
{ "type": "Feature", "properties": { "CNPJ": 29936541000108, "AGENTE": "RONALDO_PEREIRA", "ACAO": "REALIZAR_SEGUNDA_VISITA", "RAZAO_SOCIAL": "KATIA_DO_NASCIMENTO_MOREIRA_-_LULYS_BALOES", "ENDERECO": "RUA_JOSE_SEBASTIAO_NAPOLE_82_RESIDENCIAL_SAO_JOSE_CAMPINAS", "CIDADE": "CAMPINAS", "LATITUDE": -22.951815, "LONGITUDE": -47.1151567 }, "geometry": { "type": "Point", "coordinates": [ -47.1151567, -22.951815 ] } },
{ "type": "Feature", "properties": { "CNPJ": 8724663000160, "AGENTE": "RONALDO_PEREIRA", "ACAO": "REALIZAR_SEGUNDA_VISITA", "RAZAO_SOCIAL": "ADRIEL_VAZ_COMERCIO_MATERIAL_PARA_CONTRUCAO_LTDA_-_FORMOSA_MATERIAL_DE_CONTRUCAO", "ENDERECO": "RUA_JULIO_TIM_539_JARDIM_IPAUSSURAMA_CAMPINAS", "CIDADE": "CAMPINAS", "LATITUDE": -22.9304431, "LONGITUDE": -47.1213733 }, "geometry": { "type": "Point", "coordinates": [ -47.1213733, -22.9304431 ] } },
{ "type": "Feature", "properties": { "CNPJ": 40208956000106, "AGENTE": "RONALDO_PEREIRA", "ACAO": "REALIZAR_SEGUNDA_VISITA", "RAZAO_SOCIAL": "KABCA_AUTO_CENTER_LTDA_-_KABCA_AUTO_CENTER", "ENDERECO": "RUA_LUIZ_FERREIRA_DA_SILVA_15_CAMPINA_GRANDE_CAMPINAS", "CIDADE": "CAMPINAS", "LATITUDE": -22.9546908, "LONGITUDE": -47.2165793 }, "geometry": { "type": "Point", "coordinates": [ -47.2165793, -22.9546908 ] } },
{ "type": "Feature", "properties": { "CNPJ": 34795695000167, "AGENTE": "RONALDO_PEREIRA", "ACAO": "REALIZAR_SEGUNDA_VISITA", "RAZAO_SOCIAL": "JESSE_VELOSO_MAIA_32613927895_-_DR._PANELAS", "ENDERECO": "RUA_LUZITANIA_ISABEL_PAES_SEGALLIO_357_CONJUNTO_HABITACIONAL_VIDA_NOVA_CAMPINAS", "CIDADE": "CAMPINAS", "LATITUDE": -22.9758928, "LONGITUDE": -47.1720812 }, "geometry": { "type": "Point", "coordinates": [ -47.1720812, -22.9758928 ] } },
{ "type": "Feature", "properties": { "CNPJ": 32952274000177, "AGENTE": "RONALDO_PEREIRA", "ACAO": "REALIZAR_SEGUNDA_VISITA", "RAZAO_SOCIAL": "SILVEIRA_&_GABARRON_MATERIAIS_PARA_CONSTRUCAO_LTDA_-_PEROLA_PORTAS_E_JANELAS", "ENDERECO": "RUA_MANOEL_MACHADO_PEREIRA_306_CAMPINAS_CAMPINAS", "CIDADE": "CAMPINAS", "LATITUDE": -22.9460382, "LONGITUDE": -47.1835769 }, "geometry": { "type": "Point", "coordinates": [ -47.1835769, -22.9460382 ] } },
{ "type": "Feature", "properties": { "CNPJ": 34707157000173, "AGENTE": "RONALDO_PEREIRA", "ACAO": "REALIZAR_SEGUNDA_VISITA", "RAZAO_SOCIAL": "PIZZARIA_BANDEIRAS_COMERCIO_DE_ALIMENTOS_LTDA_-_PIZZARIA_BANDEIRAS", "ENDERECO": "RUA_MARCELINO_PIRES_BARBOSA_323_JARDIM_IPAUSSURAMA_CAMPINAS", "CIDADE": "CAMPINAS", "LATITUDE": -22.9280665, "LONGITUDE": -47.1262232 }, "geometry": { "type": "Point", "coordinates": [ -47.1262232, -22.9280665 ] } },
{ "type": "Feature", "properties": { "CNPJ": 39670910000117, "AGENTE": "RONALDO_PEREIRA", "ACAO": "REALIZAR_SEGUNDA_VISITA", "RAZAO_SOCIAL": "39.670.910_MARIANE_DA_SILVA_FERREIRA_-_MARI_SILVA_CONFEITARIA", "ENDERECO": "RUA_MARGARIDA_OCCHIENA_755_PARQUE_AEROPORTO_CAMPINAS", "CIDADE": "CAMPINAS", "LATITUDE": -22.9757483, "LONGITUDE": -47.17109 }, "geometry": { "type": "Point", "coordinates": [ -47.17109, -22.9757483 ] } },
{ "type": "Feature", "properties": { "CNPJ": 59446921000125, "AGENTE": "RONALDO_PEREIRA", "ACAO": "REALIZAR_SEGUNDA_VISITA", "RAZAO_SOCIAL": "59.446.921_DAVI_BOZZO_DE_CARVALHO_-_PADARIA_CARVALHO", "ENDERECO": "RUA_MARIA_AMELIA_RAMOS_119_PARQUE_RESIDENCIAL_CAMPINA_GRANDE_CAMPINAS", "CIDADE": "CAMPINAS", "LATITUDE": -22.9573034, "LONGITUDE": -47.2154613 }, "geometry": { "type": "Point", "coordinates": [ -47.2154613, -22.9573034 ] } },
{ "type": "Feature", "properties": { "CNPJ": 15869140000178, "AGENTE": "RONALDO_PEREIRA", "ACAO": "REALIZAR_SEGUNDA_VISITA", "RAZAO_SOCIAL": "NELSON_MARIANO_11940411831_-_CASA_DE_CHA", "ENDERECO": "RUA_MARIA_AMELIA_RAMOS_139_PARQUE_RESIDENCIAL_CAMPINA_GRANDE_CAMPINAS", "CIDADE": "CAMPINAS", "LATITUDE": -22.9574267, "LONGITUDE": -47.2155483 }, "geometry": { "type": "Point", "coordinates": [ -47.2155483, -22.9574267 ] } },
{ "type": "Feature", "properties": { "CNPJ": 39893111000100, "AGENTE": "RONALDO_PEREIRA", "ACAO": "REALIZAR_SEGUNDA_VISITA", "RAZAO_SOCIAL": "M.N._FONSECA_ROCHA_DROGARIA_-_DROGARIA_DIA", "ENDERECO": "RUA_MARIA_AMELIA_RAMOS_161_PARQUE_RESIDENCIAL_CAMPINA_GRANDE_CAMPINAS", "CIDADE": "CAMPINAS", "LATITUDE": -22.9575892, "LONGITUDE": -47.2157741 }, "geometry": { "type": "Point", "coordinates": [ -47.2157741, -22.9575892 ] } },
{ "type": "Feature", "properties": { "CNPJ": 45416375000175, "AGENTE": "RONALDO_PEREIRA", "ACAO": "REALIZAR_SEGUNDA_VISITA", "RAZAO_SOCIAL": "SUPERMERCADO_F._SETTE_LTDA_-_SUPERMERCADO_F7", "ENDERECO": "RUA_MARIA_AMELIA_RAMOS_173_PARQUE_RESIDENCIAL_CAMPINA_GRANDE_CAMPINAS", "CIDADE": "CAMPINAS", "LATITUDE": -22.957773, "LONGITUDE": -47.2157471 }, "geometry": { "type": "Point", "coordinates": [ -47.2157471, -22.957773 ] } },
{ "type": "Feature", "properties": { "CNPJ": 47694478000122, "AGENTE": "RONALDO_PEREIRA", "ACAO": "REALIZAR_SEGUNDA_VISITA", "RAZAO_SOCIAL": "RENATO_SARAIVA_SILVA_21953609848_-_ADEGA_MR", "ENDERECO": "RUA_MARIA_AMELIA_RAMOS_230_PARQUE_RESIDENCIAL_CAMPINA_GRANDE_CAMPINAS", "CIDADE": "CAMPINAS", "LATITUDE": -22.9581526, "LONGITUDE": -47.2163151 }, "geometry": { "type": "Point", "coordinates": [ -47.2163151, -22.9581526 ] } },
{ "type": "Feature", "properties": { "CNPJ": 13939304000160, "AGENTE": "RONALDO_PEREIRA", "ACAO": "REALIZAR_SEGUNDA_VISITA", "RAZAO_SOCIAL": "M.A._DA_SILVA_OHIS_-RESTAURANTE_-_M_A_MARMITEX", "ENDERECO": "RUA_MARIA_AMELIA_RAMOS_346_PARQUE_RESIDENCIAL_CAMPINA_GRANDE_CAMPINAS", "CIDADE": "CAMPINAS", "LATITUDE": -22.9588283, "LONGITUDE": -47.2169017 }, "geometry": { "type": "Point", "coordinates": [ -47.2169017, -22.9588283 ] } },
{ "type": "Feature", "properties": { "CNPJ": 46386226000173, "AGENTE": "RONALDO_PEREIRA", "ACAO": "REALIZAR_SEGUNDA_VISITA", "RAZAO_SOCIAL": "46.386.226_ECICREIA_MOREIRA_BISPO_-_ECI_STORE", "ENDERECO": "RUA_MARIA_AMELIA_RAMOS_393_JARDIM_CAMPINA_GRANDE_CAMPINAS", "CIDADE": "CAMPINAS", "LATITUDE": -22.9592667, "LONGITUDE": -47.2169607 }, "geometry": { "type": "Point", "coordinates": [ -47.2169607, -22.9592667 ] } },
{ "type": "Feature", "properties": { "CNPJ": 24840116000105, "AGENTE": "RONALDO_PEREIRA", "ACAO": "REALIZAR_SEGUNDA_VISITA", "RAZAO_SOCIAL": "STYLO_V_SALAO_DE_CABELEIREIROS_E_ESTETICA_LTDA_-_STYLO_V_SALAO_DE_CABELEIREIROS_E_ESTETICA", "ENDERECO": "RUA_MARIA_EDNA_VILAGELIN_ZAKIA_485_PARQUE_VIA_NORTE_CAMPINAS", "CIDADE": "CAMPINAS", "LATITUDE": -22.8838743, "LONGITUDE": -47.1275637 }, "geometry": { "type": "Point", "coordinates": [ -47.1275637, -22.8838743 ] } },
{ "type": "Feature", "properties": { "CNPJ": 52878713000156, "AGENTE": "RONALDO_PEREIRA", "ACAO": "REALIZAR_SEGUNDA_VISITA", "RAZAO_SOCIAL": "52.878.713_RENATA_FERNANDES_DOS_SANTOS_-_MARIAS_BOWL", "ENDERECO": "RUA_MARIA_EDNA_VILAGELIN_ZAKIA_485_PARQUE_VIA_NORTE_CAMPINAS", "CIDADE": "CAMPINAS", "LATITUDE": -22.8838881, "LONGITUDE": -47.1273917 }, "geometry": { "type": "Point", "coordinates": [ -47.1273917, -22.8838881 ] } },
{ "type": "Feature", "properties": { "CNPJ": 51543764000164, "AGENTE": "RONALDO_PEREIRA", "ACAO": "REALIZAR_SEGUNDA_VISITA", "RAZAO_SOCIAL": "RBS_TRANSPORTE_E_LOGISTICA_LTDA_-_RBS_TRANSPORTES", "ENDERECO": "RUA_MARIO_CARNIELLI_83_JARDIM_EULINA_CAMPINAS", "CIDADE": "CAMPINAS", "LATITUDE": -22.8883248, "LONGITUDE": -47.1100234 }, "geometry": { "type": "Point", "coordinates": [ -47.1100234, -22.8883248 ] } },
{ "type": "Feature", "properties": { "CNPJ": 47320311000100, "AGENTE": "RONALDO_PEREIRA", "ACAO": "REALIZAR_SEGUNDA_VISITA", "RAZAO_SOCIAL": "ELIZABETH_CRISTINA_DE_MATOS_GIMENEZ_32836167874_-_CASA_DE_CARNES_TEXAS", "ENDERECO": "RUA_MARIO_CARNIELLI_9_JARDIM_EULINA_CAMPINAS", "CIDADE": "CAMPINAS", "LATITUDE": -22.9404817, "LONGITUDE": -47.067435 }, "geometry": { "type": "Point", "coordinates": [ -47.067435, -22.9404817 ] } },
{ "type": "Feature", "properties": { "CNPJ": 25224303000119, "AGENTE": "RONALDO_PEREIRA", "ACAO": "REALIZAR_SEGUNDA_VISITA", "RAZAO_SOCIAL": "GLAUCIA_PEREIRA_DE_MENEZES_RESTAURANTE_-_PIZZARIA_FAVORITA", "ENDERECO": "RUA_MARIO_FERREIRA_MARTINS_8_JARDIM_DOS_OLIVEIRAS_CAMPINAS", "CIDADE": "CAMPINAS", "LATITUDE": -22.9384905, "LONGITUDE": -47.0483509 }, "geometry": { "type": "Point", "coordinates": [ -47.0483509, -22.9384905 ] } },
{ "type": "Feature", "properties": { "CNPJ": 55779459000127, "AGENTE": "RONALDO_PEREIRA", "ACAO": "REALIZAR_SEGUNDA_VISITA", "RAZAO_SOCIAL": "55.779.459_ROGER_GALDINO_DE_BRITO_-_MISTER_PHONE_ACESSO", "ENDERECO": "RUA_MARROCOS_19_NUCLEO_RESIDENCIAL_VILA_VITORIA_CAMPINAS", "CIDADE": "CAMPINAS", "LATITUDE": -22.9751283, "LONGITUDE": -47.17089 }, "geometry": { "type": "Point", "coordinates": [ -47.17089, -22.9751283 ] } },
{ "type": "Feature", "properties": { "CNPJ": 59297617000163, "AGENTE": "RONALDO_PEREIRA", "ACAO": "REALIZAR_SEGUNDA_VISITA", "RAZAO_SOCIAL": "59.297.617_CAROLINE_RODRIGUES_FRITISCHE_-_CHEIA_DE_CHARME_MAKE_UP", "ENDERECO": "RUA_MARROCOS_21_NUCLEO_RESIDENCIAL_VILA_VITORIA_CAMPINAS", "CIDADE": "CAMPINAS", "LATITUDE": -22.9750294, "LONGITUDE": -47.1709272 }, "geometry": { "type": "Point", "coordinates": [ -47.1709272, -22.9750294 ] } },
{ "type": "Feature", "properties": { "CNPJ": 48871871000107, "AGENTE": "RONALDO_PEREIRA", "ACAO": "REALIZAR_SEGUNDA_VISITA", "RAZAO_SOCIAL": "48.871.871_FRANCISCO_CASTRO_SEVERO_-_MEK_LAMB", "ENDERECO": "RUA_MARROCOS_43_NUCLEO_RESIDENCIAL_VILA_VITORIA_CAMPINAS", "CIDADE": "CAMPINAS", "LATITUDE": -22.9748066, "LONGITUDE": -47.1706683 }, "geometry": { "type": "Point", "coordinates": [ -47.1706683, -22.9748066 ] } },
{ "type": "Feature", "properties": { "CNPJ": 49472620000112, "AGENTE": "RONALDO_PEREIRA", "ACAO": "REALIZAR_SEGUNDA_VISITA", "RAZAO_SOCIAL": "49.472.620_RONEY_MORAES_DE_OLIVEIRA_-_FRIDAY_BURGUER", "ENDERECO": "RUA_MARROCOS_6_NUCLEO_RESIDENCIAL_VILA_VITORIA_CAMPINAS", "CIDADE": "CAMPINAS", "LATITUDE": -22.9750318, "LONGITUDE": -47.1711647 }, "geometry": { "type": "Point", "coordinates": [ -47.1711647, -22.9750318 ] } },
{ "type": "Feature", "properties": { "CNPJ": 35598834000125, "AGENTE": "RONALDO_PEREIRA", "ACAO": "REALIZAR_SEGUNDA_VISITA", "RAZAO_SOCIAL": "NATALIA_VERONICA_LONGHI_40147640873_-_MAIS_KI_DELICIA", "ENDERECO": "RUA_MICHEL_FARES_74_JARDIM_CONCEICAO_CAMPINAS", "CIDADE": "CAMPINAS", "LATITUDE": -22.886735, "LONGITUDE": -46.9780417 }, "geometry": { "type": "Point", "coordinates": [ -46.9780417, -22.886735 ] } },
{ "type": "Feature", "properties": { "CNPJ": 28874656000152, "AGENTE": "RONALDO_PEREIRA", "ACAO": "REALIZAR_SEGUNDA_VISITA", "RAZAO_SOCIAL": "RAMAO_ROBERTO_RAMIRES_VENIALGO_18770315850_-_DISTRIBUIDORA_VITORIA", "ENDERECO": "RUA_MOCAMBIQUE_11_RESIDENCIAL_VILA_VITORIA_CAMPINAS", "CIDADE": "CAMPINAS", "LATITUDE": -22.9760264, "LONGITUDE": -47.1711042 }, "geometry": { "type": "Point", "coordinates": [ -47.1711042, -22.9760264 ] } },
{ "type": "Feature", "properties": { "CNPJ": 37269407000129, "AGENTE": "RONALDO_PEREIRA", "ACAO": "REALIZAR_SEGUNDA_VISITA", "RAZAO_SOCIAL": "ERICK_APARECIDO_RODRIGUES_57545034821_-_ADEGA_1", "ENDERECO": "RUA_MOCAMBIQUE_765_RESIDENCIAL_VILA_VITORIA_CAMPINAS", "CIDADE": "CAMPINAS", "LATITUDE": -22.9759173, "LONGITUDE": -47.1710988 }, "geometry": { "type": "Point", "coordinates": [ -47.1710988, -22.9759173 ] } },
{ "type": "Feature", "properties": { "CNPJ": 33313055000100, "AGENTE": "RONALDO_PEREIRA", "ACAO": "REALIZAR_SEGUNDA_VISITA", "RAZAO_SOCIAL": "MARTINS_COMERCIO_DE_DOCES_E_EMBALAGENS_LTDA_-_DOCAO", "ENDERECO": "RUA_NADIR_DIAS_DE_OLIVEIRA_251_JARDIM_AURELIA_CAMPINAS", "CIDADE": "CAMPINAS", "LATITUDE": -22.9327801, "LONGITUDE": -47.1303586 }, "geometry": { "type": "Point", "coordinates": [ -47.1303586, -22.9327801 ] } },
{ "type": "Feature", "properties": { "CNPJ": 5076131000176, "AGENTE": "RONALDO_PEREIRA", "ACAO": "REALIZAR_SEGUNDA_VISITA", "RAZAO_SOCIAL": "KF_COMERCIO_DE_MADEIRAS_E_MATERIAIS_DE_CONSTRUCAO_LTDA_-_KF_COMERCIO_DE_MADEIRAS_E_MATERIAIS_DE_CONSTRUCAO", "ENDERECO": "RUA_NADIR_DIAS_DE_OLIVEIRA_4709_CIDADE_SATELITE_IRIS_CAMPINAS", "CIDADE": "CAMPINAS", "LATITUDE": -22.9318774, "LONGITUDE": -47.1296309 }, "geometry": { "type": "Point", "coordinates": [ -47.1296309, -22.9318774 ] } },
{ "type": "Feature", "properties": { "CNPJ": 38006801000137, "AGENTE": "RONALDO_PEREIRA", "ACAO": "REALIZAR_SEGUNDA_VISITA", "RAZAO_SOCIAL": "FRANGONETE_DUNLOP_LTDA_-_FRANGONET_DUNLOP", "ENDERECO": "RUA_NADIR_DIAS_DE_OLIVEIRA_4833_CIDADE_SATELITE_IRIS_CAMPINAS", "CIDADE": "CAMPINAS", "LATITUDE": -22.9327438, "LONGITUDE": -47.1301885 }, "geometry": { "type": "Point", "coordinates": [ -47.1301885, -22.9327438 ] } },
{ "type": "Feature", "properties": { "CNPJ": 5921534000174, "AGENTE": "RONALDO_PEREIRA", "ACAO": "REALIZAR_SEGUNDA_VISITA", "RAZAO_SOCIAL": "S_C_M_TERRA_ESQUADRIAS_-_JANELAR", "ENDERECO": "RUA_NADIR_DIAS_DE_OLIVEIRA_4903_CIDADE_SATELITE_IRIS_CAMPINAS", "CIDADE": "CAMPINAS", "LATITUDE": -22.9333916, "LONGITUDE": -47.1305146 }, "geometry": { "type": "Point", "coordinates": [ -47.1305146, -22.9333916 ] } },
{ "type": "Feature", "properties": { "CNPJ": 32244587000170, "AGENTE": "RONALDO_PEREIRA", "ACAO": "REALIZAR_SEGUNDA_VISITA", "RAZAO_SOCIAL": "LB_COMERCIO_E_SERVICOS_EM_BATERIAS_TRACIONARIAS_LTDA_-_LB_BATERIAS", "ENDERECO": "RUA_NADIR_DIAS_DE_OLIVEIRA_4913_JARDIM_AURELIA_CAMPINAS", "CIDADE": "CAMPINAS", "LATITUDE": -22.9334367, "LONGITUDE": -47.13059 }, "geometry": { "type": "Point", "coordinates": [ -47.13059, -22.9334367 ] } },
{ "type": "Feature", "properties": { "CNPJ": 11276283000115, "AGENTE": "RONALDO_PEREIRA", "ACAO": "REALIZAR_SEGUNDA_VISITA", "RAZAO_SOCIAL": "ROSE_PISOS_LTDA_-_ROSE_PISOS", "ENDERECO": "RUA_NADIR_DIAS_DE_OLIVEIRA_4949_JARDIM_SATELITE_CAMPINAS", "CIDADE": "CAMPINAS", "LATITUDE": -22.9336978, "LONGITUDE": -47.130634 }, "geometry": { "type": "Point", "coordinates": [ -47.130634, -22.9336978 ] } },
{ "type": "Feature", "properties": { "CNPJ": 11647125000124, "AGENTE": "RONALDO_PEREIRA", "ACAO": "REALIZAR_SEGUNDA_VISITA", "RAZAO_SOCIAL": "NATAL_JOB_DOS_SANTOS_MERCEARIA_-_MERCADO_SKINA", "ENDERECO": "RUA_NELSON_VERDADE_130_RESIDENCIAL_SAO_LUIS_CAMPINAS", "CIDADE": "CAMPINAS", "LATITUDE": -22.9537785, "LONGITUDE": -47.2157499 }, "geometry": { "type": "Point", "coordinates": [ -47.2157499, -22.9537785 ] } },
{ "type": "Feature", "properties": { "CNPJ": 47118610000158, "AGENTE": "RONALDO_PEREIRA", "ACAO": "REALIZAR_SEGUNDA_VISITA", "RAZAO_SOCIAL": "MICHELE_MARQUES_BISPO_33310170861_-_SNOOKER_E_BEER", "ENDERECO": "RUA_NELSON_VERDADE_217_RESIDENCIAL_SAO_LUIS_CAMPINAS", "CIDADE": "CAMPINAS", "LATITUDE": -22.953099, "LONGITUDE": -47.2158705 }, "geometry": { "type": "Point", "coordinates": [ -47.2158705, -22.953099 ] } },
{ "type": "Feature", "properties": { "CNPJ": 12568683000167, "AGENTE": "RONALDO_PEREIRA", "ACAO": "REALIZAR_SEGUNDA_VISITA", "RAZAO_SOCIAL": "MARTA_DA_SILVA_ROSA_CIA_LIMITADA_-_DEPOSITO_PINGAO", "ENDERECO": "RUA_NIGERIA_138_PARQUE_AEROPORTO_CAMPINAS", "CIDADE": "CAMPINAS", "LATITUDE": -22.9763868, "LONGITUDE": -47.1694711 }, "geometry": { "type": "Point", "coordinates": [ -47.1694711, -22.9763868 ] } },
{ "type": "Feature", "properties": { "CNPJ": 46419476000162, "AGENTE": "RONALDO_PEREIRA", "ACAO": "REALIZAR_SEGUNDA_VISITA", "RAZAO_SOCIAL": "JACKSON_DIAS_DA_SILVA_21823891802_-_LIKA_ACAI", "ENDERECO": "RUA_QUENIA_6_NUCLEO_RESIDENCIAL_VILA_VITORIA_CAMPINAS", "CIDADE": "CAMPINAS", "LATITUDE": -22.9771811, "LONGITUDE": -47.1690555 }, "geometry": { "type": "Point", "coordinates": [ -47.1690555, -22.9771811 ] } },
{ "type": "Feature", "properties": { "CNPJ": 39907516000150, "AGENTE": "RONALDO_PEREIRA", "ACAO": "REALIZAR_SEGUNDA_VISITA", "RAZAO_SOCIAL": "NOSTRO_FUMO_PAGUE_MENOS_PRODUTOS_DE_TABACARIA_EM_GERAL_LTDA_-_NOSTRO_FUMO", "ENDERECO": "RUA_REINALDO_SCHNEIDER_58_CIDADE_SATELITE_IRIS_CAMPINAS", "CIDADE": "CAMPINAS", "LATITUDE": -22.9355799, "LONGITUDE": -47.1632099 }, "geometry": { "type": "Point", "coordinates": [ -47.1632099, -22.9355799 ] } },
{ "type": "Feature", "properties": { "CNPJ": 59096887000106, "AGENTE": "RONALDO_PEREIRA", "ACAO": "REALIZAR_SEGUNDA_VISITA", "RAZAO_SOCIAL": "59.096.887_EDONILTON_GOMES_DE_JESUS_-_EITA_PASTEL_2", "ENDERECO": "RUA_SAO_BENTO_DO_SAPUCAI_711_JARDIM_NOVA_EUROPA_CAMPINAS", "CIDADE": "CAMPINAS", "LATITUDE": -22.9412891, "LONGITUDE": -47.0519272 }, "geometry": { "type": "Point", "coordinates": [ -47.0519272, -22.9412891 ] } },
{ "type": "Feature", "properties": { "CNPJ": 10960050000174, "AGENTE": "RONALDO_PEREIRA", "ACAO": "REALIZAR_SEGUNDA_VISITA", "RAZAO_SOCIAL": "STUDIO_''D''_CABELEIREIROS_E_BOUTIQUE_LTDA_-_STUDIO_''D''_CABELEIREIROS", "ENDERECO": "RUA_SAO_BENTO_DO_SAPUCAI_722_JARDIM_NOVA_EUROPA_CAMPINAS", "CIDADE": "CAMPINAS", "LATITUDE": -22.9413553, "LONGITUDE": -47.0519909 }, "geometry": { "type": "Point", "coordinates": [ -47.0519909, -22.9413553 ] } },
{ "type": "Feature", "properties": { "CNPJ": 10211966000121, "AGENTE": "RONALDO_PEREIRA", "ACAO": "REALIZAR_SEGUNDA_VISITA", "RAZAO_SOCIAL": "DUARTE_&_LOPES_COMERCIO_DE_ACESSORIOS_LTDA_-_TUTTI_VITTA", "ENDERECO": "RUA_SAO_BENTO_DO_SAPUCAI_730_JARDIM_NOVA_EUROPA_CAMPINAS", "CIDADE": "CAMPINAS", "LATITUDE": -22.9414863, "LONGITUDE": -47.0519845 }, "geometry": { "type": "Point", "coordinates": [ -47.0519845, -22.9414863 ] } },
{ "type": "Feature", "properties": { "CNPJ": 12116420000117, "AGENTE": "RONALDO_PEREIRA", "ACAO": "REALIZAR_SEGUNDA_VISITA", "RAZAO_SOCIAL": "INALDO_ANDRADE_DA_SILVA_-_ADEGA_IMPERIO_DA_AGUAS", "ENDERECO": "RUA_SAO_MIGUEL_ARCANJO_1701_JARDIM_NOVA_EUROPA_CAMPINAS", "CIDADE": "CAMPINAS", "LATITUDE": -22.9433433, "LONGITUDE": -47.0515327 }, "geometry": { "type": "Point", "coordinates": [ -47.0515327, -22.9433433 ] } },
{ "type": "Feature", "properties": { "CNPJ": 28835903000101, "AGENTE": "RONALDO_PEREIRA", "ACAO": "REALIZAR_SEGUNDA_VISITA", "RAZAO_SOCIAL": "JRD_SERVICOS_E_MONTAGENS_INDUSTRIAIS_LTDA_-_JRD_SERVICOS_E_MONTAGENS_INDUSTRIAIS", "ENDERECO": "RUA_SEBASTIAO_CARNEIRO_RIBAS_298_JARDIM_IPAUSSURAMA_CAMPINAS", "CIDADE": "CAMPINAS", "LATITUDE": -22.9277367, "LONGITUDE": -47.1256157 }, "geometry": { "type": "Point", "coordinates": [ -47.1256157, -22.9277367 ] } },
{ "type": "Feature", "properties": { "CNPJ": 13041949000181, "AGENTE": "RONALDO_PEREIRA", "ACAO": "REALIZAR_SEGUNDA_VISITA", "RAZAO_SOCIAL": "MLB_-_SERVICOS_ADMINISTRATIVOS_LTDA_-_POLO_LOKO", "ENDERECO": "RUA_SILVIO_BACHETTI_117_JARDIM_IPAUSSURAMA_CAMPINAS", "CIDADE": "CAMPINAS", "LATITUDE": -22.9270583, "LONGITUDE": -47.1258983 }, "geometry": { "type": "Point", "coordinates": [ -47.1258983, -22.9270583 ] } },
{ "type": "Feature", "properties": { "CNPJ": 50767469000129, "AGENTE": "RONALDO_PEREIRA", "ACAO": "REALIZAR_SEGUNDA_VISITA", "RAZAO_SOCIAL": "PREMIUM_ADEGA_&_TABACARIA_LTDA_-_ADEGA_PREMIUM", "ENDERECO": "RUA_SILVIO_DI_MARZIO_216_JARDIM_EULINA_CAMPINAS", "CIDADE": "CAMPINAS", "LATITUDE": -22.8886533, "LONGITUDE": -47.11043 }, "geometry": { "type": "Point", "coordinates": [ -47.11043, -22.8886533 ] } },
{ "type": "Feature", "properties": { "CNPJ": 56901161000100, "AGENTE": "RONALDO_PEREIRA", "ACAO": "REALIZAR_SEGUNDA_VISITA", "RAZAO_SOCIAL": "56.901.161_BARBARA_ESTEFANI_MORSELLI_DE_OLIVEIRA_-_ADEGA_SHARK", "ENDERECO": "RUA_SUDAO_5_NUCLEO_RESIDENCIAL_VILA_VITORIA_CAMPINAS", "CIDADE": "CAMPINAS", "LATITUDE": -22.9784114, "LONGITUDE": -47.1681401 }, "geometry": { "type": "Point", "coordinates": [ -47.1681401, -22.9784114 ] } },
{ "type": "Feature", "properties": { "CNPJ": 47916500000131, "AGENTE": "RONALDO_PEREIRA", "ACAO": "REALIZAR_SEGUNDA_VISITA", "RAZAO_SOCIAL": "NILTON_MARCEANO_DE_BRITO_33002994898_-_LUNI_DOCES", "ENDERECO": "RUA_TENENTE_BELMIRO_FOGAGNOLI_14_CONJUNTO_HABITACIONAL_PARQUE_DA_FLORESTA_CAMPINAS", "CIDADE": "CAMPINAS", "LATITUDE": -22.9582345, "LONGITUDE": -47.2008955 }, "geometry": { "type": "Point", "coordinates": [ -47.2008955, -22.9582345 ] } },
{ "type": "Feature", "properties": { "CNPJ": 10826135000164, "AGENTE": "RONALDO_PEREIRA", "ACAO": "REALIZAR_SEGUNDA_VISITA", "RAZAO_SOCIAL": "R.GOMES_SANTOS_MERCEARIA_-_MERCASO_CHAME_CHAME", "ENDERECO": "RUA_TENENTE_BELMIRO_FOGAGNOLI_2_CONJUNTO_HABITACIONAL_PARQUE_DA_FLORESTA_CAMPINAS", "CIDADE": "CAMPINAS", "LATITUDE": -22.9582437, "LONGITUDE": -47.2007484 }, "geometry": { "type": "Point", "coordinates": [ -47.2007484, -22.9582437 ] } },
{ "type": "Feature", "properties": { "CNPJ": 12721769000188, "AGENTE": "RONALDO_PEREIRA", "ACAO": "REALIZAR_SEGUNDA_VISITA", "RAZAO_SOCIAL": "12.721.769_ROSIMEIRE_ALVES_FERREIRA_-_ZR_MODAS", "ENDERECO": "RUA_TENENTE_BELMIRO_FOGAGNOLI_8_CONJUNTO_HABITACIONAL_PARQUE_DA_FLORESTA_CAMPINAS", "CIDADE": "CAMPINAS", "LATITUDE": -22.9582442, "LONGITUDE": -47.2008486 }, "geometry": { "type": "Point", "coordinates": [ -47.2008486, -22.9582442 ] } },
{ "type": "Feature", "properties": { "CNPJ": 54156179000108, "AGENTE": "RONALDO_PEREIRA", "ACAO": "REALIZAR_SEGUNDA_VISITA", "RAZAO_SOCIAL": "BEATRIZ_SCAVASE_CAMINE_-_NASA_AUTO_PECAS", "ENDERECO": "RUA_VALDEMAR_BENTO_DE_OLIVEIRA_166_JARDIM_FLORENCE_CAMPINAS", "CIDADE": "CAMPINAS", "LATITUDE": -22.9369552, "LONGITUDE": -47.1607499 }, "geometry": { "type": "Point", "coordinates": [ -47.1607499, -22.9369552 ] } },
{ "type": "Feature", "properties": { "CNPJ": 49641644000158, "AGENTE": "RONALDO_PEREIRA", "ACAO": "REALIZAR_SEGUNDA_VISITA", "RAZAO_SOCIAL": "NLF_SERVICOS_DE_DESPACHANTE_LTDA_-_DESPACHANTE_EXPRESS", "ENDERECO": "RUA_VALDEMAR_BENTO_DE_OLIVEIRA_186_JARDIM_FLORENCE_CAMPINAS", "CIDADE": "CAMPINAS", "LATITUDE": -22.9370684, "LONGITUDE": -47.1606149 }, "geometry": { "type": "Point", "coordinates": [ -47.1606149, -22.9370684 ] } },
{ "type": "Feature", "properties": { "CNPJ": 37504993000149, "AGENTE": "RONALDO_PEREIRA", "ACAO": "REALIZAR_SEGUNDA_VISITA", "RAZAO_SOCIAL": "GENILDO_DE_SIQUEIRA_ROCHA_26030560859_-_ESTACAO_SMART_BURGER", "ENDERECO": "RUA_VERA_LUCIA_TOGNOLO_AGGIO_10_CIDADE_SATELITE_IRIS_CAMPINAS", "CIDADE": "CAMPINAS", "LATITUDE": -22.9525488, "LONGITUDE": -47.1656285 }, "geometry": { "type": "Point", "coordinates": [ -47.1656285, -22.9525488 ] } },
{ "type": "Feature", "properties": { "CNPJ": 30404117000100, "AGENTE": "RONALDO_PEREIRA", "ACAO": "REALIZAR_SEGUNDA_VISITA", "RAZAO_SOCIAL": "LUZIA_MARIANA_DE_OLIVEIRA_SILVA_-_STAR_BIKE", "ENDERECO": "RUA_VICENTE_LOURENCO_DOS_SANTOS_290_CONJUNTO_HABITACIONAL_PARQUE_DA_FLORESTA_CAMPINAS", "CIDADE": "CAMPINAS", "LATITUDE": -22.9577972, "LONGITUDE": -47.1992035 }, "geometry": { "type": "Point", "coordinates": [ -47.1992035, -22.9577972 ] } },
{ "type": "Feature", "properties": { "CNPJ": 43500704000136, "AGENTE": "RONALDO_PEREIRA", "ACAO": "REALIZAR_SEGUNDA_VISITA", "RAZAO_SOCIAL": "43.500.704_ANDERSON_ALVES_DA_SILVA_-_GORDAO_PIZZA", "ENDERECO": "RUA_VICENTE_LOURENCO_DOS_SANTOS_290_CONJUNTO_HABITACIONAL_PARQUE_DA_FLORESTA_CAMPINAS", "CIDADE": "CAMPINAS", "LATITUDE": -22.9579282, "LONGITUDE": -47.1992422 }, "geometry": { "type": "Point", "coordinates": [ -47.1992422, -22.9579282 ] } },
{ "type": "Feature", "properties": { "CNPJ": 36716653000119, "AGENTE": "RONALDO_PEREIRA", "ACAO": "REALIZAR_SEGUNDA_VISITA", "RAZAO_SOCIAL": "JADER_SENIGALIA_27448601822_-_TONINHO_PNEUS", "ENDERECO": "RUA_VICENTE_MATALLO_176_PARQUE_VALENCA_CAMPINAS", "CIDADE": "CAMPINAS", "LATITUDE": -22.9460726, "LONGITUDE": -47.1882776 }, "geometry": { "type": "Point", "coordinates": [ -47.1882776, -22.9460726 ] } },
{ "type": "Feature", "properties": { "CNPJ": 47260882000198, "AGENTE": "RONALDO_PEREIRA", "ACAO": "REALIZAR_SEGUNDA_VISITA", "RAZAO_SOCIAL": "ANA_PAULA_NUNES_DE_JESUS_21947750801_-_AGRO_FLORESTA", "ENDERECO": "RUA_WILSON_ROMERO_373_CONJUNTO_RESIDENCIAL_PARQUE_SAO_BENTO_CAMPINAS", "CIDADE": "CAMPINAS", "LATITUDE": -22.9576394, "LONGITUDE": -47.1993015 }, "geometry": { "type": "Point", "coordinates": [ -47.1993015, -22.9576394 ] } }
]
}
