{
"type": "FeatureCollection",
"name": "VANESSA_ROCHA",
"crs": { "type": "name", "properties": { "name": "urn:ogc:def:crs:OGC:1.3:CRS84" } },
"xy_coordinate_resolution": 1e-15,
"features": [
{ "type": "Feature", "properties": { "CNPJ": 6947892000119, "AGENTE": "VANESSA_ROCHA", "ACAO": "REALIZAR_PRIMEIRA_VISITA", "RAZAO_SOCIAL": "TEMPEROS_DONA_BENTA_LTDA", "ENDERECO": "AVENIDA_FRANCISCO_MARENGO_2086_JARDIM_DONA_BENTA_SUZANO", "CIDADE": "SUZANO", "LATITUDE": -23.501568, "LONGITUDE": -46.2983316 }, "geometry": { "type": "Point", "coordinates": [ -46.2983316, -23.501568 ] } },
{ "type": "Feature", "properties": { "CNPJ": 7314445000195, "AGENTE": "VANESSA_ROCHA", "ACAO": "REALIZAR_PRIMEIRA_VISITA", "RAZAO_SOCIAL": "ANDERSON_TADAO_HORIKAWA_UTILIDADES", "ENDERECO": "AVENIDA_FRANCISCO_MARENGO_2134_JARDIM_DONA_BENTA_SUZANO", "CIDADE": "SUZANO", "LATITUDE": -23.5015093, "LONGITUDE": -46.2979021 }, "geometry": { "type": "Point", "coordinates": [ -46.2979021, -23.5015093 ] } },
{ "type": "Feature", "properties": { "CNPJ": 69303899000118, "AGENTE": "VANESSA_ROCHA", "ACAO": "REALIZAR_PRIMEIRA_VISITA", "RAZAO_SOCIAL": "MARIA_CONCEICAO_BARREIRO_LOURENCO", "ENDERECO": "AVENIDA_FRANCISCO_MARENGO_2142_JARDIM_DONA_BENTA_SUZANO", "CIDADE": "SUZANO", "LATITUDE": -23.5015279, "LONGITUDE": -46.297885 }, "geometry": { "type": "Point", "coordinates": [ -46.297885, -23.5015279 ] } },
{ "type": "Feature", "properties": { "CNPJ": 7985273000181, "AGENTE": "VANESSA_ROCHA", "ACAO": "REALIZAR_PRIMEIRA_VISITA", "RAZAO_SOCIAL": "GISELMA_B._DE_OLIVEIRA", "ENDERECO": "AVENIDA_FRANCISCO_MARENGO_2155_JARDIM_DONA_BENTA_SUZANO", "CIDADE": "SUZANO", "LATITUDE": -23.5011333, "LONGITUDE": -46.2975887 }, "geometry": { "type": "Point", "coordinates": [ -46.2975887, -23.5011333 ] } },
{ "type": "Feature", "properties": { "CNPJ": 54108046000158, "AGENTE": "VANESSA_ROCHA", "ACAO": "REALIZAR_PRIMEIRA_VISITA", "RAZAO_SOCIAL": "FAROL_CALCADOS_LTDA", "ENDERECO": "AVENIDA_FRANCISCO_MARENGO_2160_JARDIM_DONA_BENTA_SUZANO", "CIDADE": "SUZANO", "LATITUDE": -23.5013992, "LONGITUDE": -46.2976993 }, "geometry": { "type": "Point", "coordinates": [ -46.2976993, -23.5013992 ] } },
{ "type": "Feature", "properties": { "CNPJ": 45439526000100, "AGENTE": "VANESSA_ROCHA", "ACAO": "REALIZAR_PRIMEIRA_VISITA", "RAZAO_SOCIAL": "MOTION_FIT_SUZANO_ACADEMIA_LTDA", "ENDERECO": "AVENIDA_FRANCISCO_MARENGO_2175_JARDIM_DONA_BENTA_SUZANO", "CIDADE": "SUZANO", "LATITUDE": -23.5010789, "LONGITUDE": -46.2974074 }, "geometry": { "type": "Point", "coordinates": [ -46.2974074, -23.5010789 ] } },
{ "type": "Feature", "properties": { "CNPJ": 51371839000177, "AGENTE": "VANESSA_ROCHA", "ACAO": "REALIZAR_PRIMEIRA_VISITA", "RAZAO_SOCIAL": "MATERIAIS_PARA_CONSTRUCOES_JARDIM_DONA_BENTA_LTDA", "ENDERECO": "AVENIDA_FRANCISCO_MARENGO_2190_JARDIM_DONA_BENTA_SUZANO", "CIDADE": "SUZANO", "LATITUDE": -23.5014752, "LONGITUDE": -46.2972424 }, "geometry": { "type": "Point", "coordinates": [ -46.2972424, -23.5014752 ] } },
{ "type": "Feature", "properties": { "CNPJ": 24445404000157, "AGENTE": "VANESSA_ROCHA", "ACAO": "REALIZAR_PRIMEIRA_VISITA", "RAZAO_SOCIAL": "PADARIA_NEVES_DONA_BENTA_LTDA", "ENDERECO": "AVENIDA_FRANCISCO_MARENGO_2244_JARDIM_DONA_BENTA_SUZANO", "CIDADE": "SUZANO", "LATITUDE": -23.5009899, "LONGITUDE": -46.2968596 }, "geometry": { "type": "Point", "coordinates": [ -46.2968596, -23.5009899 ] } },
{ "type": "Feature", "properties": { "CNPJ": 4409760000108, "AGENTE": "VANESSA_ROCHA", "ACAO": "REALIZAR_PRIMEIRA_VISITA", "RAZAO_SOCIAL": "MERCADAO_MATERIAIS_PARA_CONSTRUCAO_LTDA", "ENDERECO": "AVENIDA_FRANCISCO_MARENGO_2300_JARDIM_DONA_BENTA_SUZANO", "CIDADE": "SUZANO", "LATITUDE": -23.5008133, "LONGITUDE": -46.2965034 }, "geometry": { "type": "Point", "coordinates": [ -46.2965034, -23.5008133 ] } },
{ "type": "Feature", "properties": { "CNPJ": 11044311000179, "AGENTE": "VANESSA_ROCHA", "ACAO": "REALIZAR_PRIMEIRA_VISITA", "RAZAO_SOCIAL": "AIRTON_ARAUJO_DA_SILVA_JUNIOR_VIDRACARIA", "ENDERECO": "AVENIDA_FRANCISCO_MARENGO_2302_JARDIM_DONA_BENTA_SUZANO", "CIDADE": "SUZANO", "LATITUDE": -23.5006315, "LONGITUDE": -46.2965179 }, "geometry": { "type": "Point", "coordinates": [ -46.2965179, -23.5006315 ] } },
{ "type": "Feature", "properties": { "CNPJ": 31515255000110, "AGENTE": "VANESSA_ROCHA", "ACAO": "REALIZAR_PRIMEIRA_VISITA", "RAZAO_SOCIAL": "MOURA_COMERCIO_DE_MATERIAIS_ELETRICOS_E_HIDRAULICOS_LTDA", "ENDERECO": "AVENIDA_FRANCISCO_MARENGO_2326_JARDIM_DONA_BENTA_SUZANO", "CIDADE": "SUZANO", "LATITUDE": -23.5005613, "LONGITUDE": -46.2964172 }, "geometry": { "type": "Point", "coordinates": [ -46.2964172, -23.5005613 ] } },
{ "type": "Feature", "properties": { "CNPJ": 36655477000152, "AGENTE": "VANESSA_ROCHA", "ACAO": "REALIZAR_PRIMEIRA_VISITA", "RAZAO_SOCIAL": "JAIME_TERRAPLENAGEM_LTDA", "ENDERECO": "AVENIDA_FRANCISCO_MARENGO_2505_JARDIM_DONA_BENTA_SUZANO", "CIDADE": "SUZANO", "LATITUDE": -23.4983146, "LONGITUDE": -46.2955341 }, "geometry": { "type": "Point", "coordinates": [ -46.2955341, -23.4983146 ] } },
{ "type": "Feature", "properties": { "CNPJ": 41743087000174, "AGENTE": "VANESSA_ROCHA", "ACAO": "REALIZAR_PRIMEIRA_VISITA", "RAZAO_SOCIAL": "FARMA_TOP_MED_LTDA", "ENDERECO": "AVENIDA_GONCALVES_DIAS_1193_PARQUE_RESIDENCIAL_MARENGO_ITAQUAQUECETUBA", "CIDADE": "ITAQUAQUECETUBA", "LATITUDE": -23.489575, "LONGITUDE": -46.3020738 }, "geometry": { "type": "Point", "coordinates": [ -46.3020738, -23.489575 ] } },
{ "type": "Feature", "properties": { "CNPJ": 3614212000157, "AGENTE": "VANESSA_ROCHA", "ACAO": "REALIZAR_PRIMEIRA_VISITA", "RAZAO_SOCIAL": "PERFUMARIA_JACK'S_COSMETICOS_E_PAPELARIA_LTDA", "ENDERECO": "AVENIDA_GONCALVES_DIAS_1628_PARQUE_RESIDENCIAL_MARENGO_ITAQUAQUECETUBA", "CIDADE": "ITAQUAQUECETUBA", "LATITUDE": -23.4943849, "LONGITUDE": -46.3012471 }, "geometry": { "type": "Point", "coordinates": [ -46.3012471, -23.4943849 ] } },
{ "type": "Feature", "properties": { "CNPJ": 28901083000109, "AGENTE": "VANESSA_ROCHA", "ACAO": "REALIZAR_PRIMEIRA_VISITA", "RAZAO_SOCIAL": "GLEICE_ALVES_DE_SOUZA", "ENDERECO": "AVENIDA_GONCALVES_DIAS_1715_PARQUE_RESIDENCIAL_MARENGO_ITAQUAQUECETUBA", "CIDADE": "ITAQUAQUECETUBA", "LATITUDE": -23.4938685, "LONGITUDE": -46.3013419 }, "geometry": { "type": "Point", "coordinates": [ -46.3013419, -23.4938685 ] } },
{ "type": "Feature", "properties": { "CNPJ": 37950579000163, "AGENTE": "VANESSA_ROCHA", "ACAO": "REALIZAR_PRIMEIRA_VISITA", "RAZAO_SOCIAL": "V_C_D_RIOS_FARMACIA", "ENDERECO": "AVENIDA_HUMBERTO_DE_CAMPOS_11_PARQUE_RESIDENCIAL_MARENGO_ITAQUAQUECETUBA", "CIDADE": "ITAQUAQUECETUBA", "LATITUDE": -23.4938806, "LONGITUDE": -46.3015381 }, "geometry": { "type": "Point", "coordinates": [ -46.3015381, -23.4938806 ] } },
{ "type": "Feature", "properties": { "CNPJ": 46528872000128, "AGENTE": "VANESSA_ROCHA", "ACAO": "REALIZAR_PRIMEIRA_VISITA", "RAZAO_SOCIAL": "ROBERTO_ROCHA_PANIFICADORA_E_COMERCIO_LTDA", "ENDERECO": "AVENIDA_ITAPETI_808_JARDIM_FERNANDES_SUZANO", "CIDADE": "SUZANO", "LATITUDE": -23.5004719, "LONGITUDE": -46.3020986 }, "geometry": { "type": "Point", "coordinates": [ -46.3020986, -23.5004719 ] } },
{ "type": "Feature", "properties": { "CNPJ": 622808000100, "AGENTE": "VANESSA_ROCHA", "ACAO": "REALIZAR_PRIMEIRA_VISITA", "RAZAO_SOCIAL": "RENILDA_DE_ASSIS_DIAS", "ENDERECO": "AVENIDA_JOAQUIM_MANOEL_DE_MACEDO_629_PARQUE_RESIDENCIAL_MARENGO_ITAQUAQUECETUBA", "CIDADE": "ITAQUAQUECETUBA", "LATITUDE": -23.4851248, "LONGITUDE": -46.2984284 }, "geometry": { "type": "Point", "coordinates": [ -46.2984284, -23.4851248 ] } },
{ "type": "Feature", "properties": { "CNPJ": 42245429000199, "AGENTE": "VANESSA_ROCHA", "ACAO": "REALIZAR_PRIMEIRA_VISITA", "RAZAO_SOCIAL": "ECLETICOS_LTDA", "ENDERECO": "AVENIDA_JOAQUIM_MANOEL_DE_MACEDO_643_PARQUE_RESIDENCIAL_MARENGO_ITAQUAQUECETUBA", "CIDADE": "ITAQUAQUECETUBA", "LATITUDE": -23.4854481, "LONGITUDE": -46.2985343 }, "geometry": { "type": "Point", "coordinates": [ -46.2985343, -23.4854481 ] } },
{ "type": "Feature", "properties": { "CNPJ": 34023419000180, "AGENTE": "VANESSA_ROCHA", "ACAO": "REALIZAR_PRIMEIRA_VISITA", "RAZAO_SOCIAL": "PET_SHOP_CANARIO_DO_REINO_LTDA", "ENDERECO": "AVENIDA_JOAQUIM_MANOEL_DE_MACEDO_723_PARQUE_RESIDENCIAL_MARENGO_ITAQUAQUECETUBA", "CIDADE": "ITAQUAQUECETUBA", "LATITUDE": -23.4860794, "LONGITUDE": -46.2985437 }, "geometry": { "type": "Point", "coordinates": [ -46.2985437, -23.4860794 ] } },
{ "type": "Feature", "properties": { "CNPJ": 54123281000107, "AGENTE": "VANESSA_ROCHA", "ACAO": "REALIZAR_PRIMEIRA_VISITA", "RAZAO_SOCIAL": "RS_GARCIA_MATERIAIS_PARA_CONSTRUCAO_LTDA", "ENDERECO": "RUA_CARNEIRO_LEAO_170_PARQUE_RESIDENCIAL_MARENGO_ITAQUAQUECETUBA", "CIDADE": "ITAQUAQUECETUBA", "LATITUDE": -23.4880003, "LONGITUDE": -46.3023465 }, "geometry": { "type": "Point", "coordinates": [ -46.3023465, -23.4880003 ] } },
{ "type": "Feature", "properties": { "CNPJ": 14027821000126, "AGENTE": "VANESSA_ROCHA", "ACAO": "REALIZAR_PRIMEIRA_VISITA", "RAZAO_SOCIAL": "ROMA_AUTO_CENTER_LTDA", "ENDERECO": "RUA_EXPEDICIONARIO_ABILIO_FERNANDES_106_VILA_PAIVA_SUZANO", "CIDADE": "SUZANO", "LATITUDE": -23.5443311, "LONGITUDE": -46.3089758 }, "geometry": { "type": "Point", "coordinates": [ -46.3089758, -23.5443311 ] } },
{ "type": "Feature", "properties": { "CNPJ": 29718076000139, "AGENTE": "VANESSA_ROCHA", "ACAO": "REALIZAR_PRIMEIRA_VISITA", "RAZAO_SOCIAL": "PAULA_NERES_ABREU_DA_SILVA", "ENDERECO": "RUA_EXPEDICIONARIO_ABILIO_FERNANDES_25_VILA_PAIVA_SUZANO", "CIDADE": "SUZANO", "LATITUDE": -23.5440829, "LONGITUDE": -46.3097613 }, "geometry": { "type": "Point", "coordinates": [ -46.3097613, -23.5440829 ] } },
{ "type": "Feature", "properties": { "CNPJ": 7272549000184, "AGENTE": "VANESSA_ROCHA", "ACAO": "REALIZAR_PRIMEIRA_VISITA", "RAZAO_SOCIAL": "CRISTIANE_FIGUEIREDO_NOVAIS", "ENDERECO": "RUA_FELICIO_DE_CAMARGO_485_CENTRO_SUZANO", "CIDADE": "SUZANO", "LATITUDE": -23.536816, "LONGITUDE": -46.3083142 }, "geometry": { "type": "Point", "coordinates": [ -46.3083142, -23.536816 ] } },
{ "type": "Feature", "properties": { "CNPJ": 4545552000136, "AGENTE": "VANESSA_ROCHA", "ACAO": "REALIZAR_PRIMEIRA_VISITA", "RAZAO_SOCIAL": "CENTRO_OTICO_SUZANO_LTDA", "ENDERECO": "RUA_GENERAL_FRANCISCO_GLICERIO_71_CENTRO_SUZANO", "CIDADE": "SUZANO", "LATITUDE": -23.5352809, "LONGITUDE": -46.3083255 }, "geometry": { "type": "Point", "coordinates": [ -46.3083255, -23.5352809 ] } },
{ "type": "Feature", "properties": { "CNPJ": 32333912000171, "AGENTE": "VANESSA_ROCHA", "ACAO": "REALIZAR_PRIMEIRA_VISITA", "RAZAO_SOCIAL": "CLINICA_DENTARIA_SORRISO_SUZANO_LTDA", "ENDERECO": "RUA_GENERAL_FRANCISCO_GLICERIO_74_CENTRO_SUZANO", "CIDADE": "SUZANO", "LATITUDE": -23.5353127, "LONGITUDE": -46.3085198 }, "geometry": { "type": "Point", "coordinates": [ -46.3085198, -23.5353127 ] } },
{ "type": "Feature", "properties": { "CNPJ": 1456593000168, "AGENTE": "VANESSA_ROCHA", "ACAO": "REALIZAR_PRIMEIRA_VISITA", "RAZAO_SOCIAL": "FABIANO_MASSAO_WATANABE", "ENDERECO": "RUA_GENERAL_FRANCISCO_GLICERIO_75_CENTRO_SUZANO", "CIDADE": "SUZANO", "LATITUDE": -23.5354452, "LONGITUDE": -46.3081915 }, "geometry": { "type": "Point", "coordinates": [ -46.3081915, -23.5354452 ] } },
{ "type": "Feature", "properties": { "CNPJ": 8066399000115, "AGENTE": "VANESSA_ROCHA", "ACAO": "REALIZAR_PRIMEIRA_VISITA", "RAZAO_SOCIAL": "MARLENE_M_DA_SILVA_COMERCIO_DE_ROUPAS", "ENDERECO": "RUA_GENERAL_FRANCISCO_GLICERIO_97_CENTRO_SUZANO", "CIDADE": "SUZANO", "LATITUDE": -23.5354512, "LONGITUDE": -46.3084334 }, "geometry": { "type": "Point", "coordinates": [ -46.3084334, -23.5354512 ] } },
{ "type": "Feature", "properties": { "CNPJ": 46780271000108, "AGENTE": "VANESSA_ROCHA", "ACAO": "REALIZAR_PRIMEIRA_VISITA", "RAZAO_SOCIAL": "SUPER_TECNICOS_INFORMATICA_SUZANO_LTDA", "ENDERECO": "RUA_ORLANDO_FAVA_175_JARDIM_DONA_BENTA_SUZANO", "CIDADE": "SUZANO", "LATITUDE": -23.5025976, "LONGITUDE": -46.2969503 }, "geometry": { "type": "Point", "coordinates": [ -46.2969503, -23.5025976 ] } },
{ "type": "Feature", "properties": { "CNPJ": 12330949000139, "AGENTE": "VANESSA_ROCHA", "ACAO": "REALIZAR_PRIMEIRA_VISITA", "RAZAO_SOCIAL": "FRANK_BRUNO_LOPES_DA_SILVA", "ENDERECO": "RUA_ORLANDO_FAVA_91_JARDIM_DONA_BENTA_SUZANO", "CIDADE": "SUZANO", "LATITUDE": -23.5018603, "LONGITUDE": -46.2971626 }, "geometry": { "type": "Point", "coordinates": [ -46.2971626, -23.5018603 ] } },
{ "type": "Feature", "properties": { "CNPJ": 19872665000113, "AGENTE": "VANESSA_ROCHA", "ACAO": "REALIZAR_PRIMEIRA_VISITA", "RAZAO_SOCIAL": "CAFE_SHIMADA_LTDA", "ENDERECO": "RUA_PORTUGAL_FREIXO_395_CENTRO_SUZANO", "CIDADE": "SUZANO", "LATITUDE": -23.5395755, "LONGITUDE": -46.3103888 }, "geometry": { "type": "Point", "coordinates": [ -46.3103888, -23.5395755 ] } },
{ "type": "Feature", "properties": { "CNPJ": 59797916000167, "AGENTE": "VANESSA_ROCHA", "ACAO": "REALIZAR_PRIMEIRA_VISITA", "RAZAO_SOCIAL": "PEREIRAS_GELATO_LTDA", "ENDERECO": "RUA_QUINZE_DE_NOVEMBRO_250_CENTRO_SUZANO", "CIDADE": "SUZANO", "LATITUDE": -23.542937, "LONGITUDE": -46.31311 }, "geometry": { "type": "Point", "coordinates": [ -46.31311, -23.542937 ] } },
{ "type": "Feature", "properties": { "CNPJ": 28549142000121, "AGENTE": "VANESSA_ROCHA", "ACAO": "REALIZAR_PRIMEIRA_VISITA", "RAZAO_SOCIAL": "NV_CAR-SERVICOS_AUTOMOTIVOS_LTDA", "ENDERECO": "RUA_TOBIAS_BARRETO_180_PARQUE_RESIDENCIAL_MARENGO_ITAQUAQUECETUBA", "CIDADE": "ITAQUAQUECETUBA", "LATITUDE": -23.4862081, "LONGITUDE": -46.2985468 }, "geometry": { "type": "Point", "coordinates": [ -46.2985468, -23.4862081 ] } },
{ "type": "Feature", "properties": { "CNPJ": 37325307000172, "AGENTE": "VANESSA_ROCHA", "ACAO": "REALIZAR_PRIMEIRA_VISITA", "RAZAO_SOCIAL": "MIND_PSICOLOGIA_LTDA", "ENDERECO": "TRAVESSA_GUAIO_266_CENTRO_SUZANO", "CIDADE": "SUZANO", "LATITUDE": -23.5387568, "LONGITUDE": -46.3114946 }, "geometry": { "type": "Point", "coordinates": [ -46.3114946, -23.5387568 ] } },
{ "type": "Feature", "properties": { "CNPJ": 14563765000144, "AGENTE": "VANESSA_ROCHA", "ACAO": "REALIZAR_SEGUNDA_VISITA", "RAZAO_SOCIAL": "KI_MODAS_MUNDIAL_LTDA_-_KIMODAS_MUNDIAL", "ENDERECO": "AVENIDA_MIGUEL_BADRA_1589_MIGUEL_BADRA_SUZANO", "CIDADE": "SUZANO", "LATITUDE": -23.5413211, "LONGITUDE": -46.3108805 }, "geometry": { "type": "Point", "coordinates": [ -46.3108805, -23.5413211 ] } },
{ "type": "Feature", "properties": { "CNPJ": 28231977000139, "AGENTE": "VANESSA_ROCHA", "ACAO": "REALIZAR_SEGUNDA_VISITA", "RAZAO_SOCIAL": "MARIA_ILZA_DE_ALMEIDA_LOPES_-_FRUTARIA_MIRANTE", "ENDERECO": "AVENIDA_ROTARY_1_BOCAINA_RIBEIRAO_PIRES", "CIDADE": "RIBEIRAO_PIRES", "LATITUDE": -23.7065181, "LONGITUDE": -46.427896 }, "geometry": { "type": "Point", "coordinates": [ -46.427896, -23.7065181 ] } },
{ "type": "Feature", "properties": { "CNPJ": 52615522000100, "AGENTE": "VANESSA_ROCHA", "ACAO": "REALIZAR_SEGUNDA_VISITA", "RAZAO_SOCIAL": "52.615.522_VINICIUS_LUMINATI_CHAIA_MARQUES_DA_SILVA_-_UMBRELLA_SUPRIMENTOS", "ENDERECO": "PRACA_DOS_EXPEDICIONARIOS_79_VILA_COSTA_SUZANO", "CIDADE": "SUZANO", "LATITUDE": -23.5411973, "LONGITUDE": -46.3100163 }, "geometry": { "type": "Point", "coordinates": [ -46.3100163, -23.5411973 ] } },
{ "type": "Feature", "properties": { "CNPJ": 20013042000174, "AGENTE": "VANESSA_ROCHA", "ACAO": "REALIZAR_SEGUNDA_VISITA", "RAZAO_SOCIAL": "FOTO_E_CIA_MOGI_DAS_CRUZES_LTDA_-_FOTO_&_CIA", "ENDERECO": "RODOVIA_DOM_PAULO_ROLIM_LOUREIRO_1158_VILA_MOGILAR_MOGI_DAS_CRUZES", "CIDADE": "MOGI_DAS_CRUZES", "LATITUDE": -23.5211015, "LONGITUDE": -46.1951929 }, "geometry": { "type": "Point", "coordinates": [ -46.1951929, -23.5211015 ] } },
{ "type": "Feature", "properties": { "CNPJ": 56928324000149, "AGENTE": "VANESSA_ROCHA", "ACAO": "REALIZAR_SEGUNDA_VISITA", "RAZAO_SOCIAL": "56.928.324_KENIA_RUBIA_DOS_SANTOS_-_MAIZUMAULTILIDADES", "ENDERECO": "RODOVIA_SP-098_1690_CENTRO_MOGI_DAS_CRUZES", "CIDADE": "MOGI_DAS_CRUZES", "LATITUDE": -23.5257848, "LONGITUDE": -46.1940906 }, "geometry": { "type": "Point", "coordinates": [ -46.1940906, -23.5257848 ] } },
{ "type": "Feature", "properties": { "CNPJ": 5778281000121, "AGENTE": "VANESSA_ROCHA", "ACAO": "REALIZAR_SEGUNDA_VISITA", "RAZAO_SOCIAL": "N_&_K_SHOP_ELETRONICOS_LTDA_-_CENTER_CELL", "ENDERECO": "RODOVIA_SP-098_1700_CENTRO_MOGI_DAS_CRUZES", "CIDADE": "MOGI_DAS_CRUZES", "LATITUDE": -23.5257753, "LONGITUDE": -46.1940824 }, "geometry": { "type": "Point", "coordinates": [ -46.1940824, -23.5257753 ] } },
{ "type": "Feature", "properties": { "CNPJ": 17719292000110, "AGENTE": "VANESSA_ROCHA", "ACAO": "REALIZAR_SEGUNDA_VISITA", "RAZAO_SOCIAL": "MARIA_HELENA_NEPOMUCENO_DE_FARIAS_94879621820_-_BOX_DUQUEIJO", "ENDERECO": "RUA_15_760_CENTRO_SALESOPOLIS", "CIDADE": "SALESOPOLIS", "LATITUDE": -23.5301416, "LONGITUDE": -45.8472052 }, "geometry": { "type": "Point", "coordinates": [ -45.8472052, -23.5301416 ] } },
{ "type": "Feature", "properties": { "CNPJ": 34422573000125, "AGENTE": "VANESSA_ROCHA", "ACAO": "REALIZAR_SEGUNDA_VISITA", "RAZAO_SOCIAL": "HIT_SUSHI_ENTREGA_RAPIDA_LTDA_-_KHAISHI_SUSHI", "ENDERECO": "RUA_BARAO_DE_JACEGUAI_1465_CENTRO_MOGI_DAS_CRUZES", "CIDADE": "MOGI_DAS_CRUZES", "LATITUDE": -23.5208085, "LONGITUDE": -46.1835457 }, "geometry": { "type": "Point", "coordinates": [ -46.1835457, -23.5208085 ] } },
{ "type": "Feature", "properties": { "CNPJ": 15191373000164, "AGENTE": "VANESSA_ROCHA", "ACAO": "REALIZAR_SEGUNDA_VISITA", "RAZAO_SOCIAL": "DERMATOLUX_CLINICA_MEDICA_LTDA_-_DERMATOLUX", "ENDERECO": "RUA_BARAO_DE_JACEGUAI_1621_CENTRO_MOGI_DAS_CRUZES", "CIDADE": "MOGI_DAS_CRUZES", "LATITUDE": -23.5205605, "LONGITUDE": -46.1821708 }, "geometry": { "type": "Point", "coordinates": [ -46.1821708, -23.5205605 ] } },
{ "type": "Feature", "properties": { "CNPJ": 9632211000111, "AGENTE": "VANESSA_ROCHA", "ACAO": "REALIZAR_SEGUNDA_VISITA", "RAZAO_SOCIAL": "POWER_SOUND_MUSIC_STORE_LTDA_-_POWER_SOUND", "ENDERECO": "RUA_BENJAMIN_CONSTANT_663_CENTRO_SUZANO", "CIDADE": "SUZANO", "LATITUDE": -23.5398458, "LONGITUDE": -46.3113251 }, "geometry": { "type": "Point", "coordinates": [ -46.3113251, -23.5398458 ] } },
{ "type": "Feature", "properties": { "CNPJ": 3997618000166, "AGENTE": "VANESSA_ROCHA", "ACAO": "REALIZAR_SEGUNDA_VISITA", "RAZAO_SOCIAL": "BY_NIZUMA_BABY_LTDA_-_NIZUMA_BABY", "ENDERECO": "RUA_CORONEL_MOREIRA_DA_GLORIA_278_CENTRO_MOGI_DAS_CRUZES", "CIDADE": "MOGI_DAS_CRUZES", "LATITUDE": -23.5228299, "LONGITUDE": -46.1942227 }, "geometry": { "type": "Point", "coordinates": [ -46.1942227, -23.5228299 ] } },
{ "type": "Feature", "properties": { "CNPJ": 6251362000212, "AGENTE": "VANESSA_ROCHA", "ACAO": "REALIZAR_SEGUNDA_VISITA", "RAZAO_SOCIAL": "ROSA_RAQUEL_RYLANDER_-_IDEAL_BOLSAS", "ENDERECO": "RUA_CORONEL_SOUZA_FRANCO_111_CENTRO_MOGI_DAS_CRUZES", "CIDADE": "MOGI_DAS_CRUZES", "LATITUDE": -23.5225756, "LONGITUDE": -46.1966645 }, "geometry": { "type": "Point", "coordinates": [ -46.1966645, -23.5225756 ] } },
{ "type": "Feature", "properties": { "CNPJ": 11739962000183, "AGENTE": "VANESSA_ROCHA", "ACAO": "REALIZAR_SEGUNDA_VISITA", "RAZAO_SOCIAL": "PONTO_DESIGN_MOVEIS_E_DECORACOES_LTDA_-_PONTO_DESIGN", "ENDERECO": "RUA_CORONEL_SOUZA_FRANCO_388_CENTRO_MOGI_DAS_CRUZES", "CIDADE": "MOGI_DAS_CRUZES", "LATITUDE": -23.522403, "LONGITUDE": -46.1938806 }, "geometry": { "type": "Point", "coordinates": [ -46.1938806, -23.522403 ] } },
{ "type": "Feature", "properties": { "CNPJ": 9463249000108, "AGENTE": "VANESSA_ROCHA", "ACAO": "REALIZAR_SEGUNDA_VISITA", "RAZAO_SOCIAL": "MARGENET_ESPORTES_LTDA_-_MARGENET_ESPORTE", "ENDERECO": "RUA_CORONEL_SOUZA_FRANCO_396_CENTRO_MOGI_DAS_CRUZES", "CIDADE": "MOGI_DAS_CRUZES", "LATITUDE": -23.5223957, "LONGITUDE": -46.1937348 }, "geometry": { "type": "Point", "coordinates": [ -46.1937348, -23.5223957 ] } },
{ "type": "Feature", "properties": { "CNPJ": 43390511000170, "AGENTE": "VANESSA_ROCHA", "ACAO": "REALIZAR_SEGUNDA_VISITA", "RAZAO_SOCIAL": "CATARINA_TERESINHA_RAMIREZ_12438023830_-_TABACARIA_RAMIREZ", "ENDERECO": "RUA_DO_COMERCIO_115_CENTRO_RIBEIRAO_PIRES", "CIDADE": "RIBEIRAO_PIRES", "LATITUDE": -23.7119341, "LONGITUDE": -46.4144744 }, "geometry": { "type": "Point", "coordinates": [ -46.4144744, -23.7119341 ] } },
{ "type": "Feature", "properties": { "CNPJ": 12012154000182, "AGENTE": "VANESSA_ROCHA", "ACAO": "REALIZAR_SEGUNDA_VISITA", "RAZAO_SOCIAL": "MELCRA_VESTUARIO_LTDA_-_NATOON__MODA", "ENDERECO": "RUA_DOUTOR_DEODATO_WERTHEIMER_1338_CENTRO_MOGI_DAS_CRUZES", "CIDADE": "MOGI_DAS_CRUZES", "LATITUDE": -23.5225123, "LONGITUDE": -46.1948409 }, "geometry": { "type": "Point", "coordinates": [ -46.1948409, -23.5225123 ] } },
{ "type": "Feature", "properties": { "CNPJ": 26338125000110, "AGENTE": "VANESSA_ROCHA", "ACAO": "REALIZAR_SEGUNDA_VISITA", "RAZAO_SOCIAL": "JCL_ENXOVAIS_PARA_BEBE_LTDA_-_JESSICA_BABY", "ENDERECO": "RUA_DOUTOR_RICARDO_VILELA_1194_CENTRO_MOGI_DAS_CRUZES", "CIDADE": "MOGI_DAS_CRUZES", "LATITUDE": -23.5213144, "LONGITUDE": -46.1950152 }, "geometry": { "type": "Point", "coordinates": [ -46.1950152, -23.5213144 ] } },
{ "type": "Feature", "properties": { "CNPJ": 19668208000101, "AGENTE": "VANESSA_ROCHA", "ACAO": "REALIZAR_SEGUNDA_VISITA", "RAZAO_SOCIAL": "WELLINGTON_DANIEL_VIEIRA_ESTACIONAMENTOS_-_WV_ESTACIONAMENTO", "ENDERECO": "RUA_DOUTOR_RICARDO_VILELA_1352_CENTRO_MOGI_DAS_CRUZES", "CIDADE": "MOGI_DAS_CRUZES", "LATITUDE": -23.5200033, "LONGITUDE": -46.1827367 }, "geometry": { "type": "Point", "coordinates": [ -46.1827367, -23.5200033 ] } },
{ "type": "Feature", "properties": { "CNPJ": 68273747000157, "AGENTE": "VANESSA_ROCHA", "ACAO": "REALIZAR_SEGUNDA_VISITA", "RAZAO_SOCIAL": "MAQFAX_COMERCIO_E_SERVICOS_LTDA_-_MAQFAX_MOVEIS", "ENDERECO": "RUA_DOUTOR_RICARDO_VILELA_238_CENTRO_MOGI_DAS_CRUZES", "CIDADE": "MOGI_DAS_CRUZES", "LATITUDE": -23.521246, "LONGITUDE": -46.1936092 }, "geometry": { "type": "Point", "coordinates": [ -46.1936092, -23.521246 ] } },
{ "type": "Feature", "properties": { "CNPJ": 54039329000195, "AGENTE": "VANESSA_ROCHA", "ACAO": "REALIZAR_SEGUNDA_VISITA", "RAZAO_SOCIAL": "ESCOLA_IGNICAO_4.0_LTDA_-_ESCOLA_DE_IGNICAO", "ENDERECO": "RUA_DOUTOR_RICARDO_VILELA_357_CENTRO_MOGI_DAS_CRUZES", "CIDADE": "MOGI_DAS_CRUZES", "LATITUDE": -23.520967, "LONGITUDE": -46.1925175 }, "geometry": { "type": "Point", "coordinates": [ -46.1925175, -23.520967 ] } },
{ "type": "Feature", "properties": { "CNPJ": 37735167000100, "AGENTE": "VANESSA_ROCHA", "ACAO": "REALIZAR_SEGUNDA_VISITA", "RAZAO_SOCIAL": "ARQUITEX_TRANSACOES_IMOBILIARIAS_E_CORRETAGEM_DE_SEGUROS_LTDA_-_ARQUITEX_TRANSACOES_IMOBILIARIOS", "ENDERECO": "RUA_DOUTOR_RICARDO_VILELA_915_CENTRO_MOGI_DAS_CRUZES", "CIDADE": "MOGI_DAS_CRUZES", "LATITUDE": -23.5204302, "LONGITUDE": -46.1865806 }, "geometry": { "type": "Point", "coordinates": [ -46.1865806, -23.5204302 ] } },
{ "type": "Feature", "properties": { "CNPJ": 59922497000148, "AGENTE": "VANESSA_ROCHA", "ACAO": "REALIZAR_SEGUNDA_VISITA", "RAZAO_SOCIAL": "59.922.497_ALEX_RODGER_DO_SANTOS_-_ALEX_RODGER_DOS_SANTOS", "ENDERECO": "RUA_FRANCISCO_CABRERA_GOMES_188_JARDIM_LINCOLN_SUZANO", "CIDADE": "SUZANO", "LATITUDE": -23.5519385, "LONGITUDE": -46.3040154 }, "geometry": { "type": "Point", "coordinates": [ -46.3040154, -23.5519385 ] } },
{ "type": "Feature", "properties": { "CNPJ": 15017487000192, "AGENTE": "VANESSA_ROCHA", "ACAO": "REALIZAR_SEGUNDA_VISITA", "RAZAO_SOCIAL": "15.017.487_MAURO_HENRIQUE_QUEIROZ_DE_OLIVEIRA_-_REI_SALOMAO", "ENDERECO": "RUA_GENERAL_FRANCISCO_GLICERIO_1192_CENTRO_SUZANO", "CIDADE": "SUZANO", "LATITUDE": -23.5445204, "LONGITUDE": -46.3119579 }, "geometry": { "type": "Point", "coordinates": [ -46.3119579, -23.5445204 ] } },
{ "type": "Feature", "properties": { "CNPJ": 58504948000164, "AGENTE": "VANESSA_ROCHA", "ACAO": "REALIZAR_SEGUNDA_VISITA", "RAZAO_SOCIAL": "YUZENSEIKO_PAPELARIA_E_GRAFICA_RAPIDA_LTDA_-_YAMAPRINT", "ENDERECO": "RUA_GENERAL_FRANCISCO_GLICERIO_901_CENTRO_SUZANO", "CIDADE": "SUZANO", "LATITUDE": -23.5423782, "LONGITUDE": -46.3110866 }, "geometry": { "type": "Point", "coordinates": [ -46.3110866, -23.5423782 ] } },
{ "type": "Feature", "properties": { "CNPJ": 27697463000100, "AGENTE": "VANESSA_ROCHA", "ACAO": "REALIZAR_SEGUNDA_VISITA", "RAZAO_SOCIAL": "LL_IMOVEIS_LTDA_-_LEANDRO_IMOVEIS", "ENDERECO": "RUA_OLEGARIO_PAIVA_1275_SHANGAI_MOGI_DAS_CRUZES", "CIDADE": "MOGI_DAS_CRUZES", "LATITUDE": -23.5205567, "LONGITUDE": -46.1857117 }, "geometry": { "type": "Point", "coordinates": [ -46.1857117, -23.5205567 ] } },
{ "type": "Feature", "properties": { "CNPJ": 6072211000116, "AGENTE": "VANESSA_ROCHA", "ACAO": "REALIZAR_SEGUNDA_VISITA", "RAZAO_SOCIAL": "SONIA_MARIA_FREITAS_RAMOS_DA_SILVA_LTDA_-_PROMED_ARTIGOS_MEDICOS", "ENDERECO": "RUA_PRESIDENTE_RODRIGUES_ALVES_303_CENTRO_MOGI_DAS_CRUZES", "CIDADE": "MOGI_DAS_CRUZES", "LATITUDE": -23.521072, "LONGITUDE": -46.1930076 }, "geometry": { "type": "Point", "coordinates": [ -46.1930076, -23.521072 ] } },
{ "type": "Feature", "properties": { "CNPJ": 67499947000160, "AGENTE": "VANESSA_ROCHA", "ACAO": "REALIZAR_SEGUNDA_VISITA", "RAZAO_SOCIAL": "WALID_ABDEL_HADI_IBRAHIM_-_GARDENIA_AZUL_COLCHOES", "ENDERECO": "RUA_PRINCESA_ISABEL_DE_BRAGANCA_120_CENTRO_MOGI_DAS_CRUZES", "CIDADE": "MOGI_DAS_CRUZES", "LATITUDE": -23.5215567, "LONGITUDE": -46.1968617 }, "geometry": { "type": "Point", "coordinates": [ -46.1968617, -23.5215567 ] } },
{ "type": "Feature", "properties": { "CNPJ": 8034139000168, "AGENTE": "VANESSA_ROCHA", "ACAO": "REALIZAR_SEGUNDA_VISITA", "RAZAO_SOCIAL": "VERONICE_DE_JESUS_PIMENTA_-_ENTANTO_DA_LUA", "ENDERECO": "RUA_PROFESSOR_FLAVIANO_DE_MELO_715_CENTRO_MOGI_DAS_CRUZES", "CIDADE": "MOGI_DAS_CRUZES", "LATITUDE": -23.5229854, "LONGITUDE": -46.1959318 }, "geometry": { "type": "Point", "coordinates": [ -46.1959318, -23.5229854 ] } },
{ "type": "Feature", "properties": { "CNPJ": 35037649000161, "AGENTE": "VANESSA_ROCHA", "ACAO": "REALIZAR_SEGUNDA_VISITA", "RAZAO_SOCIAL": "35.037.649_HELDER_CARLOS_DE_OLIVEIRA_-_HCO_MOTOS", "ENDERECO": "RUA_QUINZE_DE_NOVEMBRO_1022_CENTRO_SALESOPOLIS", "CIDADE": "SALESOPOLIS", "LATITUDE": -23.5295939, "LONGITUDE": -45.844948 }, "geometry": { "type": "Point", "coordinates": [ -45.844948, -23.5295939 ] } },
{ "type": "Feature", "properties": { "CNPJ": 36076524000103, "AGENTE": "VANESSA_ROCHA", "ACAO": "REALIZAR_SEGUNDA_VISITA", "RAZAO_SOCIAL": "CLAUDETE_MORAES_16318482830_-_CACHACARIA_PARAIBUNA", "ENDERECO": "RUA_QUINZE_DE_NOVEMBRO_760_CENTRO_SALESOPOLIS", "CIDADE": "SALESOPOLIS", "LATITUDE": -23.5301136, "LONGITUDE": -45.8472866 }, "geometry": { "type": "Point", "coordinates": [ -45.8472866, -23.5301136 ] } },
{ "type": "Feature", "properties": { "CNPJ": 5044605000289, "AGENTE": "VANESSA_ROCHA", "ACAO": "REALIZAR_SEGUNDA_VISITA", "RAZAO_SOCIAL": "HTS_LAVANDERIA_LTDA_-_HTS", "ENDERECO": "RUA_SETE_DE_SETEMBRO_350_CENTRO_SUZANO", "CIDADE": "SUZANO", "LATITUDE": -23.5437786, "LONGITUDE": -46.3126019 }, "geometry": { "type": "Point", "coordinates": [ -46.3126019, -23.5437786 ] } },
{ "type": "Feature", "properties": { "CNPJ": 59718245000100, "AGENTE": "VANESSA_ROCHA", "ACAO": "REALIZAR_SEGUNDA_VISITA", "RAZAO_SOCIAL": "LASONIC_ELETRONICOS_LTDA_-_LASONIC", "ENDERECO": "TRAVESSA_GUAIO_368_CENTRO_SUZANO", "CIDADE": "SUZANO", "LATITUDE": -23.5389742, "LONGITUDE": -46.3104545 }, "geometry": { "type": "Point", "coordinates": [ -46.3104545, -23.5389742 ] } },
{ "type": "Feature", "properties": { "CNPJ": 37122467000114, "AGENTE": "VANESSA_ROCHA", "ACAO": "REALIZAR_PRIMEIRA_VISITA_POTENCIAL", "RAZAO_SOCIAL": "ADEMAR_DA_ROCHA_OLIVEIRA", "ENDERECO": "RUA_IMPERATRIZ_181_JARDIM_NAPOLI_II_ITAQUAQUECETUBA_BRASIL", "CIDADE": "ITAQUAQUECETUBA", "LATITUDE": -23.4708559, "LONGITUDE": -46.300726 }, "geometry": { "type": "Point", "coordinates": [ -46.300726, -23.4708559 ] } },
{ "type": "Feature", "properties": { "CNPJ": 39291070000181, "AGENTE": "VANESSA_ROCHA", "ACAO": "REALIZAR_PRIMEIRA_VISITA_POTENCIAL", "RAZAO_SOCIAL": "W&R_MACHADO_SORVETERIA_LTDA", "ENDERECO": "ESTRADA_PINHEIRINHO_NOVO_2380_JARDIM_ALPES_DE_ITAQUA_ITAQUAQUECETUBA_BRASIL", "CIDADE": "ITAQUAQUECETUBA", "LATITUDE": -23.4742116, "LONGITUDE": -46.2965756 }, "geometry": { "type": "Point", "coordinates": [ -46.2965756, -23.4742116 ] } },
{ "type": "Feature", "properties": { "CNPJ": 44256136000132, "AGENTE": "VANESSA_ROCHA", "ACAO": "REALIZAR_PRIMEIRA_VISITA_POTENCIAL", "RAZAO_SOCIAL": "FERRAGENS_MATAO_LTDA", "ENDERECO": "ESTRADA_PINHEIRINHO_NOVO_3346_JARDIM_ALPES_DE_ITAQUA_ITAQUAQUECETUBA_BRASIL", "CIDADE": "ITAQUAQUECETUBA", "LATITUDE": -23.4757094, "LONGITUDE": -46.2961887 }, "geometry": { "type": "Point", "coordinates": [ -46.2961887, -23.4757094 ] } },
{ "type": "Feature", "properties": { "CNPJ": 32226395000131, "AGENTE": "VANESSA_ROCHA", "ACAO": "REALIZAR_PRIMEIRA_VISITA_POTENCIAL", "RAZAO_SOCIAL": "DIAMANTINO_JOSE_ARAUJO", "ENDERECO": "RUA_LUIZ_GONZAGA_61_PARQUE_RESIDENCIAL_SOUZA_CAMPOS_ITAQUAQUECETUBA_BRASIL", "CIDADE": "ITAQUAQUECETUBA", "LATITUDE": -23.4865178, "LONGITUDE": -46.3051349 }, "geometry": { "type": "Point", "coordinates": [ -46.3051349, -23.4865178 ] } },
{ "type": "Feature", "properties": { "CNPJ": 47299147000198, "AGENTE": "VANESSA_ROCHA", "ACAO": "REALIZAR_PRIMEIRA_VISITA_POTENCIAL", "RAZAO_SOCIAL": "CINTIA_MIRTA_SANTOS_CALADO", "ENDERECO": "AVENIDA_VERIDIANO_DE_CARVALHO_356_PARQUE_RESIDENCIAL_MARENGO_ITAQUAQUECETUBA_BRASIL", "CIDADE": "ITAQUAQUECETUBA", "LATITUDE": -23.488824, "LONGITUDE": -46.30128 }, "geometry": { "type": "Point", "coordinates": [ -46.30128, -23.488824 ] } },
{ "type": "Feature", "properties": { "CNPJ": 36898306000154, "AGENTE": "VANESSA_ROCHA", "ACAO": "REALIZAR_PRIMEIRA_VISITA_POTENCIAL", "RAZAO_SOCIAL": "J.G._DE_JESUS_JUNIOR", "ENDERECO": "RUA_RAIMUNDO_CORREIA_1_PARQUE_RESIDENCIAL_MARENGO_ITAQUAQUECETUBA_BRASIL", "CIDADE": "ITAQUAQUECETUBA", "LATITUDE": -23.4902971, "LONGITUDE": -46.2975578 }, "geometry": { "type": "Point", "coordinates": [ -46.2975578, -23.4902971 ] } },
{ "type": "Feature", "properties": { "CNPJ": 21751379000141, "AGENTE": "VANESSA_ROCHA", "ACAO": "REALIZAR_PRIMEIRA_VISITA_POTENCIAL", "RAZAO_SOCIAL": "MIMOS_DA_VANIA_ARTESANATOS", "ENDERECO": "RUA_ALEXANDRE_HERCULANO_429_PARQUE_RESIDENCIAL_MARENGO_ITAQUAQUECETUBA_BRASIL", "CIDADE": "ITAQUAQUECETUBA", "LATITUDE": -23.4948408, "LONGITUDE": -46.2984296 }, "geometry": { "type": "Point", "coordinates": [ -46.2984296, -23.4948408 ] } },
{ "type": "Feature", "properties": { "CNPJ": 32359250000109, "AGENTE": "VANESSA_ROCHA", "ACAO": "REALIZAR_PRIMEIRA_VISITA_POTENCIAL", "RAZAO_SOCIAL": "IVANI_ALVES_DE_LIMA_SILVA", "ENDERECO": "AVENIDA_LUIZ_MARIA_FERNANDES_278_JARDIM_FERNANDES_SUZANO_BRASIL", "CIDADE": "SUZANO", "LATITUDE": -23.4962381, "LONGITUDE": -46.3020947 }, "geometry": { "type": "Point", "coordinates": [ -46.3020947, -23.4962381 ] } },
{ "type": "Feature", "properties": { "CNPJ": 55328517000104, "AGENTE": "VANESSA_ROCHA", "ACAO": "REALIZAR_PRIMEIRA_VISITA_POTENCIAL", "RAZAO_SOCIAL": "CATIA_SANTOS_DE_OLIVEIRA", "ENDERECO": "RUA_CORONEL_HILDEBERTO_VIEIRA_DE_MELLO_227_CIDADE_BOA_VISTA_SUZANO_BRASIL", "CIDADE": "SUZANO", "LATITUDE": -23.4988571, "LONGITUDE": -46.3044999 }, "geometry": { "type": "Point", "coordinates": [ -46.3044999, -23.4988571 ] } },
{ "type": "Feature", "properties": { "CNPJ": 31408144000105, "AGENTE": "VANESSA_ROCHA", "ACAO": "REALIZAR_PRIMEIRA_VISITA_POTENCIAL", "RAZAO_SOCIAL": "LENI_DE_SOUZA_FERREIRA", "ENDERECO": "RUA_GREGORIO_336_CIDADE_BOA_VISTA_SUZANO_BRASIL", "CIDADE": "SUZANO", "LATITUDE": -23.5004147, "LONGITUDE": -46.2999771 }, "geometry": { "type": "Point", "coordinates": [ -46.2999771, -23.5004147 ] } },
{ "type": "Feature", "properties": { "CNPJ": 57071188000186, "AGENTE": "VANESSA_ROCHA", "ACAO": "REALIZAR_PRIMEIRA_VISITA_POTENCIAL", "RAZAO_SOCIAL": "ANTONIA_ANGELA_SOARES_GOMES", "ENDERECO": "RUA_LUIZ_CARLOS_TALARICO_84_JARDIM_EUROPA_SUZANO_BRASIL", "CIDADE": "SUZANO", "LATITUDE": -23.5026705, "LONGITUDE": -46.2946856 }, "geometry": { "type": "Point", "coordinates": [ -46.2946856, -23.5026705 ] } },
{ "type": "Feature", "properties": { "CNPJ": 35150835000102, "AGENTE": "VANESSA_ROCHA", "ACAO": "REALIZAR_PRIMEIRA_VISITA_POTENCIAL", "RAZAO_SOCIAL": "ALEXANDRE_ARNALDO_FERREIRA", "ENDERECO": "RUA_JAYME_LEME_331_CIDADE_BOA_VISTA_SUZANO_BRASIL", "CIDADE": "SUZANO", "LATITUDE": -23.5031914, "LONGITUDE": -46.3030976 }, "geometry": { "type": "Point", "coordinates": [ -46.3030976, -23.5031914 ] } },
{ "type": "Feature", "properties": { "CNPJ": 42511752000167, "AGENTE": "VANESSA_ROCHA", "ACAO": "REALIZAR_PRIMEIRA_VISITA_POTENCIAL", "RAZAO_SOCIAL": "MARIA_APARECIDA_MADEIRA", "ENDERECO": "RUA_PRESBITERO_BENEDITO_DE_OLIVEIRA_257_JARDIM_DONA_BENTA_SUZANO_BRASIL", "CIDADE": "SUZANO", "LATITUDE": -23.5033783, "LONGITUDE": -46.2963272 }, "geometry": { "type": "Point", "coordinates": [ -46.2963272, -23.5033783 ] } },
{ "type": "Feature", "properties": { "CNPJ": 26921342000138, "AGENTE": "VANESSA_ROCHA", "ACAO": "REALIZAR_PRIMEIRA_VISITA_POTENCIAL", "RAZAO_SOCIAL": "MICHEL_BELO_DE_ALMEIDA", "ENDERECO": "RUA_DEZENOVE_DE_JULHO_291_CIDADE_BOA_VISTA_SUZANO_BRASIL", "CIDADE": "SUZANO", "LATITUDE": -23.5034827, "LONGITUDE": -46.3017533 }, "geometry": { "type": "Point", "coordinates": [ -46.3017533, -23.5034827 ] } },
{ "type": "Feature", "properties": { "CNPJ": 44223895000107, "AGENTE": "VANESSA_ROCHA", "ACAO": "REALIZAR_PRIMEIRA_VISITA_POTENCIAL", "RAZAO_SOCIAL": "CARLA_XAVIER_DE_ALMEIDA_FERREIRA", "ENDERECO": "RUA_ANTONIO_RIZZATO_291_CIDADE_BOA_VISTA_SUZANO_BRASIL", "CIDADE": "SUZANO", "LATITUDE": -23.5036067, "LONGITUDE": -46.3026636 }, "geometry": { "type": "Point", "coordinates": [ -46.3026636, -23.5036067 ] } },
{ "type": "Feature", "properties": { "CNPJ": 319394460001, "AGENTE": "VANESSA_ROCHA", "ACAO": "REALIZAR_PRIMEIRA_VISITA_POTENCIAL", "RAZAO_SOCIAL": "JHONATAN_FERREIRA_LIRA", "ENDERECO": "RUA_CHICO_MENDES_60_JARDIM_DONA_BENTA_SUZANO_BRASIL", "CIDADE": "SUZANO", "LATITUDE": -23.5037993, "LONGITUDE": -46.2985451 }, "geometry": { "type": "Point", "coordinates": [ -46.2985451, -23.5037993 ] } },
{ "type": "Feature", "properties": { "CNPJ": 13739597000132, "AGENTE": "VANESSA_ROCHA", "ACAO": "REALIZAR_PRIMEIRA_VISITA_POTENCIAL", "RAZAO_SOCIAL": "ROSIDETE_LUCIO_DE_ALMEIDA", "ENDERECO": "RUA_PROF_ROLANDO_ANGELO_TENUTO_113_SANTO_AMARO_SAO_PAULO_BRASIL", "CIDADE": "SAO_PAULO", "LATITUDE": -23.5038043, "LONGITUDE": -46.2967904 }, "geometry": { "type": "Point", "coordinates": [ -46.2967904, -23.5038043 ] } },
{ "type": "Feature", "properties": { "CNPJ": 29509051000125, "AGENTE": "VANESSA_ROCHA", "ACAO": "REALIZAR_PRIMEIRA_VISITA_POTENCIAL", "RAZAO_SOCIAL": "NILSON_FAVA_JUNIOR_CONSTRUCAO", "ENDERECO": "RUA_ORLANDO_FAVA_310_JARDIM_DONA_BENTA_SUZANO_BRASIL", "CIDADE": "SUZANO", "LATITUDE": -23.5038043, "LONGITUDE": -46.2967904 }, "geometry": { "type": "Point", "coordinates": [ -46.2967904, -23.5038043 ] } },
{ "type": "Feature", "properties": { "CNPJ": 46408734000105, "AGENTE": "VANESSA_ROCHA", "ACAO": "REALIZAR_PRIMEIRA_VISITA_POTENCIAL", "RAZAO_SOCIAL": "JULIANA_ALMEIDA_DE_SANTANA_BATISTA", "ENDERECO": "RUA_LUIZ_CARLOS_TALARICO_200_JARDIM_EUROPA_SUZANO_BRASIL", "CIDADE": "SAO_PAULO", "LATITUDE": -23.5040386, "LONGITUDE": -46.294393 }, "geometry": { "type": "Point", "coordinates": [ -46.294393, -23.5040386 ] } },
{ "type": "Feature", "properties": { "CNPJ": 45023604000191, "AGENTE": "VANESSA_ROCHA", "ACAO": "REALIZAR_PRIMEIRA_VISITA_POTENCIAL", "RAZAO_SOCIAL": "G._DOS_SANTOS_HENRIQUE_COMERCIO_DE_GAS", "ENDERECO": "AVENIDA_BOA_VISTA_303_CIDADE_BOA_VISTA_SUZANO_BRASIL", "CIDADE": "SUZANO", "LATITUDE": -23.504193, "LONGITUDE": -46.3058517 }, "geometry": { "type": "Point", "coordinates": [ -46.3058517, -23.504193 ] } },
{ "type": "Feature", "properties": { "CNPJ": 14897076000176, "AGENTE": "VANESSA_ROCHA", "ACAO": "REALIZAR_PRIMEIRA_VISITA_POTENCIAL", "RAZAO_SOCIAL": "CLISCIENE_REGINA_OLIVEIRA_DA_SILVA", "ENDERECO": "RUA_SAO_VICENTE_DE_PAULA_555_PARQUE_MARIA_HELENA_SUZANO_BRASIL", "CIDADE": "SUZANO", "LATITUDE": -23.5244773, "LONGITUDE": -46.3072856 }, "geometry": { "type": "Point", "coordinates": [ -46.3072856, -23.5244773 ] } },
{ "type": "Feature", "properties": { "CNPJ": 2119757000124, "AGENTE": "VANESSA_ROCHA", "ACAO": "REALIZAR_PRIMEIRA_VISITA_POTENCIAL", "RAZAO_SOCIAL": "OKINAWA'S_FERRAGENS_LTDA", "ENDERECO": "RUA_MAJOR_AROUCHE_DE_TOLEDO_142_CENTRO_MOGI_DAS_CRUZES_BRASIL", "CIDADE": "MOGI_DAS_CRUZES", "LATITUDE": -23.5248061, "LONGITUDE": -46.1917424 }, "geometry": { "type": "Point", "coordinates": [ -46.1917424, -23.5248061 ] } },
{ "type": "Feature", "properties": { "CNPJ": 35110689000191, "AGENTE": "VANESSA_ROCHA", "ACAO": "REALIZAR_PRIMEIRA_VISITA_POTENCIAL", "RAZAO_SOCIAL": "ADRIANA_MASOTORI", "ENDERECO": "RUA_ALBERT_FINK_549_PARQUE_MARIA_HELENA_SUZANO_BRASIL", "CIDADE": "SUZANO", "LATITUDE": -23.5248179, "LONGITUDE": -46.3106558 }, "geometry": { "type": "Point", "coordinates": [ -46.3106558, -23.5248179 ] } },
{ "type": "Feature", "properties": { "CNPJ": 5851076900013, "AGENTE": "VANESSA_ROCHA", "ACAO": "REALIZAR_PRIMEIRA_VISITA_POTENCIAL", "RAZAO_SOCIAL": "TSI_ROLAMENTOS_E_PECAS_LTDA", "ENDERECO": "RUA_IPIRANGA_192_CENTRO_MOGI_DAS_CRUZES_BRASIL", "CIDADE": "MOGI_DAS_CRUZES", "LATITUDE": -23.5255679, "LONGITUDE": -46.1935172 }, "geometry": { "type": "Point", "coordinates": [ -46.1935172, -23.5255679 ] } },
{ "type": "Feature", "properties": { "CNPJ": 26324677000179, "AGENTE": "VANESSA_ROCHA", "ACAO": "REALIZAR_PRIMEIRA_VISITA_POTENCIAL", "RAZAO_SOCIAL": "RUSTIKA_DECOR_LTDA", "ENDERECO": "AVENIDA_MAJOR_PINHEIRO_FROES_1845_VILA_MARIA_DE_MAGGI_SUZANO_BRASIL", "CIDADE": "SUZANO", "LATITUDE": -23.5256489, "LONGITUDE": -46.32283 }, "geometry": { "type": "Point", "coordinates": [ -46.32283, -23.5256489 ] } },
{ "type": "Feature", "properties": { "CNPJ": 3485882200012, "AGENTE": "VANESSA_ROCHA", "ACAO": "REALIZAR_PRIMEIRA_VISITA_POTENCIAL", "RAZAO_SOCIAL": "KAIONE_DOLORES_BASTOS_NASCIMENTO", "ENDERECO": "TRAVESSA_MARECHAL_FLORIANO_PEIXOTO_121_CENTRO_MOGI_DAS_CRUZES_BRASIL", "CIDADE": "MOGI_DAS_CRUZES", "LATITUDE": -23.5260452, "LONGITUDE": -46.1896674 }, "geometry": { "type": "Point", "coordinates": [ -46.1896674, -23.5260452 ] } },
{ "type": "Feature", "properties": { "CNPJ": 7179584300017, "AGENTE": "VANESSA_ROCHA", "ACAO": "REALIZAR_PRIMEIRA_VISITA_POTENCIAL", "RAZAO_SOCIAL": "PLASTIMAZZO_COMERCIO_DE_PLASTICOS_LIMITADA", "ENDERECO": "RUA_BRAZ_CUBAS_557_CENTRO_MOGI_DAS_CRUZES_BRASIL", "CIDADE": "MOGI_DAS_CRUZES", "LATITUDE": -23.526298, "LONGITUDE": -46.1952624 }, "geometry": { "type": "Point", "coordinates": [ -46.1952624, -23.526298 ] } },
{ "type": "Feature", "properties": { "CNPJ": 1430726900012, "AGENTE": "VANESSA_ROCHA", "ACAO": "REALIZAR_PRIMEIRA_VISITA_POTENCIAL", "RAZAO_SOCIAL": "JAQUELINE_APARECIDA_VIEIRA_DA_SILVA", "ENDERECO": "RUA_VOLUNTARIO_JOSE_ANTONIO_BENEDICTO_44_CENTRO_MOGI_DAS_CRUZES_BRASIL", "CIDADE": "MOGI_DAS_CRUZES", "LATITUDE": -23.5265898, "LONGITUDE": -46.1897339 }, "geometry": { "type": "Point", "coordinates": [ -46.1897339, -23.5265898 ] } },
{ "type": "Feature", "properties": { "CNPJ": 39330051000117, "AGENTE": "VANESSA_ROCHA", "ACAO": "REALIZAR_PRIMEIRA_VISITA_POTENCIAL", "RAZAO_SOCIAL": "SOUL_PAPELARIA_E_ARTIGOS_PERSONALIZADOS_LTDA", "ENDERECO": "RUA_NOEL_PEREIRA_MARTINS_89_VILA_BELA_VISTA_MOGI_DAS_CRUZES_BRASIL", "CIDADE": "MOGI_DAS_CRUZES", "LATITUDE": -23.5269006, "LONGITUDE": -46.1899777 }, "geometry": { "type": "Point", "coordinates": [ -46.1899777, -23.5269006 ] } },
{ "type": "Feature", "properties": { "CNPJ": 2119591300018, "AGENTE": "VANESSA_ROCHA", "ACAO": "REALIZAR_PRIMEIRA_VISITA_POTENCIAL", "RAZAO_SOCIAL": "WILSON_SOARES_CARDOSO", "ENDERECO": "RUA_NILO_PECANHA_81_CENTRO_MOGI_DAS_CRUZES_BRASIL", "CIDADE": "MOGI_DAS_CRUZES", "LATITUDE": -23.5284405, "LONGITUDE": -46.1944979 }, "geometry": { "type": "Point", "coordinates": [ -46.1944979, -23.5284405 ] } },
{ "type": "Feature", "properties": { "CNPJ": 11357975000198, "AGENTE": "VANESSA_ROCHA", "ACAO": "REALIZAR_PRIMEIRA_VISITA_POTENCIAL", "RAZAO_SOCIAL": "SONIA_DOS_R._RAMOS", "ENDERECO": "AVENIDA_ROMA_223_VILA_MARIA_DE_MAGGI_SUZANO_BRASIL", "CIDADE": "SUZANO", "LATITUDE": -23.5284706, "LONGITUDE": -46.3213381 }, "geometry": { "type": "Point", "coordinates": [ -46.3213381, -23.5284706 ] } },
{ "type": "Feature", "properties": { "CNPJ": 53968403000195, "AGENTE": "VANESSA_ROCHA", "ACAO": "REALIZAR_PRIMEIRA_VISITA_POTENCIAL", "RAZAO_SOCIAL": "LIGIA_LEANDRO_CAETANO", "ENDERECO": "RUA_ALEIXO_COSTA_470_CENTRO_MOGI_DAS_CRUZES_BRASIL", "CIDADE": "MOGI_DAS_CRUZES", "LATITUDE": -23.528828, "LONGITUDE": -46.1902116 }, "geometry": { "type": "Point", "coordinates": [ -46.1902116, -23.528828 ] } },
{ "type": "Feature", "properties": { "CNPJ": 45334710000196, "AGENTE": "VANESSA_ROCHA", "ACAO": "REALIZAR_PRIMEIRA_VISITA_POTENCIAL", "RAZAO_SOCIAL": "IVANILDO_PEDRO_DE_SALES_JUNIOR", "ENDERECO": "RUA_DOS_VICENTINOS_916_VILA_NATAL_MOGI_DAS_CRUZES_BRASIL", "CIDADE": "MOGI_DAS_CRUZES", "LATITUDE": -23.5298002, "LONGITUDE": -46.183179 }, "geometry": { "type": "Point", "coordinates": [ -46.183179, -23.5298002 ] } },
{ "type": "Feature", "properties": { "CNPJ": 13081932000158, "AGENTE": "VANESSA_ROCHA", "ACAO": "REALIZAR_PRIMEIRA_VISITA_POTENCIAL", "RAZAO_SOCIAL": "ALESSANDRA_PELLIN", "ENDERECO": "RUA_RAPHAEL_FERNANDES_162_MOGI_MODERNO_MOGI_DAS_CRUZES_BRASIL", "CIDADE": "MOGI_DAS_CRUZES", "LATITUDE": -23.5303967, "LONGITUDE": -46.1908923 }, "geometry": { "type": "Point", "coordinates": [ -46.1908923, -23.5303967 ] } },
{ "type": "Feature", "properties": { "CNPJ": 18606253000179, "AGENTE": "VANESSA_ROCHA", "ACAO": "REALIZAR_PRIMEIRA_VISITA_POTENCIAL", "RAZAO_SOCIAL": "WV_LIMP_LTDA", "ENDERECO": "RUA_BENEDITO_FARIA_MARQUES_FILHO_273_PARQUE_MARIA_HELENA_SUZANO_BRASIL", "CIDADE": "SUZANO", "LATITUDE": -23.5311449, "LONGITUDE": -46.3079517 }, "geometry": { "type": "Point", "coordinates": [ -46.3079517, -23.5311449 ] } },
{ "type": "Feature", "properties": { "CNPJ": 33347294000181, "AGENTE": "VANESSA_ROCHA", "ACAO": "REALIZAR_PRIMEIRA_VISITA_POTENCIAL", "RAZAO_SOCIAL": "J_C_DE_OLIVEIRA_BARBEARIA", "ENDERECO": "RUA_JOSE_BENEDITO_BATALHA_36_ALTO_IPIRANGA_MOGI_DAS_CRUZES_BRASIL", "CIDADE": "MOGI_DAS_CRUZES", "LATITUDE": -23.5314197, "LONGITUDE": -46.1978185 }, "geometry": { "type": "Point", "coordinates": [ -46.1978185, -23.5314197 ] } },
{ "type": "Feature", "properties": { "CNPJ": 25449459000106, "AGENTE": "VANESSA_ROCHA", "ACAO": "REALIZAR_PRIMEIRA_VISITA_POTENCIAL", "RAZAO_SOCIAL": "CLAYTON_R.DE_CARVALHO_COMERCIO_VAREJISTA_DE_BRINQUEDOS", "ENDERECO": "RUA_MARIA_GALDENCIA_DE_SANT'ANNA_300_ALTO_DA_BOA_VISTA_MOGI_DAS_CRUZES_BRASIL", "CIDADE": "MOGI_DAS_CRUZES", "LATITUDE": -23.5314792, "LONGITUDE": -46.1873533 }, "geometry": { "type": "Point", "coordinates": [ -46.1873533, -23.5314792 ] } },
{ "type": "Feature", "properties": { "CNPJ": 41106514000103, "AGENTE": "VANESSA_ROCHA", "ACAO": "REALIZAR_PRIMEIRA_VISITA_POTENCIAL", "RAZAO_SOCIAL": "WESLEY_RAMOS_DA_SILVA_DE_OLIVEIRA", "ENDERECO": "ALAMEDA_TENENTE_JOSE_BERNARDINO_111_CIDADE_CRUZEIRO_DO_SUL_SUZANO_BRASIL", "CIDADE": "SUZANO", "LATITUDE": -23.5324936, "LONGITUDE": -46.317083 }, "geometry": { "type": "Point", "coordinates": [ -46.317083, -23.5324936 ] } },
{ "type": "Feature", "properties": { "CNPJ": 43912108000163, "AGENTE": "VANESSA_ROCHA", "ACAO": "REALIZAR_PRIMEIRA_VISITA_POTENCIAL", "RAZAO_SOCIAL": "RICARDO_DO_CARMO", "ENDERECO": "AVENIDA_JOSE_GLICERIO_DE_MELLO_-_DE_401/402_AO_FIM_531_JARDIM_CAMILA_MOGI_DAS_CRUZES_BRASIL", "CIDADE": "MOGI_DAS_CRUZES", "LATITUDE": -23.5326559, "LONGITUDE": -46.1833471 }, "geometry": { "type": "Point", "coordinates": [ -46.1833471, -23.5326559 ] } },
{ "type": "Feature", "properties": { "CNPJ": 45362166000196, "AGENTE": "VANESSA_ROCHA", "ACAO": "REALIZAR_PRIMEIRA_VISITA_POTENCIAL", "RAZAO_SOCIAL": "WELLINGTON_CESAR_CASTILHO_COLOMBARI", "ENDERECO": "ALAMEDA_CUNHA_BUENO_-_ATE_1149/1150_218_JARDIM_IMPERADOR_SUZANO_BRASIL", "CIDADE": "SUZANO", "LATITUDE": -23.5327677, "LONGITUDE": -46.3190331 }, "geometry": { "type": "Point", "coordinates": [ -46.3190331, -23.5327677 ] } },
{ "type": "Feature", "properties": { "CNPJ": 12348873000179, "AGENTE": "VANESSA_ROCHA", "ACAO": "REALIZAR_PRIMEIRA_VISITA_POTENCIAL", "RAZAO_SOCIAL": "MARCELO_SEITI_YAMASHITA", "ENDERECO": "RUA_JARDELINA_DE_ALMEIDA_LOPES_-_ATE_508/509_75_CHACARA_JAFET_MOGI_DAS_CRUZES_BRASIL", "CIDADE": "MOGI_DAS_CRUZES", "LATITUDE": -23.533071, "LONGITUDE": -46.1977033 }, "geometry": { "type": "Point", "coordinates": [ -46.1977033, -23.533071 ] } },
{ "type": "Feature", "properties": { "CNPJ": 37252629000139, "AGENTE": "VANESSA_ROCHA", "ACAO": "REALIZAR_PRIMEIRA_VISITA_POTENCIAL", "RAZAO_SOCIAL": "JULIANA_TANAKA_OBARA_DE_SOUZA", "ENDERECO": "RUA_JOAO_MARIANO_FRANCO_263_ALTO_DA_BOA_VISTA_MOGI_DAS_CRUZES_BRASIL", "CIDADE": "MOGI_DAS_CRUZES", "LATITUDE": -23.5332746, "LONGITUDE": -46.1851988 }, "geometry": { "type": "Point", "coordinates": [ -46.1851988, -23.5332746 ] } },
{ "type": "Feature", "properties": { "CNPJ": 28844800000108, "AGENTE": "VANESSA_ROCHA", "ACAO": "REALIZAR_PRIMEIRA_VISITA_POTENCIAL", "RAZAO_SOCIAL": "ISABELLE_GOOR_BEZERRA_LEITE", "ENDERECO": "RUA_CLARA_PEREZ_FREIRE_520_MOGI_MODERNO_MOGI_DAS_CRUZES_BRASIL", "CIDADE": "MOGI_DAS_CRUZES", "LATITUDE": -23.5337567, "LONGITUDE": -46.1925273 }, "geometry": { "type": "Point", "coordinates": [ -46.1925273, -23.5337567 ] } },
{ "type": "Feature", "properties": { "CNPJ": 14209998000143, "AGENTE": "VANESSA_ROCHA", "ACAO": "REALIZAR_PRIMEIRA_VISITA_POTENCIAL", "RAZAO_SOCIAL": "BSG_ASSESSORIA_EMPRESARIAL_LTDA", "ENDERECO": "AVENIDA_PADRE_ANCHIETA_252_JARDIM_SANTO_ANDRE_BRASIL", "CIDADE": "SANTO_ANDRE", "LATITUDE": -23.5339592, "LONGITUDE": -46.3101982 }, "geometry": { "type": "Point", "coordinates": [ -46.3101982, -23.5339592 ] } },
{ "type": "Feature", "properties": { "CNPJ": 28146627000174, "AGENTE": "VANESSA_ROCHA", "ACAO": "REALIZAR_PRIMEIRA_VISITA_POTENCIAL", "RAZAO_SOCIAL": "AMANDA_GONCALVES_ARAUJO_DA_SILVA", "ENDERECO": "ALAMEDA_ARMANDO_ALCANTARA_-_DE_1151/1152_AO_FIM_401_JARDIM_DOS_IPES_SUZANO_BRASIL", "CIDADE": "SUZANO", "LATITUDE": -23.5347442, "LONGITUDE": -46.3187806 }, "geometry": { "type": "Point", "coordinates": [ -46.3187806, -23.5347442 ] } },
{ "type": "Feature", "properties": { "CNPJ": 5597950900011, "AGENTE": "VANESSA_ROCHA", "ACAO": "REALIZAR_PRIMEIRA_VISITA_POTENCIAL", "RAZAO_SOCIAL": "LEANDRO_DE_SOUZA", "ENDERECO": "RUA_PATROCINIO_DA_COSTA_MANSORES_75_MOGI_MODERNO_MOGI_DAS_CRUZES_BRASIL", "CIDADE": "MOGI_DAS_CRUZES", "LATITUDE": -23.5349339, "LONGITUDE": -46.1904413 }, "geometry": { "type": "Point", "coordinates": [ -46.1904413, -23.5349339 ] } },
{ "type": "Feature", "properties": { "CNPJ": 26128364000145, "AGENTE": "VANESSA_ROCHA", "ACAO": "REALIZAR_PRIMEIRA_VISITA_POTENCIAL", "RAZAO_SOCIAL": "VITALY_ODONTOLOGIA_LTDA", "ENDERECO": "RUA_GENERAL_FRANCISCO_GLICERIO_24_CENTRO_SUZANO_BRASIL", "CIDADE": "SUZANO", "LATITUDE": -23.5350355, "LONGITUDE": -46.3095272 }, "geometry": { "type": "Point", "coordinates": [ -46.3095272, -23.5350355 ] } },
{ "type": "Feature", "properties": { "CNPJ": 43345373000107, "AGENTE": "VANESSA_ROCHA", "ACAO": "REALIZAR_PRIMEIRA_VISITA_POTENCIAL", "RAZAO_SOCIAL": "THAIS_RACHEL_MONTEIRO_MIRANDA_CAMACHO_RESENDE", "ENDERECO": "AVENIDA_PRESIDENTE_GETULIO_VARGAS_727_MOGI_MODERNO_MOGI_DAS_CRUZES_BRASIL", "CIDADE": "MOGI_DAS_CRUZES", "LATITUDE": -23.5355111, "LONGITUDE": -46.1847873 }, "geometry": { "type": "Point", "coordinates": [ -46.1847873, -23.5355111 ] } },
{ "type": "Feature", "properties": { "CNPJ": 15715079000104, "AGENTE": "VANESSA_ROCHA", "ACAO": "REALIZAR_PRIMEIRA_VISITA_POTENCIAL", "RAZAO_SOCIAL": "ARIANA_MARGARETE_DOS_SANTOS_ALVES", "ENDERECO": "RUA_JOSE_DA_COSTA_CONCEICAO_157_VILA_COSTA_SUZANO_BRASIL", "CIDADE": "SUZANO", "LATITUDE": -23.5363295, "LONGITUDE": -46.3189378 }, "geometry": { "type": "Point", "coordinates": [ -46.3189378, -23.5363295 ] } },
{ "type": "Feature", "properties": { "CNPJ": 7577487000119, "AGENTE": "VANESSA_ROCHA", "ACAO": "REALIZAR_PRIMEIRA_VISITA_POTENCIAL", "RAZAO_SOCIAL": "ELIANE_BERBERT_MENDES_&_CIA_LTDA", "ENDERECO": "RUA_GENERAL_FRANCISCO_GLICERIO_296_CENTRO_SUZANO_BRASIL", "CIDADE": "SUZANO", "LATITUDE": -23.5371389, "LONGITUDE": -46.3092555 }, "geometry": { "type": "Point", "coordinates": [ -46.3092555, -23.5371389 ] } },
{ "type": "Feature", "properties": { "CNPJ": 39681142000105, "AGENTE": "VANESSA_ROCHA", "ACAO": "REALIZAR_PRIMEIRA_VISITA_POTENCIAL", "RAZAO_SOCIAL": "MICHELLE_RACHID", "ENDERECO": "ALAMEDA_CUNHA_BUENO_-_ATE_1149/1150_743_JARDIM_IMPERADOR_SUZANO_BRASIL", "CIDADE": "SUZANO", "LATITUDE": -23.5374175, "LONGITUDE": -46.3207264 }, "geometry": { "type": "Point", "coordinates": [ -46.3207264, -23.5374175 ] } },
{ "type": "Feature", "properties": { "CNPJ": 48244436000152, "AGENTE": "VANESSA_ROCHA", "ACAO": "REALIZAR_PRIMEIRA_VISITA_POTENCIAL", "RAZAO_SOCIAL": "LIZ_MR_COMERCIO_E_REPRESENTACOES_LTDA", "ENDERECO": "RUA_MONSENHOR_NUNO_390_CENTRO_SUZANO_BRASIL", "CIDADE": "SUZANO", "LATITUDE": -23.5376223, "LONGITUDE": -46.3097502 }, "geometry": { "type": "Point", "coordinates": [ -46.3097502, -23.5376223 ] } },
{ "type": "Feature", "properties": { "CNPJ": 18259054000212, "AGENTE": "VANESSA_ROCHA", "ACAO": "REALIZAR_PRIMEIRA_VISITA_POTENCIAL", "RAZAO_SOCIAL": "ADRIANA_CORREA_DA_SILVA", "ENDERECO": "RUA_THULLER_826_JARDIM_UNIVERSO_MOGI_DAS_CRUZES_BRASIL", "CIDADE": "MOGI_DAS_CRUZES", "LATITUDE": -23.5379612, "LONGITUDE": -46.1831553 }, "geometry": { "type": "Point", "coordinates": [ -46.1831553, -23.5379612 ] } },
{ "type": "Feature", "properties": { "CNPJ": 5074869900014, "AGENTE": "VANESSA_ROCHA", "ACAO": "REALIZAR_PRIMEIRA_VISITA_POTENCIAL", "RAZAO_SOCIAL": "SAMANTTA_LOPES_VITAL", "ENDERECO": "AVENIDA_GILBERTO_RODRIGUES_DE_SOUZA_23_JARDIM_CAMILA_MOGI_DAS_CRUZES_BRASIL", "CIDADE": "MOGI_DAS_CRUZES", "LATITUDE": -23.5381101, "LONGITUDE": -46.1808166 }, "geometry": { "type": "Point", "coordinates": [ -46.1808166, -23.5381101 ] } },
{ "type": "Feature", "properties": { "CNPJ": 33809645000129, "AGENTE": "VANESSA_ROCHA", "ACAO": "REALIZAR_PRIMEIRA_VISITA_POTENCIAL", "RAZAO_SOCIAL": "NEUSELI_REZENDE_DA_SILVA_MARTINS", "ENDERECO": "RUA_ANTONIO_OTAVIO_GOMES_44_JARDIM_CAMILA_MOGI_DAS_CRUZES_BRASIL", "CIDADE": "MOGI_DAS_CRUZES", "LATITUDE": -23.538212, "LONGITUDE": -46.1817346 }, "geometry": { "type": "Point", "coordinates": [ -46.1817346, -23.538212 ] } },
{ "type": "Feature", "properties": { "CNPJ": 3161346700013, "AGENTE": "VANESSA_ROCHA", "ACAO": "REALIZAR_PRIMEIRA_VISITA_POTENCIAL", "RAZAO_SOCIAL": "NOVA_POA_SEG_CORRETORA_DE_SEGUROS_EIRELI", "ENDERECO": "AVENIDA_MOGI_DAS_CRUZES_(CIDADE_CRUZEIRO_DO_SUL)_277_PARQUE_SUZANO_SUZANO_BRASIL", "CIDADE": "SUZANO", "LATITUDE": -23.538376, "LONGITUDE": -46.3172675 }, "geometry": { "type": "Point", "coordinates": [ -46.3172675, -23.538376 ] } },
{ "type": "Feature", "properties": { "CNPJ": 11630930000145, "AGENTE": "VANESSA_ROCHA", "ACAO": "REALIZAR_PRIMEIRA_VISITA_POTENCIAL", "RAZAO_SOCIAL": "ESCOLA_DE_BELEZA_GONCALVES_&_MARCAL_LTDA", "ENDERECO": "RUA_PORTUGAL_FREIXO_146_CENTRO_SUZANO_BRASIL", "CIDADE": "SUZANO", "LATITUDE": -23.5387188, "LONGITUDE": -46.3126706 }, "geometry": { "type": "Point", "coordinates": [ -46.3126706, -23.5387188 ] } },
{ "type": "Feature", "properties": { "CNPJ": 422661700018, "AGENTE": "VANESSA_ROCHA", "ACAO": "REALIZAR_PRIMEIRA_VISITA_POTENCIAL", "RAZAO_SOCIAL": "AUTO_CENTER_FABES_LTDA", "ENDERECO": "AVENIDA_MOGI_DAS_CRUZES_171_PARQUE_SUZANO_SUZANO_BRASIL", "CIDADE": "SUZANO", "LATITUDE": -23.5387418, "LONGITUDE": -46.3161704 }, "geometry": { "type": "Point", "coordinates": [ -46.3161704, -23.5387418 ] } },
{ "type": "Feature", "properties": { "CNPJ": 50121797000153, "AGENTE": "VANESSA_ROCHA", "ACAO": "REALIZAR_PRIMEIRA_VISITA_POTENCIAL", "RAZAO_SOCIAL": "COMERCIO_DE_ANTENAS_IZIDORO_LTDA", "ENDERECO": "RUA_BENJAMIN_CONSTANT_540_CENTRO_SUZANO_BRASIL", "CIDADE": "SUZANO", "LATITUDE": -23.5388647, "LONGITUDE": -46.3111173 }, "geometry": { "type": "Point", "coordinates": [ -46.3111173, -23.5388647 ] } },
{ "type": "Feature", "properties": { "CNPJ": 2381331200011, "AGENTE": "VANESSA_ROCHA", "ACAO": "REALIZAR_PRIMEIRA_VISITA_POTENCIAL", "RAZAO_SOCIAL": "JAQUELINE_RODRIGUES_DE_ARAUJO", "ENDERECO": "RUA_NOSSA_SENHORA_APARECIDA_245_VILA_COSTA_SUZANO_BRASIL", "CIDADE": "SUZANO", "LATITUDE": -23.5396076, "LONGITUDE": -46.3075783 }, "geometry": { "type": "Point", "coordinates": [ -46.3075783, -23.5396076 ] } },
{ "type": "Feature", "properties": { "CNPJ": 52020436000146, "AGENTE": "VANESSA_ROCHA", "ACAO": "REALIZAR_PRIMEIRA_VISITA_POTENCIAL", "RAZAO_SOCIAL": "VINICIUS_DE_OLIVEIRA_BATISTA", "ENDERECO": "RUA_JARDELINA_DE_ALMEIDA_LOPES_761_CHACARA_JAFET_MOGI_DAS_CRUZES_BRASIL", "CIDADE": "MOGI_DAS_CRUZES", "LATITUDE": -23.5413194, "LONGITUDE": -46.1980473 }, "geometry": { "type": "Point", "coordinates": [ -46.1980473, -23.5413194 ] } },
{ "type": "Feature", "properties": { "CNPJ": 41913188000146, "AGENTE": "VANESSA_ROCHA", "ACAO": "REALIZAR_PRIMEIRA_VISITA_POTENCIAL", "RAZAO_SOCIAL": "ARQVINHOS_COMERCIO_E_DISTRIBUIDORA_DE_ALIMENTOS_LTDA", "ENDERECO": "RUA_RUI_BARBOSA_187_VILA_COSTA_SUZANO_BRASIL", "CIDADE": "SUZANO", "LATITUDE": -23.5414774, "LONGITUDE": -46.3085119 }, "geometry": { "type": "Point", "coordinates": [ -46.3085119, -23.5414774 ] } },
{ "type": "Feature", "properties": { "CNPJ": 49153129000129, "AGENTE": "VANESSA_ROCHA", "ACAO": "REALIZAR_PRIMEIRA_VISITA_POTENCIAL", "RAZAO_SOCIAL": "VALERIA_ADERALDO_DE_SOUZA", "ENDERECO": "RUA_PRESIDENTE_JOAO_GOULART_87_VILA_CAPUTERA_MOGI_DAS_CRUZES_BRASIL", "CIDADE": "MOGI_DAS_CRUZES", "LATITUDE": -23.5415327, "LONGITUDE": -46.1814941 }, "geometry": { "type": "Point", "coordinates": [ -46.1814941, -23.5415327 ] } },
{ "type": "Feature", "properties": { "CNPJ": 179001120001, "AGENTE": "VANESSA_ROCHA", "ACAO": "REALIZAR_PRIMEIRA_VISITA_POTENCIAL", "RAZAO_SOCIAL": "MAYK_DOMINGUES_DE_OLIVEIRA_CAFE", "ENDERECO": "RUA_BENJAMIN_CONSTANT_894_CENTRO_SUZANO_BRASIL", "CIDADE": "SUZANO", "LATITUDE": -23.541875, "LONGITUDE": -46.3121667 }, "geometry": { "type": "Point", "coordinates": [ -46.3121667, -23.541875 ] } },
{ "type": "Feature", "properties": { "CNPJ": 19070609000165, "AGENTE": "VANESSA_ROCHA", "ACAO": "REALIZAR_PRIMEIRA_VISITA_POTENCIAL", "RAZAO_SOCIAL": "CENTRO_DE_TRATAMENTO_PODOLOGICO_ESPECIALIZADO_SUZANO_LTDA", "ENDERECO": "RUA_NOVE_DE_JULHO_157_JARDIM_SANTA_HELENA_SUZANO_BRASIL", "CIDADE": "SUZANO", "LATITUDE": -23.54212, "LONGITUDE": -46.3139367 }, "geometry": { "type": "Point", "coordinates": [ -46.3139367, -23.54212 ] } },
{ "type": "Feature", "properties": { "CNPJ": 5063870800014, "AGENTE": "VANESSA_ROCHA", "ACAO": "REALIZAR_PRIMEIRA_VISITA_POTENCIAL", "RAZAO_SOCIAL": "N&N_BOLOS_LTDA", "ENDERECO": "RUA_TIRADENTES_13_CENTRO_SUZANO_BRASIL", "CIDADE": "SUZANO", "LATITUDE": -23.5430911, "LONGITUDE": -46.3107942 }, "geometry": { "type": "Point", "coordinates": [ -46.3107942, -23.5430911 ] } },
{ "type": "Feature", "properties": { "CNPJ": 27535123000183, "AGENTE": "VANESSA_ROCHA", "ACAO": "REALIZAR_PRIMEIRA_VISITA_POTENCIAL", "RAZAO_SOCIAL": "EDILSON_GOMES", "ENDERECO": "RUA_SETE_DE_SETEMBRO_555_PARQUE_SUZANO_SUZANO_BRASIL", "CIDADE": "SUZANO", "LATITUDE": -23.5432254, "LONGITUDE": -46.3136263 }, "geometry": { "type": "Point", "coordinates": [ -46.3136263, -23.5432254 ] } },
{ "type": "Feature", "properties": { "CNPJ": 42836561000175, "AGENTE": "VANESSA_ROCHA", "ACAO": "REALIZAR_PRIMEIRA_VISITA_POTENCIAL", "RAZAO_SOCIAL": "PRISCILA_ROBERTA_COUTO", "ENDERECO": "RUA_ANTONIO_DOS_REIS_1200_CONJUNTO_RESIDENCIAL_IRAI_SUZANO_BRASIL", "CIDADE": "SUZANO", "LATITUDE": -23.5433304, "LONGITUDE": -46.317652 }, "geometry": { "type": "Point", "coordinates": [ -46.317652, -23.5433304 ] } },
{ "type": "Feature", "properties": { "CNPJ": 29185066000185, "AGENTE": "VANESSA_ROCHA", "ACAO": "REALIZAR_PRIMEIRA_VISITA_POTENCIAL", "RAZAO_SOCIAL": "DANIELE_BERGO_CALHEIROS_DE_MELO", "ENDERECO": "ALAMEDA_TENENTE_JOSE_BERNARDINO_1359_JARDIM_DOS_IPES_SUZANO_BRASIL", "CIDADE": "SUZANO", "LATITUDE": -23.5434216, "LONGITUDE": -46.3216438 }, "geometry": { "type": "Point", "coordinates": [ -46.3216438, -23.5434216 ] } },
{ "type": "Feature", "properties": { "CNPJ": 38377033000128, "AGENTE": "VANESSA_ROCHA", "ACAO": "REALIZAR_PRIMEIRA_VISITA_POTENCIAL", "RAZAO_SOCIAL": "38.377.033_JOSAFA_DE_AZEVEDO_MELCHIORI", "ENDERECO": "AVENIDA_ARMANDO_SALLES_DE_OLIVEIRA_1520_CONJUNTO_RESIDENCIAL_IRAI_SUZANO_BRASIL", "CIDADE": "SUZANO", "LATITUDE": -23.5456397, "LONGITUDE": -46.3190335 }, "geometry": { "type": "Point", "coordinates": [ -46.3190335, -23.5456397 ] } },
{ "type": "Feature", "properties": { "CNPJ": 28405416000109, "AGENTE": "VANESSA_ROCHA", "ACAO": "REALIZAR_PRIMEIRA_VISITA_POTENCIAL", "RAZAO_SOCIAL": "28.405.416_WILLIAM_FREITAS_LEITE", "ENDERECO": "AVENIDA_ANTONIO_FERREIRA_VINHAS_780_CONJUNTO_RESIDENCIAL_GALO_BRANCO_SAO_JOSE_DOS_CAMPOS_BRASIL", "CIDADE": "SAO_JOSE_DOS_CAMPOS", "LATITUDE": -23.545806, "LONGITUDE": -46.3070941 }, "geometry": { "type": "Point", "coordinates": [ -46.3070941, -23.545806 ] } },
{ "type": "Feature", "properties": { "CNPJ": 22997448000164, "AGENTE": "VANESSA_ROCHA", "ACAO": "REALIZAR_PRIMEIRA_VISITA_POTENCIAL", "RAZAO_SOCIAL": "KAIROS_COMERCIO_E_SERVICOS_LTDA", "ENDERECO": "AVENIDA_ANTONIO_MARQUES_FIGUEIRA_1173_VILA_FIGUEIRA_SUZANO_BRASIL", "CIDADE": "SUZANO", "LATITUDE": -23.545806, "LONGITUDE": -46.3070941 }, "geometry": { "type": "Point", "coordinates": [ -46.3070941, -23.545806 ] } },
{ "type": "Feature", "properties": { "CNPJ": 42771178000186, "AGENTE": "VANESSA_ROCHA", "ACAO": "REALIZAR_PRIMEIRA_VISITA_POTENCIAL", "RAZAO_SOCIAL": "RENATA_SILVA_BARCELOS_MONTEIRO", "ENDERECO": "RUA_BIOTONICO_-_ATE_792/793_295_VILA_URUPES_SUZANO_BRASIL", "CIDADE": "SUZANO", "LATITUDE": -23.5459559, "LONGITUDE": -46.291847 }, "geometry": { "type": "Point", "coordinates": [ -46.291847, -23.5459559 ] } },
{ "type": "Feature", "properties": { "CNPJ": 37132187000197, "AGENTE": "VANESSA_ROCHA", "ACAO": "REALIZAR_PRIMEIRA_VISITA_POTENCIAL", "RAZAO_SOCIAL": "FABIANA_DE_SOUZA_SANTOS_SILVA", "ENDERECO": "RUA_GATO_CINZENTO_759_VILA_URUPES_SUZANO_BRASIL", "CIDADE": "SUZANO", "LATITUDE": -23.5463815, "LONGITUDE": -46.2954121 }, "geometry": { "type": "Point", "coordinates": [ -46.2954121, -23.5463815 ] } },
{ "type": "Feature", "properties": { "CNPJ": 322292340001, "AGENTE": "VANESSA_ROCHA", "ACAO": "REALIZAR_PRIMEIRA_VISITA_POTENCIAL", "RAZAO_SOCIAL": "CARLOS_AUGUSTO_DE_SOUSA", "ENDERECO": "AVENIDA_ARMANDO_SALLES_DE_OLIVEIRA_1660_PARQUE_SUZANO_SUZANO_BRASIL", "CIDADE": "SUZANO", "LATITUDE": -23.5473983, "LONGITUDE": -46.3193569 }, "geometry": { "type": "Point", "coordinates": [ -46.3193569, -23.5473983 ] } },
{ "type": "Feature", "properties": { "CNPJ": 13768333000107, "AGENTE": "VANESSA_ROCHA", "ACAO": "REALIZAR_PRIMEIRA_VISITA_POTENCIAL", "RAZAO_SOCIAL": "ADEIRTA_NOGUEIRA_ALVES", "ENDERECO": "RUA_CARLOS_STENIO_COSTA_BARROS_312_JARDIM_NENA_SUZANO_BRASIL", "CIDADE": "SUZANO", "LATITUDE": -23.5474955, "LONGITUDE": -46.3214159 }, "geometry": { "type": "Point", "coordinates": [ -46.3214159, -23.5474955 ] } },
{ "type": "Feature", "properties": { "CNPJ": 31350235000137, "AGENTE": "VANESSA_ROCHA", "ACAO": "REALIZAR_PRIMEIRA_VISITA_POTENCIAL", "RAZAO_SOCIAL": "ARIANY_CRISTINA_DIAS_DA_CUNHA_CAETANO", "ENDERECO": "RUA_THADEU_JOSE_DE_MORAES_643_VILA_NOVA_URUPES_SUZANO_BRASIL", "CIDADE": "SUZANO", "LATITUDE": -23.5477114, "LONGITUDE": -46.2970086 }, "geometry": { "type": "Point", "coordinates": [ -46.2970086, -23.5477114 ] } },
{ "type": "Feature", "properties": { "CNPJ": 50842763000158, "AGENTE": "VANESSA_ROCHA", "ACAO": "REALIZAR_PRIMEIRA_VISITA_POTENCIAL", "RAZAO_SOCIAL": "LILIANE_BARBOSA_HENRIQUES_SOARES", "ENDERECO": "RUA_MADAME_POMMERY_1253_VILA_URUPES_SUZANO_BRASIL", "CIDADE": "SAO_PAULO", "LATITUDE": -23.5477513, "LONGITUDE": -46.289648 }, "geometry": { "type": "Point", "coordinates": [ -46.289648, -23.5477513 ] } },
{ "type": "Feature", "properties": { "CNPJ": 40952873000119, "AGENTE": "VANESSA_ROCHA", "ACAO": "REALIZAR_PRIMEIRA_VISITA_POTENCIAL", "RAZAO_SOCIAL": "ROBERTA_OLIVEIRA_BENEDITO", "ENDERECO": "RUA_THADEU_JOSE_DE_MORAES_371_VILA_NOVA_URUPES_SUZANO_BRASIL", "CIDADE": "SUZANO", "LATITUDE": -23.5480286, "LONGITUDE": -46.3001082 }, "geometry": { "type": "Point", "coordinates": [ -46.3001082, -23.5480286 ] } },
{ "type": "Feature", "properties": { "CNPJ": 51748050000192, "AGENTE": "VANESSA_ROCHA", "ACAO": "REALIZAR_PRIMEIRA_VISITA_POTENCIAL", "RAZAO_SOCIAL": "KLEISON_JOSE_DA_SILVA_SOUZA", "ENDERECO": "AVENIDA_TAIACUPEBA_1060_VILA_NOVA_URUPES_SUZANO_BRASIL", "CIDADE": "SUZANO", "LATITUDE": -23.549329, "LONGITUDE": -46.2982419 }, "geometry": { "type": "Point", "coordinates": [ -46.2982419, -23.549329 ] } },
{ "type": "Feature", "properties": { "CNPJ": 1699337500013, "AGENTE": "VANESSA_ROCHA", "ACAO": "REALIZAR_PRIMEIRA_VISITA_POTENCIAL", "RAZAO_SOCIAL": "LEANDRA_REJANI_ROCHA_MILANEZZI", "ENDERECO": "RUA_BENJAMIN_CONSTANT_1804_CENTRO_SUZANO_BRASIL", "CIDADE": "SUZANO", "LATITUDE": -23.5495484, "LONGITUDE": -46.3155477 }, "geometry": { "type": "Point", "coordinates": [ -46.3155477, -23.5495484 ] } },
{ "type": "Feature", "properties": { "CNPJ": 13107485000169, "AGENTE": "VANESSA_ROCHA", "ACAO": "REALIZAR_PRIMEIRA_VISITA_POTENCIAL", "RAZAO_SOCIAL": "CRISTIANE_DE_OLIVEIRA_LOPES", "ENDERECO": "RUA_TOKUZO_TERAZAKI_332_VILA_URUPES_SUZANO_BRASIL", "CIDADE": "SUZANO", "LATITUDE": -23.5498248, "LONGITUDE": -46.301531 }, "geometry": { "type": "Point", "coordinates": [ -46.301531, -23.5498248 ] } },
{ "type": "Feature", "properties": { "CNPJ": 5185940500011, "AGENTE": "VANESSA_ROCHA", "ACAO": "REALIZAR_PRIMEIRA_VISITA_POTENCIAL", "RAZAO_SOCIAL": "ELIANA_TAVARES_CORTEZ", "ENDERECO": "RUA_MACEDONIA_0_ZONA_RURAL_MACEDONIA_BRASIL", "CIDADE": "MACEDONIA", "LATITUDE": -23.5509745, "LONGITUDE": -46.3109111 }, "geometry": { "type": "Point", "coordinates": [ -46.3109111, -23.5509745 ] } },
{ "type": "Feature", "properties": { "CNPJ": 52550803000113, "AGENTE": "VANESSA_ROCHA", "ACAO": "REALIZAR_PRIMEIRA_VISITA_POTENCIAL", "RAZAO_SOCIAL": "MATERIAIS_PARA_CONSTRUCAO_SUZANO_LTDA", "ENDERECO": "AVENIDA_ANTONIO_MARQUES_FIGUEIRA_1738_VILA_FIGUEIRA_SUZANO_BRASIL", "CIDADE": "SUZANO", "LATITUDE": -23.5510789, "LONGITUDE": -46.3075619 }, "geometry": { "type": "Point", "coordinates": [ -46.3075619, -23.5510789 ] } },
{ "type": "Feature", "properties": { "CNPJ": 31554798000147, "AGENTE": "VANESSA_ROCHA", "ACAO": "REALIZAR_PRIMEIRA_VISITA_POTENCIAL", "RAZAO_SOCIAL": "CREMILDA_BARBOSA_DA_SILVA", "ENDERECO": "RUA_PROFESSOR_ROBERTO_DAVID_75_VILA_FIGUEIRA_SUZANO_BRASIL", "CIDADE": "SUZANO", "LATITUDE": -23.5522459, "LONGITUDE": -46.3104898 }, "geometry": { "type": "Point", "coordinates": [ -46.3104898, -23.5522459 ] } },
{ "type": "Feature", "properties": { "CNPJ": 52878548000132, "AGENTE": "VANESSA_ROCHA", "ACAO": "REALIZAR_PRIMEIRA_VISITA_POTENCIAL", "RAZAO_SOCIAL": "CLAIR_REGINA_DOS_SANTOS", "ENDERECO": "RUA_GENERAL_FRANCISCO_GLICERIO_25_JARDIM_ANZAI_SUZANO_BRASIL", "CIDADE": "SUZANO", "LATITUDE": -23.5527096, "LONGITUDE": -46.3155613 }, "geometry": { "type": "Point", "coordinates": [ -46.3155613, -23.5527096 ] } },
{ "type": "Feature", "properties": { "CNPJ": 11425370000197, "AGENTE": "VANESSA_ROCHA", "ACAO": "REALIZAR_PRIMEIRA_VISITA_POTENCIAL", "RAZAO_SOCIAL": "ANTONIO_MARCOS_DAL_CORSI", "ENDERECO": "RUA_JECA_TATU_1069_VILA_URUPES_SUZANO_BRASIL", "CIDADE": "SUZANO", "LATITUDE": -23.5528188, "LONGITUDE": -46.29292 }, "geometry": { "type": "Point", "coordinates": [ -46.29292, -23.5528188 ] } },
{ "type": "Feature", "properties": { "CNPJ": 51419054000127, "AGENTE": "VANESSA_ROCHA", "ACAO": "REALIZAR_PRIMEIRA_VISITA_POTENCIAL", "RAZAO_SOCIAL": "DAVID_LELES_SOUZA", "ENDERECO": "RUA_RIO_GRANDE_DO_NORTE_256_VILA_COLORADO_SUZANO_BRASIL", "CIDADE": "SAO_PAULO", "LATITUDE": -23.5529487, "LONGITUDE": -46.2959224 }, "geometry": { "type": "Point", "coordinates": [ -46.2959224, -23.5529487 ] } },
{ "type": "Feature", "properties": { "CNPJ": 12989881000102, "AGENTE": "VANESSA_ROCHA", "ACAO": "REALIZAR_PRIMEIRA_VISITA_POTENCIAL", "RAZAO_SOCIAL": "J.M_CONFECCOES_E_MAGAZINE_LTDA", "ENDERECO": "RUA_QUIRINO_VIEIRA_DE_MORAES_75_PARQUE_SANTA_ROSA_EMBU-GUACU_BRASIL", "CIDADE": "EMBU-GUACU", "LATITUDE": -23.5543289, "LONGITUDE": -46.3204991 }, "geometry": { "type": "Point", "coordinates": [ -46.3204991, -23.5543289 ] } },
{ "type": "Feature", "properties": { "CNPJ": 41012148000123, "AGENTE": "VANESSA_ROCHA", "ACAO": "REALIZAR_PRIMEIRA_VISITA_POTENCIAL", "RAZAO_SOCIAL": "FACILITY_MECANICA_AUTOMOTIVA_LTDA", "ENDERECO": "RUA_BARUEL_1620_VILA_COSTA_SUZANO_BRASIL", "CIDADE": "SUZANO", "LATITUDE": -23.5554261, "LONGITUDE": -46.3101337 }, "geometry": { "type": "Point", "coordinates": [ -46.3101337, -23.5554261 ] } },
{ "type": "Feature", "properties": { "CNPJ": 43474580000161, "AGENTE": "VANESSA_ROCHA", "ACAO": "REALIZAR_PRIMEIRA_VISITA_POTENCIAL", "RAZAO_SOCIAL": "RICARDO_AURELIO_JANUARIO_35100951893", "ENDERECO": "RUA_BALBINO_ALVES_DA_SILVA_811_REGIAO_DOS_LAGOS_VIRADOURO_BRASIL", "CIDADE": "VIRADOURO", "LATITUDE": -23.5554261, "LONGITUDE": -46.3101337 }, "geometry": { "type": "Point", "coordinates": [ -46.3101337, -23.5554261 ] } },
{ "type": "Feature", "properties": { "CNPJ": 45977746000198, "AGENTE": "VANESSA_ROCHA", "ACAO": "REALIZAR_PRIMEIRA_VISITA_POTENCIAL", "RAZAO_SOCIAL": "FLAVIA_KAROLINA_TROIANO_SILVA", "ENDERECO": "RUA_HORACIO_NELSON_RONDINELLI_0_CIDADE_EDSON_SUZANO_BRASIL", "CIDADE": "SUZANO", "LATITUDE": -23.5555815, "LONGITUDE": -46.3103486 }, "geometry": { "type": "Point", "coordinates": [ -46.3103486, -23.5555815 ] } },
{ "type": "Feature", "properties": { "CNPJ": 30089443000161, "AGENTE": "VANESSA_ROCHA", "ACAO": "REALIZAR_PRIMEIRA_VISITA_POTENCIAL", "RAZAO_SOCIAL": "ADEGA_ICE_DRINKS_LTDA", "ENDERECO": "RUA_GENERAL_FRANCISCO_GLICERIO_2417_JARDIM_ANZAI_SUZANO_BRASIL", "CIDADE": "SUZANO", "LATITUDE": -23.555586, "LONGITUDE": -46.3166512 }, "geometry": { "type": "Point", "coordinates": [ -46.3166512, -23.555586 ] } },
{ "type": "Feature", "properties": { "CNPJ": 45240329000168, "AGENTE": "VANESSA_ROCHA", "ACAO": "REALIZAR_PRIMEIRA_VISITA_POTENCIAL", "RAZAO_SOCIAL": "ALINE_SOUZA_DOS_SANTOS_39016204865", "ENDERECO": "RUA_SANTA_ISABEL_315_CIDADE_EDSON_SUZANO_BRASIL", "CIDADE": "SUZANO", "LATITUDE": -23.557402, "LONGITUDE": -46.3109425 }, "geometry": { "type": "Point", "coordinates": [ -46.3109425, -23.557402 ] } },
{ "type": "Feature", "properties": { "CNPJ": 27277665000101, "AGENTE": "VANESSA_ROCHA", "ACAO": "REALIZAR_PRIMEIRA_VISITA_POTENCIAL", "RAZAO_SOCIAL": "ANDRESSA_JERONIMO_DA_COSTA", "ENDERECO": "RUA_VEREADOR_ANTONIO_TEIXEIRA_443_JARDIM_CACIQUE_SUZANO_BRASIL", "CIDADE": "SUZANO", "LATITUDE": -23.5583396, "LONGITUDE": -46.2920506 }, "geometry": { "type": "Point", "coordinates": [ -46.2920506, -23.5583396 ] } },
{ "type": "Feature", "properties": { "CNPJ": 44746711000185, "AGENTE": "VANESSA_ROCHA", "ACAO": "REALIZAR_PRIMEIRA_VISITA_POTENCIAL", "RAZAO_SOCIAL": "44.746.711_RICARDO_GOMES_SILVA_JUNIOR", "ENDERECO": "RUA_SANTA_ISABEL_475_CIDADE_EDSON_SUZANO_BRASIL", "CIDADE": "SUZANO", "LATITUDE": -23.5586891, "LONGITUDE": -46.3108005 }, "geometry": { "type": "Point", "coordinates": [ -46.3108005, -23.5586891 ] } }
]
}
