{
"type": "FeatureCollection",
"name": "VANESSA_ROCHA",
"crs": { "type": "name", "properties": { "name": "urn:ogc:def:crs:OGC:1.3:CRS84" } },
"xy_coordinate_resolution": 1e-15,
"features": [
{ "type": "Feature", "properties": { "CNPJ": 622808000100, "AGENTE": "VANESSA_ROCHA", "ACAO": "URGENTE_REALIZAR_PRIMEIRA_VISITA", "RAZAO_SOCIAL": "RENILDA_DE_ASSIS_DIAS", "ENDERECO": "AVENIDAJOAQUIMMANOELDEMACEDO_629_PARQUERESIDENCIALMARENGO_ITAQUAQUECETUBA", "CIDADE": "ITAQUAQUECETUBA", "LATITUDE": -23.4851248, "LONGITUDE": -46.2984284, "BASE": "URGENTE_" }, "geometry": { "type": "Point", "coordinates": [ -46.2984284, -23.4851248 ] } },
{ "type": "Feature", "properties": { "CNPJ": 42245429000199, "AGENTE": "VANESSA_ROCHA", "ACAO": "URGENTE_REALIZAR_PRIMEIRA_VISITA", "RAZAO_SOCIAL": "ECLETICOS_LTDA", "ENDERECO": "AVENIDAJOAQUIMMANOELDEMACEDO_643_PARQUERESIDENCIALMARENGO_ITAQUAQUECETUBA", "CIDADE": "ITAQUAQUECETUBA", "LATITUDE": -23.4854481, "LONGITUDE": -46.2985343, "BASE": "URGENTE_" }, "geometry": { "type": "Point", "coordinates": [ -46.2985343, -23.4854481 ] } },
{ "type": "Feature", "properties": { "CNPJ": 34023419000180, "AGENTE": "VANESSA_ROCHA", "ACAO": "URGENTE_REALIZAR_PRIMEIRA_VISITA", "RAZAO_SOCIAL": "PET_SHOP_CANARIO_DO_REINO_LTDA", "ENDERECO": "AVENIDAJOAQUIMMANOELDEMACEDO_723_PARQUERESIDENCIALMARENGO_ITAQUAQUECETUBA", "CIDADE": "ITAQUAQUECETUBA", "LATITUDE": -23.4860794, "LONGITUDE": -46.2985437, "BASE": "URGENTE_" }, "geometry": { "type": "Point", "coordinates": [ -46.2985437, -23.4860794 ] } },
{ "type": "Feature", "properties": { "CNPJ": 28549142000121, "AGENTE": "VANESSA_ROCHA", "ACAO": "URGENTE_REALIZAR_PRIMEIRA_VISITA", "RAZAO_SOCIAL": "NV_CAR-SERVICOS_AUTOMOTIVOS_LTDA", "ENDERECO": "RUATOBIASBARRETO_180_PARQUERESIDENCIALMARENGO_ITAQUAQUECETUBA", "CIDADE": "ITAQUAQUECETUBA", "LATITUDE": -23.4862081, "LONGITUDE": -46.2985468, "BASE": "URGENTE_" }, "geometry": { "type": "Point", "coordinates": [ -46.2985468, -23.4862081 ] } },
{ "type": "Feature", "properties": { "CNPJ": 54123281000107, "AGENTE": "VANESSA_ROCHA", "ACAO": "URGENTE_REALIZAR_PRIMEIRA_VISITA", "RAZAO_SOCIAL": "RS_GARCIA_MATERIAIS_PARA_CONSTRUCAO_LTDA", "ENDERECO": "RUACARNEIROLEAO_170_PARQUERESIDENCIALMARENGO_ITAQUAQUECETUBA", "CIDADE": "ITAQUAQUECETUBA", "LATITUDE": -23.4880003, "LONGITUDE": -46.3023465, "BASE": "URGENTE_" }, "geometry": { "type": "Point", "coordinates": [ -46.3023465, -23.4880003 ] } },
{ "type": "Feature", "properties": { "CNPJ": 41743087000174, "AGENTE": "VANESSA_ROCHA", "ACAO": "URGENTE_REALIZAR_PRIMEIRA_VISITA", "RAZAO_SOCIAL": "FARMA_TOP_MED_LTDA", "ENDERECO": "AVENIDAGONCALVESDIAS_1193_PARQUERESIDENCIALMARENGO_ITAQUAQUECETUBA", "CIDADE": "ITAQUAQUECETUBA", "LATITUDE": -23.489575, "LONGITUDE": -46.3020738, "BASE": "URGENTE_" }, "geometry": { "type": "Point", "coordinates": [ -46.3020738, -23.489575 ] } },
{ "type": "Feature", "properties": { "CNPJ": 28901083000109, "AGENTE": "VANESSA_ROCHA", "ACAO": "URGENTE_REALIZAR_PRIMEIRA_VISITA", "RAZAO_SOCIAL": "GLEICE_ALVES_DE_SOUZA", "ENDERECO": "AVENIDAGONCALVESDIAS_1715_PARQUERESIDENCIALMARENGO_ITAQUAQUECETUBA", "CIDADE": "ITAQUAQUECETUBA", "LATITUDE": -23.4938685, "LONGITUDE": -46.3013419, "BASE": "URGENTE_" }, "geometry": { "type": "Point", "coordinates": [ -46.3013419, -23.4938685 ] } },
{ "type": "Feature", "properties": { "CNPJ": 37950579000163, "AGENTE": "VANESSA_ROCHA", "ACAO": "URGENTE_REALIZAR_PRIMEIRA_VISITA", "RAZAO_SOCIAL": "V_C_D_RIOS_FARMACIA", "ENDERECO": "AVENIDAHUMBERTODECAMPOS_11_PARQUERESIDENCIALMARENGO_ITAQUAQUECETUBA", "CIDADE": "ITAQUAQUECETUBA", "LATITUDE": -23.4938806, "LONGITUDE": -46.3015381, "BASE": "URGENTE_" }, "geometry": { "type": "Point", "coordinates": [ -46.3015381, -23.4938806 ] } },
{ "type": "Feature", "properties": { "CNPJ": 3614212000157, "AGENTE": "VANESSA_ROCHA", "ACAO": "URGENTE_REALIZAR_PRIMEIRA_VISITA", "RAZAO_SOCIAL": "PERFUMARIA_JACK'S_COSMETICOS_E_PAPELARIA_LTDA", "ENDERECO": "AVENIDAGONCALVESDIAS_1628_PARQUERESIDENCIALMARENGO_ITAQUAQUECETUBA", "CIDADE": "ITAQUAQUECETUBA", "LATITUDE": -23.4943849, "LONGITUDE": -46.3012471, "BASE": "URGENTE_" }, "geometry": { "type": "Point", "coordinates": [ -46.3012471, -23.4943849 ] } },
{ "type": "Feature", "properties": { "CNPJ": 36655477000152, "AGENTE": "VANESSA_ROCHA", "ACAO": "URGENTE_REALIZAR_PRIMEIRA_VISITA", "RAZAO_SOCIAL": "JAIME_TERRAPLENAGEM_LTDA", "ENDERECO": "AVENIDAFRANCISCOMARENGO_2505_JARDIMDONABENTA_SUZANO", "CIDADE": "SUZANO", "LATITUDE": -23.4983146, "LONGITUDE": -46.2955341, "BASE": "URGENTE_" }, "geometry": { "type": "Point", "coordinates": [ -46.2955341, -23.4983146 ] } },
{ "type": "Feature", "properties": { "CNPJ": 46528872000128, "AGENTE": "VANESSA_ROCHA", "ACAO": "URGENTE_REALIZAR_PRIMEIRA_VISITA", "RAZAO_SOCIAL": "ROBERTO_ROCHA_PANIFICADORA_E_COMERCIO_LTDA", "ENDERECO": "AVENIDAITAPETI_808_JARDIMFERNANDES_SUZANO", "CIDADE": "SUZANO", "LATITUDE": -23.5004719, "LONGITUDE": -46.3020986, "BASE": "URGENTE_" }, "geometry": { "type": "Point", "coordinates": [ -46.3020986, -23.5004719 ] } },
{ "type": "Feature", "properties": { "CNPJ": 31515255000110, "AGENTE": "VANESSA_ROCHA", "ACAO": "URGENTE_REALIZAR_PRIMEIRA_VISITA", "RAZAO_SOCIAL": "MOURA_COMERCIO_DE_MATERIAIS_ELETRICOS_E_HIDRAULICOS_LTDA", "ENDERECO": "AVENIDAFRANCISCOMARENGO_2326_JARDIMDONABENTA_SUZANO", "CIDADE": "SUZANO", "LATITUDE": -23.5005613, "LONGITUDE": -46.2964172, "BASE": "URGENTE_" }, "geometry": { "type": "Point", "coordinates": [ -46.2964172, -23.5005613 ] } },
{ "type": "Feature", "properties": { "CNPJ": 11044311000179, "AGENTE": "VANESSA_ROCHA", "ACAO": "URGENTE_REALIZAR_PRIMEIRA_VISITA", "RAZAO_SOCIAL": "AIRTON_ARAUJO_DA_SILVA_JUNIOR_VIDRACARIA", "ENDERECO": "AVENIDAFRANCISCOMARENGO_2302_JARDIMDONABENTA_SUZANO", "CIDADE": "SUZANO", "LATITUDE": -23.5006315, "LONGITUDE": -46.2965179, "BASE": "URGENTE_" }, "geometry": { "type": "Point", "coordinates": [ -46.2965179, -23.5006315 ] } },
{ "type": "Feature", "properties": { "CNPJ": 4409760000108, "AGENTE": "VANESSA_ROCHA", "ACAO": "URGENTE_REALIZAR_PRIMEIRA_VISITA", "RAZAO_SOCIAL": "MERCADAO_MATERIAIS_PARA_CONSTRUCAO_LTDA", "ENDERECO": "AVENIDAFRANCISCOMARENGO_2300_JARDIMDONABENTA_SUZANO", "CIDADE": "SUZANO", "LATITUDE": -23.5008133, "LONGITUDE": -46.2965034, "BASE": "URGENTE_" }, "geometry": { "type": "Point", "coordinates": [ -46.2965034, -23.5008133 ] } },
{ "type": "Feature", "properties": { "CNPJ": 24445404000157, "AGENTE": "VANESSA_ROCHA", "ACAO": "URGENTE_REALIZAR_PRIMEIRA_VISITA", "RAZAO_SOCIAL": "PADARIA_NEVES_DONA_BENTA_LTDA", "ENDERECO": "AVENIDAFRANCISCOMARENGO_2244_JARDIMDONABENTA_SUZANO", "CIDADE": "SUZANO", "LATITUDE": -23.5009899, "LONGITUDE": -46.2968596, "BASE": "URGENTE_" }, "geometry": { "type": "Point", "coordinates": [ -46.2968596, -23.5009899 ] } },
{ "type": "Feature", "properties": { "CNPJ": 45439526000100, "AGENTE": "VANESSA_ROCHA", "ACAO": "URGENTE_REALIZAR_PRIMEIRA_VISITA", "RAZAO_SOCIAL": "MOTION_FIT_SUZANO_ACADEMIA_LTDA", "ENDERECO": "AVENIDAFRANCISCOMARENGO_2175_JARDIMDONABENTA_SUZANO", "CIDADE": "SUZANO", "LATITUDE": -23.5010789, "LONGITUDE": -46.2974074, "BASE": "URGENTE_" }, "geometry": { "type": "Point", "coordinates": [ -46.2974074, -23.5010789 ] } },
{ "type": "Feature", "properties": { "CNPJ": 7985273000181, "AGENTE": "VANESSA_ROCHA", "ACAO": "URGENTE_REALIZAR_PRIMEIRA_VISITA", "RAZAO_SOCIAL": "GISELMA_B._DE_OLIVEIRA", "ENDERECO": "AVENIDAFRANCISCOMARENGO_2155_JARDIMDONABENTA_SUZANO", "CIDADE": "SUZANO", "LATITUDE": -23.5011333, "LONGITUDE": -46.2975887, "BASE": "URGENTE_" }, "geometry": { "type": "Point", "coordinates": [ -46.2975887, -23.5011333 ] } },
{ "type": "Feature", "properties": { "CNPJ": 54108046000158, "AGENTE": "VANESSA_ROCHA", "ACAO": "URGENTE_REALIZAR_PRIMEIRA_VISITA", "RAZAO_SOCIAL": "FAROL_CALCADOS_LTDA", "ENDERECO": "AVENIDAFRANCISCOMARENGO_2160_JARDIMDONABENTA_SUZANO", "CIDADE": "SUZANO", "LATITUDE": -23.5013992, "LONGITUDE": -46.2976993, "BASE": "URGENTE_" }, "geometry": { "type": "Point", "coordinates": [ -46.2976993, -23.5013992 ] } },
{ "type": "Feature", "properties": { "CNPJ": 51371839000177, "AGENTE": "VANESSA_ROCHA", "ACAO": "URGENTE_REALIZAR_PRIMEIRA_VISITA", "RAZAO_SOCIAL": "MATERIAIS_PARA_CONSTRUCOES_JARDIM_DONA_BENTA_LTDA", "ENDERECO": "AVENIDAFRANCISCOMARENGO_2190_JARDIMDONABENTA_SUZANO", "CIDADE": "SUZANO", "LATITUDE": -23.5014752, "LONGITUDE": -46.2972424, "BASE": "URGENTE_" }, "geometry": { "type": "Point", "coordinates": [ -46.2972424, -23.5014752 ] } },
{ "type": "Feature", "properties": { "CNPJ": 7314445000195, "AGENTE": "VANESSA_ROCHA", "ACAO": "URGENTE_REALIZAR_PRIMEIRA_VISITA", "RAZAO_SOCIAL": "ANDERSON_TADAO_HORIKAWA_UTILIDADES", "ENDERECO": "AVENIDAFRANCISCOMARENGO_2134_JARDIMDONABENTA_SUZANO", "CIDADE": "SUZANO", "LATITUDE": -23.5015093, "LONGITUDE": -46.2979021, "BASE": "URGENTE_" }, "geometry": { "type": "Point", "coordinates": [ -46.2979021, -23.5015093 ] } },
{ "type": "Feature", "properties": { "CNPJ": 69303899000118, "AGENTE": "VANESSA_ROCHA", "ACAO": "URGENTE_REALIZAR_PRIMEIRA_VISITA", "RAZAO_SOCIAL": "MARIA_CONCEICAO_BARREIRO_LOURENCO", "ENDERECO": "AVENIDAFRANCISCOMARENGO_2142_JARDIMDONABENTA_SUZANO", "CIDADE": "SUZANO", "LATITUDE": -23.5015279, "LONGITUDE": -46.297885, "BASE": "URGENTE_" }, "geometry": { "type": "Point", "coordinates": [ -46.297885, -23.5015279 ] } },
{ "type": "Feature", "properties": { "CNPJ": 6947892000119, "AGENTE": "VANESSA_ROCHA", "ACAO": "URGENTE_REALIZAR_PRIMEIRA_VISITA", "RAZAO_SOCIAL": "TEMPEROS_DONA_BENTA_LTDA", "ENDERECO": "AVENIDAFRANCISCOMARENGO_2086_JARDIMDONABENTA_SUZANO", "CIDADE": "SUZANO", "LATITUDE": -23.501568, "LONGITUDE": -46.2983316, "BASE": "URGENTE_" }, "geometry": { "type": "Point", "coordinates": [ -46.2983316, -23.501568 ] } },
{ "type": "Feature", "properties": { "CNPJ": 12330949000139, "AGENTE": "VANESSA_ROCHA", "ACAO": "URGENTE_REALIZAR_PRIMEIRA_VISITA", "RAZAO_SOCIAL": "FRANK_BRUNO_LOPES_DA_SILVA", "ENDERECO": "RUAORLANDOFAVA_91_JARDIMDONABENTA_SUZANO", "CIDADE": "SUZANO", "LATITUDE": -23.5018603, "LONGITUDE": -46.2971626, "BASE": "URGENTE_" }, "geometry": { "type": "Point", "coordinates": [ -46.2971626, -23.5018603 ] } },
{ "type": "Feature", "properties": { "CNPJ": 46780271000108, "AGENTE": "VANESSA_ROCHA", "ACAO": "URGENTE_REALIZAR_PRIMEIRA_VISITA", "RAZAO_SOCIAL": "SUPER_TECNICOS_INFORMATICA_SUZANO_LTDA", "ENDERECO": "RUAORLANDOFAVA_175_JARDIMDONABENTA_SUZANO", "CIDADE": "SUZANO", "LATITUDE": -23.5025976, "LONGITUDE": -46.2969503, "BASE": "URGENTE_" }, "geometry": { "type": "Point", "coordinates": [ -46.2969503, -23.5025976 ] } },
{ "type": "Feature", "properties": { "CNPJ": 32333912000171, "AGENTE": "VANESSA_ROCHA", "ACAO": "URGENTE_REALIZAR_PRIMEIRA_VISITA", "RAZAO_SOCIAL": "CLINICA_DENTARIA_SORRISO_SUZANO_LTDA", "ENDERECO": "RUAGENERALFRANCISCOGLICERIO_74_CENTRO_SUZANO", "CIDADE": "SUZANO", "LATITUDE": -23.5353127, "LONGITUDE": -46.3085198, "BASE": "URGENTE_" }, "geometry": { "type": "Point", "coordinates": [ -46.3085198, -23.5353127 ] } },
{ "type": "Feature", "properties": { "CNPJ": 1456593000168, "AGENTE": "VANESSA_ROCHA", "ACAO": "URGENTE_REALIZAR_PRIMEIRA_VISITA", "RAZAO_SOCIAL": "FABIANO_MASSAO_WATANABE", "ENDERECO": "RUAGENERALFRANCISCOGLICERIO_75_CENTRO_SUZANO", "CIDADE": "SUZANO", "LATITUDE": -23.5354452, "LONGITUDE": -46.3081915, "BASE": "URGENTE_" }, "geometry": { "type": "Point", "coordinates": [ -46.3081915, -23.5354452 ] } },
{ "type": "Feature", "properties": { "CNPJ": 4545552000136, "AGENTE": "VANESSA_ROCHA", "ACAO": "URGENTE_REALIZAR_SEGUNDA_VISITA", "RAZAO_SOCIAL": "CENTRO_OTICO_SUZANO_LTDA", "ENDERECO": "RUAGENERALFRANCISCOGLICERIO_71_CENTRO_SUZANO", "CIDADE": "SUZANO", "LATITUDE": -23.5352809, "LONGITUDE": -46.3083255, "BASE": "URGENTE_" }, "geometry": { "type": "Point", "coordinates": [ -46.3083255, -23.5352809 ] } },
{ "type": "Feature", "properties": { "CNPJ": 8066399000115, "AGENTE": "VANESSA_ROCHA", "ACAO": "URGENTE_REALIZAR_SEGUNDA_VISITA", "RAZAO_SOCIAL": "MARLENE_M_DA_SILVA_COMERCIO_DE_ROUPAS", "ENDERECO": "RUAGENERALFRANCISCOGLICERIO_97_CENTRO_SUZANO", "CIDADE": "SUZANO", "LATITUDE": -23.5354512, "LONGITUDE": -46.3084334, "BASE": "URGENTE_" }, "geometry": { "type": "Point", "coordinates": [ -46.3084334, -23.5354512 ] } },
{ "type": "Feature", "properties": { "CNPJ": 7272549000184, "AGENTE": "VANESSA_ROCHA", "ACAO": "URGENTE_REALIZAR_SEGUNDA_VISITA", "RAZAO_SOCIAL": "CRISTIANE_FIGUEIREDO_NOVAIS", "ENDERECO": "RUAFELICIODECAMARGO_485_CENTRO_SUZANO", "CIDADE": "SUZANO", "LATITUDE": -23.536816, "LONGITUDE": -46.3083142, "BASE": "URGENTE_" }, "geometry": { "type": "Point", "coordinates": [ -46.3083142, -23.536816 ] } },
{ "type": "Feature", "properties": { "CNPJ": 37325307000172, "AGENTE": "VANESSA_ROCHA", "ACAO": "URGENTE_REALIZAR_SEGUNDA_VISITA", "RAZAO_SOCIAL": "MIND_PSICOLOGIA_LTDA", "ENDERECO": "TRAVESSAGUAIO_266_CENTRO_SUZANO", "CIDADE": "SUZANO", "LATITUDE": -23.5387568, "LONGITUDE": -46.3114946, "BASE": "URGENTE_" }, "geometry": { "type": "Point", "coordinates": [ -46.3114946, -23.5387568 ] } },
{ "type": "Feature", "properties": { "CNPJ": 59797916000167, "AGENTE": "VANESSA_ROCHA", "ACAO": "URGENTE_REALIZAR_SEGUNDA_VISITA", "RAZAO_SOCIAL": "PEREIRAS_GELATO_LTDA", "ENDERECO": "RUAQUINZEDENOVEMBRO_250_CENTRO_SUZANO", "CIDADE": "SUZANO", "LATITUDE": -23.542937, "LONGITUDE": -46.31311, "BASE": "URGENTE_" }, "geometry": { "type": "Point", "coordinates": [ -46.31311, -23.542937 ] } },
{ "type": "Feature", "properties": { "CNPJ": 29718076000139, "AGENTE": "VANESSA_ROCHA", "ACAO": "URGENTE_REALIZAR_SEGUNDA_VISITA", "RAZAO_SOCIAL": "PAULA_NERES_ABREU_DA_SILVA", "ENDERECO": "RUAEXPEDICIONARIOABILIOFERNANDES_25_VILAPAIVA_SUZANO", "CIDADE": "SUZANO", "LATITUDE": -23.5440829, "LONGITUDE": -46.3097613, "BASE": "URGENTE_" }, "geometry": { "type": "Point", "coordinates": [ -46.3097613, -23.5440829 ] } },
{ "type": "Feature", "properties": { "CNPJ": 14027821000126, "AGENTE": "VANESSA_ROCHA", "ACAO": "URGENTE_REALIZAR_SEGUNDA_VISITA", "RAZAO_SOCIAL": "ROMA_AUTO_CENTER_LTDA", "ENDERECO": "RUAEXPEDICIONARIOABILIOFERNANDES_106_VILAPAIVA_SUZANO", "CIDADE": "SUZANO", "LATITUDE": -23.5443311, "LONGITUDE": -46.3089758, "BASE": "URGENTE_" }, "geometry": { "type": "Point", "coordinates": [ -46.3089758, -23.5443311 ] } },
{ "type": "Feature", "properties": { "CNPJ": 19872665000113, "AGENTE": "VANESSA_ROCHA", "ACAO": "REALIZAR_SEGUNDA_VISITA", "RAZAO_SOCIAL": "CAFE_SHIMADA_LTDA", "ENDERECO": "RUAPORTUGALFREIXO_395_CENTRO_SUZANO", "CIDADE": "SUZANO", "LATITUDE": -23.5395755, "LONGITUDE": -46.3103888, "BASE": "ATENDIDOS" }, "geometry": { "type": "Point", "coordinates": [ -46.3103888, -23.5395755 ] } },
{ "type": "Feature", "properties": { "CNPJ": 52615522000100, "AGENTE": "VANESSA_ROCHA", "ACAO": "REALIZAR_SEGUNDA_VISITA", "RAZAO_SOCIAL": "52.615.522_VINICIUS_LUMINATI_CHAIA_MARQUES_DA_SILVA_-_UMBRELLA_SUPRIMENTOS", "ENDERECO": "PRACADOSEXPEDICIONARIOS_79_VILACOSTA_SUZANO", "CIDADE": "SUZANO", "LATITUDE": -23.5411973, "LONGITUDE": -46.3100163, "BASE": "ATENDIDOS" }, "geometry": { "type": "Point", "coordinates": [ -46.3100163, -23.5411973 ] } },
{ "type": "Feature", "properties": { "CNPJ": 14563765000144, "AGENTE": "VANESSA_ROCHA", "ACAO": "REALIZAR_SEGUNDA_VISITA", "RAZAO_SOCIAL": "KI_MODAS_MUNDIAL_LTDA_-_KIMODAS_MUNDIAL", "ENDERECO": "AVENIDAMIGUELBADRA_1589_MIGUELBADRA_SUZANO", "CIDADE": "SUZANO", "LATITUDE": -23.5413211, "LONGITUDE": -46.3108805, "BASE": "ATENDIDOS" }, "geometry": { "type": "Point", "coordinates": [ -46.3108805, -23.5413211 ] } },
{ "type": "Feature", "properties": { "CNPJ": 5044605000289, "AGENTE": "VANESSA_ROCHA", "ACAO": "REALIZAR_SEGUNDA_VISITA", "RAZAO_SOCIAL": "HTS_LAVANDERIA_LTDA_-_HTS", "ENDERECO": "RUASETEDESETEMBRO_350_CENTRO_SUZANO", "CIDADE": "SUZANO", "LATITUDE": -23.5437786, "LONGITUDE": -46.3126019, "BASE": "ATENDIDOS" }, "geometry": { "type": "Point", "coordinates": [ -46.3126019, -23.5437786 ] } }
]
}
