{
"type": "FeatureCollection",
"name": "VANESSA_ROCHA",
"crs": { "type": "name", "properties": { "name": "urn:ogc:def:crs:OGC:1.3:CRS84" } },
"xy_coordinate_resolution": 1e-15,
"features": [
{ "type": "Feature", "properties": { "CNPJ": 6947892000119, "AGENTE": "VANESSA_ROCHA", "ACAO": "REALIZAR_PRIMEIRA_VISITA", "RAZAO_SOCIAL": "TEMPEROS_DONA_BENTA_LTDA", "ENDERECO": "AVENIDA_FRANCISCO_MARENGO_2086_JARDIM_DONA_BENTA_SUZANO", "CIDADE": "SUZANO", "LATITUDE": -23.501568, "LONGITUDE": -46.2983316 }, "geometry": { "type": "Point", "coordinates": [ -46.2983316, -23.501568 ] } },
{ "type": "Feature", "properties": { "CNPJ": 7314445000195, "AGENTE": "VANESSA_ROCHA", "ACAO": "REALIZAR_PRIMEIRA_VISITA", "RAZAO_SOCIAL": "ANDERSON_TADAO_HORIKAWA_UTILIDADES", "ENDERECO": "AVENIDA_FRANCISCO_MARENGO_2134_JARDIM_DONA_BENTA_SUZANO", "CIDADE": "SUZANO", "LATITUDE": -23.5015093, "LONGITUDE": -46.2979021 }, "geometry": { "type": "Point", "coordinates": [ -46.2979021, -23.5015093 ] } },
{ "type": "Feature", "properties": { "CNPJ": 69303899000118, "AGENTE": "VANESSA_ROCHA", "ACAO": "REALIZAR_PRIMEIRA_VISITA", "RAZAO_SOCIAL": "MARIA_CONCEICAO_BARREIRO_LOURENCO", "ENDERECO": "AVENIDA_FRANCISCO_MARENGO_2142_JARDIM_DONA_BENTA_SUZANO", "CIDADE": "SUZANO", "LATITUDE": -23.5015279, "LONGITUDE": -46.297885 }, "geometry": { "type": "Point", "coordinates": [ -46.297885, -23.5015279 ] } },
{ "type": "Feature", "properties": { "CNPJ": 7985273000181, "AGENTE": "VANESSA_ROCHA", "ACAO": "REALIZAR_PRIMEIRA_VISITA", "RAZAO_SOCIAL": "GISELMA_B._DE_OLIVEIRA", "ENDERECO": "AVENIDA_FRANCISCO_MARENGO_2155_JARDIM_DONA_BENTA_SUZANO", "CIDADE": "SUZANO", "LATITUDE": -23.5011333, "LONGITUDE": -46.2975887 }, "geometry": { "type": "Point", "coordinates": [ -46.2975887, -23.5011333 ] } },
{ "type": "Feature", "properties": { "CNPJ": 54108046000158, "AGENTE": "VANESSA_ROCHA", "ACAO": "REALIZAR_PRIMEIRA_VISITA", "RAZAO_SOCIAL": "FAROL_CALCADOS_LTDA", "ENDERECO": "AVENIDA_FRANCISCO_MARENGO_2160_JARDIM_DONA_BENTA_SUZANO", "CIDADE": "SUZANO", "LATITUDE": -23.5013992, "LONGITUDE": -46.2976993 }, "geometry": { "type": "Point", "coordinates": [ -46.2976993, -23.5013992 ] } },
{ "type": "Feature", "properties": { "CNPJ": 45439526000100, "AGENTE": "VANESSA_ROCHA", "ACAO": "REALIZAR_PRIMEIRA_VISITA", "RAZAO_SOCIAL": "MOTION_FIT_SUZANO_ACADEMIA_LTDA", "ENDERECO": "AVENIDA_FRANCISCO_MARENGO_2175_JARDIM_DONA_BENTA_SUZANO", "CIDADE": "SUZANO", "LATITUDE": -23.5010789, "LONGITUDE": -46.2974074 }, "geometry": { "type": "Point", "coordinates": [ -46.2974074, -23.5010789 ] } },
{ "type": "Feature", "properties": { "CNPJ": 51371839000177, "AGENTE": "VANESSA_ROCHA", "ACAO": "REALIZAR_PRIMEIRA_VISITA", "RAZAO_SOCIAL": "MATERIAIS_PARA_CONSTRUCOES_JARDIM_DONA_BENTA_LTDA", "ENDERECO": "AVENIDA_FRANCISCO_MARENGO_2190_JARDIM_DONA_BENTA_SUZANO", "CIDADE": "SUZANO", "LATITUDE": -23.5014752, "LONGITUDE": -46.2972424 }, "geometry": { "type": "Point", "coordinates": [ -46.2972424, -23.5014752 ] } },
{ "type": "Feature", "properties": { "CNPJ": 24445404000157, "AGENTE": "VANESSA_ROCHA", "ACAO": "REALIZAR_PRIMEIRA_VISITA", "RAZAO_SOCIAL": "PADARIA_NEVES_DONA_BENTA_LTDA", "ENDERECO": "AVENIDA_FRANCISCO_MARENGO_2244_JARDIM_DONA_BENTA_SUZANO", "CIDADE": "SUZANO", "LATITUDE": -23.5009899, "LONGITUDE": -46.2968596 }, "geometry": { "type": "Point", "coordinates": [ -46.2968596, -23.5009899 ] } },
{ "type": "Feature", "properties": { "CNPJ": 4409760000108, "AGENTE": "VANESSA_ROCHA", "ACAO": "REALIZAR_PRIMEIRA_VISITA", "RAZAO_SOCIAL": "MERCADAO_MATERIAIS_PARA_CONSTRUCAO_LTDA", "ENDERECO": "AVENIDA_FRANCISCO_MARENGO_2300_JARDIM_DONA_BENTA_SUZANO", "CIDADE": "SUZANO", "LATITUDE": -23.5008133, "LONGITUDE": -46.2965034 }, "geometry": { "type": "Point", "coordinates": [ -46.2965034, -23.5008133 ] } },
{ "type": "Feature", "properties": { "CNPJ": 11044311000179, "AGENTE": "VANESSA_ROCHA", "ACAO": "REALIZAR_PRIMEIRA_VISITA", "RAZAO_SOCIAL": "AIRTON_ARAUJO_DA_SILVA_JUNIOR_VIDRACARIA", "ENDERECO": "AVENIDA_FRANCISCO_MARENGO_2302_JARDIM_DONA_BENTA_SUZANO", "CIDADE": "SUZANO", "LATITUDE": -23.5006315, "LONGITUDE": -46.2965179 }, "geometry": { "type": "Point", "coordinates": [ -46.2965179, -23.5006315 ] } },
{ "type": "Feature", "properties": { "CNPJ": 31515255000110, "AGENTE": "VANESSA_ROCHA", "ACAO": "REALIZAR_PRIMEIRA_VISITA", "RAZAO_SOCIAL": "MOURA_COMERCIO_DE_MATERIAIS_ELETRICOS_E_HIDRAULICOS_LTDA", "ENDERECO": "AVENIDA_FRANCISCO_MARENGO_2326_JARDIM_DONA_BENTA_SUZANO", "CIDADE": "SUZANO", "LATITUDE": -23.5005613, "LONGITUDE": -46.2964172 }, "geometry": { "type": "Point", "coordinates": [ -46.2964172, -23.5005613 ] } },
{ "type": "Feature", "properties": { "CNPJ": 36655477000152, "AGENTE": "VANESSA_ROCHA", "ACAO": "REALIZAR_PRIMEIRA_VISITA", "RAZAO_SOCIAL": "JAIME_TERRAPLENAGEM_LTDA", "ENDERECO": "AVENIDA_FRANCISCO_MARENGO_2505_JARDIM_DONA_BENTA_SUZANO", "CIDADE": "SUZANO", "LATITUDE": -23.4983146, "LONGITUDE": -46.2955341 }, "geometry": { "type": "Point", "coordinates": [ -46.2955341, -23.4983146 ] } },
{ "type": "Feature", "properties": { "CNPJ": 41743087000174, "AGENTE": "VANESSA_ROCHA", "ACAO": "REALIZAR_PRIMEIRA_VISITA", "RAZAO_SOCIAL": "FARMA_TOP_MED_LTDA", "ENDERECO": "AVENIDA_GONCALVES_DIAS_1193_PARQUE_RESIDENCIAL_MARENGO_ITAQUAQUECETUBA", "CIDADE": "ITAQUAQUECETUBA", "LATITUDE": -23.489575, "LONGITUDE": -46.3020738 }, "geometry": { "type": "Point", "coordinates": [ -46.3020738, -23.489575 ] } },
{ "type": "Feature", "properties": { "CNPJ": 3614212000157, "AGENTE": "VANESSA_ROCHA", "ACAO": "REALIZAR_PRIMEIRA_VISITA", "RAZAO_SOCIAL": "PERFUMARIA_JACK'S_COSMETICOS_E_PAPELARIA_LTDA", "ENDERECO": "AVENIDA_GONCALVES_DIAS_1628_PARQUE_RESIDENCIAL_MARENGO_ITAQUAQUECETUBA", "CIDADE": "ITAQUAQUECETUBA", "LATITUDE": -23.4943849, "LONGITUDE": -46.3012471 }, "geometry": { "type": "Point", "coordinates": [ -46.3012471, -23.4943849 ] } },
{ "type": "Feature", "properties": { "CNPJ": 28901083000109, "AGENTE": "VANESSA_ROCHA", "ACAO": "REALIZAR_PRIMEIRA_VISITA", "RAZAO_SOCIAL": "GLEICE_ALVES_DE_SOUZA", "ENDERECO": "AVENIDA_GONCALVES_DIAS_1715_PARQUE_RESIDENCIAL_MARENGO_ITAQUAQUECETUBA", "CIDADE": "ITAQUAQUECETUBA", "LATITUDE": -23.4938685, "LONGITUDE": -46.3013419 }, "geometry": { "type": "Point", "coordinates": [ -46.3013419, -23.4938685 ] } },
{ "type": "Feature", "properties": { "CNPJ": 37950579000163, "AGENTE": "VANESSA_ROCHA", "ACAO": "REALIZAR_PRIMEIRA_VISITA", "RAZAO_SOCIAL": "V_C_D_RIOS_FARMACIA", "ENDERECO": "AVENIDA_HUMBERTO_DE_CAMPOS_11_PARQUE_RESIDENCIAL_MARENGO_ITAQUAQUECETUBA", "CIDADE": "ITAQUAQUECETUBA", "LATITUDE": -23.4938806, "LONGITUDE": -46.3015381 }, "geometry": { "type": "Point", "coordinates": [ -46.3015381, -23.4938806 ] } },
{ "type": "Feature", "properties": { "CNPJ": 46528872000128, "AGENTE": "VANESSA_ROCHA", "ACAO": "REALIZAR_PRIMEIRA_VISITA", "RAZAO_SOCIAL": "ROBERTO_ROCHA_PANIFICADORA_E_COMERCIO_LTDA", "ENDERECO": "AVENIDA_ITAPETI_808_JARDIM_FERNANDES_SUZANO", "CIDADE": "SUZANO", "LATITUDE": -23.5004719, "LONGITUDE": -46.3020986 }, "geometry": { "type": "Point", "coordinates": [ -46.3020986, -23.5004719 ] } },
{ "type": "Feature", "properties": { "CNPJ": 622808000100, "AGENTE": "VANESSA_ROCHA", "ACAO": "REALIZAR_PRIMEIRA_VISITA", "RAZAO_SOCIAL": "RENILDA_DE_ASSIS_DIAS", "ENDERECO": "AVENIDA_JOAQUIM_MANOEL_DE_MACEDO_629_PARQUE_RESIDENCIAL_MARENGO_ITAQUAQUECETUBA", "CIDADE": "ITAQUAQUECETUBA", "LATITUDE": -23.4851248, "LONGITUDE": -46.2984284 }, "geometry": { "type": "Point", "coordinates": [ -46.2984284, -23.4851248 ] } },
{ "type": "Feature", "properties": { "CNPJ": 42245429000199, "AGENTE": "VANESSA_ROCHA", "ACAO": "REALIZAR_PRIMEIRA_VISITA", "RAZAO_SOCIAL": "ECLETICOS_LTDA", "ENDERECO": "AVENIDA_JOAQUIM_MANOEL_DE_MACEDO_643_PARQUE_RESIDENCIAL_MARENGO_ITAQUAQUECETUBA", "CIDADE": "ITAQUAQUECETUBA", "LATITUDE": -23.4854481, "LONGITUDE": -46.2985343 }, "geometry": { "type": "Point", "coordinates": [ -46.2985343, -23.4854481 ] } },
{ "type": "Feature", "properties": { "CNPJ": 34023419000180, "AGENTE": "VANESSA_ROCHA", "ACAO": "REALIZAR_PRIMEIRA_VISITA", "RAZAO_SOCIAL": "PET_SHOP_CANARIO_DO_REINO_LTDA", "ENDERECO": "AVENIDA_JOAQUIM_MANOEL_DE_MACEDO_723_PARQUE_RESIDENCIAL_MARENGO_ITAQUAQUECETUBA", "CIDADE": "ITAQUAQUECETUBA", "LATITUDE": -23.4860794, "LONGITUDE": -46.2985437 }, "geometry": { "type": "Point", "coordinates": [ -46.2985437, -23.4860794 ] } },
{ "type": "Feature", "properties": { "CNPJ": 54123281000107, "AGENTE": "VANESSA_ROCHA", "ACAO": "REALIZAR_PRIMEIRA_VISITA", "RAZAO_SOCIAL": "RS_GARCIA_MATERIAIS_PARA_CONSTRUCAO_LTDA", "ENDERECO": "RUA_CARNEIRO_LEAO_170_PARQUE_RESIDENCIAL_MARENGO_ITAQUAQUECETUBA", "CIDADE": "ITAQUAQUECETUBA", "LATITUDE": -23.4880003, "LONGITUDE": -46.3023465 }, "geometry": { "type": "Point", "coordinates": [ -46.3023465, -23.4880003 ] } },
{ "type": "Feature", "properties": { "CNPJ": 14027821000126, "AGENTE": "VANESSA_ROCHA", "ACAO": "REALIZAR_PRIMEIRA_VISITA", "RAZAO_SOCIAL": "ROMA_AUTO_CENTER_LTDA", "ENDERECO": "RUA_EXPEDICIONARIO_ABILIO_FERNANDES_106_VILA_PAIVA_SUZANO", "CIDADE": "SUZANO", "LATITUDE": -23.5443311, "LONGITUDE": -46.3089758 }, "geometry": { "type": "Point", "coordinates": [ -46.3089758, -23.5443311 ] } },
{ "type": "Feature", "properties": { "CNPJ": 29718076000139, "AGENTE": "VANESSA_ROCHA", "ACAO": "REALIZAR_PRIMEIRA_VISITA", "RAZAO_SOCIAL": "PAULA_NERES_ABREU_DA_SILVA", "ENDERECO": "RUA_EXPEDICIONARIO_ABILIO_FERNANDES_25_VILA_PAIVA_SUZANO", "CIDADE": "SUZANO", "LATITUDE": -23.5440829, "LONGITUDE": -46.3097613 }, "geometry": { "type": "Point", "coordinates": [ -46.3097613, -23.5440829 ] } },
{ "type": "Feature", "properties": { "CNPJ": 7272549000184, "AGENTE": "VANESSA_ROCHA", "ACAO": "REALIZAR_PRIMEIRA_VISITA", "RAZAO_SOCIAL": "CRISTIANE_FIGUEIREDO_NOVAIS", "ENDERECO": "RUA_FELICIO_DE_CAMARGO_485_CENTRO_SUZANO", "CIDADE": "SUZANO", "LATITUDE": -23.536816, "LONGITUDE": -46.3083142 }, "geometry": { "type": "Point", "coordinates": [ -46.3083142, -23.536816 ] } },
{ "type": "Feature", "properties": { "CNPJ": 4545552000136, "AGENTE": "VANESSA_ROCHA", "ACAO": "REALIZAR_PRIMEIRA_VISITA", "RAZAO_SOCIAL": "CENTRO_OTICO_SUZANO_LTDA", "ENDERECO": "RUA_GENERAL_FRANCISCO_GLICERIO_71_CENTRO_SUZANO", "CIDADE": "SUZANO", "LATITUDE": -23.5352809, "LONGITUDE": -46.3083255 }, "geometry": { "type": "Point", "coordinates": [ -46.3083255, -23.5352809 ] } },
{ "type": "Feature", "properties": { "CNPJ": 32333912000171, "AGENTE": "VANESSA_ROCHA", "ACAO": "REALIZAR_PRIMEIRA_VISITA", "RAZAO_SOCIAL": "CLINICA_DENTARIA_SORRISO_SUZANO_LTDA", "ENDERECO": "RUA_GENERAL_FRANCISCO_GLICERIO_74_CENTRO_SUZANO", "CIDADE": "SUZANO", "LATITUDE": -23.5353127, "LONGITUDE": -46.3085198 }, "geometry": { "type": "Point", "coordinates": [ -46.3085198, -23.5353127 ] } },
{ "type": "Feature", "properties": { "CNPJ": 1456593000168, "AGENTE": "VANESSA_ROCHA", "ACAO": "REALIZAR_PRIMEIRA_VISITA", "RAZAO_SOCIAL": "FABIANO_MASSAO_WATANABE", "ENDERECO": "RUA_GENERAL_FRANCISCO_GLICERIO_75_CENTRO_SUZANO", "CIDADE": "SUZANO", "LATITUDE": -23.5354452, "LONGITUDE": -46.3081915 }, "geometry": { "type": "Point", "coordinates": [ -46.3081915, -23.5354452 ] } },
{ "type": "Feature", "properties": { "CNPJ": 8066399000115, "AGENTE": "VANESSA_ROCHA", "ACAO": "REALIZAR_PRIMEIRA_VISITA", "RAZAO_SOCIAL": "MARLENE_M_DA_SILVA_COMERCIO_DE_ROUPAS", "ENDERECO": "RUA_GENERAL_FRANCISCO_GLICERIO_97_CENTRO_SUZANO", "CIDADE": "SUZANO", "LATITUDE": -23.5354512, "LONGITUDE": -46.3084334 }, "geometry": { "type": "Point", "coordinates": [ -46.3084334, -23.5354512 ] } },
{ "type": "Feature", "properties": { "CNPJ": 46780271000108, "AGENTE": "VANESSA_ROCHA", "ACAO": "REALIZAR_PRIMEIRA_VISITA", "RAZAO_SOCIAL": "SUPER_TECNICOS_INFORMATICA_SUZANO_LTDA", "ENDERECO": "RUA_ORLANDO_FAVA_175_JARDIM_DONA_BENTA_SUZANO", "CIDADE": "SUZANO", "LATITUDE": -23.5025976, "LONGITUDE": -46.2969503 }, "geometry": { "type": "Point", "coordinates": [ -46.2969503, -23.5025976 ] } },
{ "type": "Feature", "properties": { "CNPJ": 12330949000139, "AGENTE": "VANESSA_ROCHA", "ACAO": "REALIZAR_PRIMEIRA_VISITA", "RAZAO_SOCIAL": "FRANK_BRUNO_LOPES_DA_SILVA", "ENDERECO": "RUA_ORLANDO_FAVA_91_JARDIM_DONA_BENTA_SUZANO", "CIDADE": "SUZANO", "LATITUDE": -23.5018603, "LONGITUDE": -46.2971626 }, "geometry": { "type": "Point", "coordinates": [ -46.2971626, -23.5018603 ] } },
{ "type": "Feature", "properties": { "CNPJ": 19872665000113, "AGENTE": "VANESSA_ROCHA", "ACAO": "REALIZAR_PRIMEIRA_VISITA", "RAZAO_SOCIAL": "CAFE_SHIMADA_LTDA", "ENDERECO": "RUA_PORTUGAL_FREIXO_395_CENTRO_SUZANO", "CIDADE": "SUZANO", "LATITUDE": -23.5395755, "LONGITUDE": -46.3103888 }, "geometry": { "type": "Point", "coordinates": [ -46.3103888, -23.5395755 ] } },
{ "type": "Feature", "properties": { "CNPJ": 59797916000167, "AGENTE": "VANESSA_ROCHA", "ACAO": "REALIZAR_PRIMEIRA_VISITA", "RAZAO_SOCIAL": "PEREIRAS_GELATO_LTDA", "ENDERECO": "RUA_QUINZE_DE_NOVEMBRO_250_CENTRO_SUZANO", "CIDADE": "SUZANO", "LATITUDE": -23.542937, "LONGITUDE": -46.31311 }, "geometry": { "type": "Point", "coordinates": [ -46.31311, -23.542937 ] } },
{ "type": "Feature", "properties": { "CNPJ": 28549142000121, "AGENTE": "VANESSA_ROCHA", "ACAO": "REALIZAR_PRIMEIRA_VISITA", "RAZAO_SOCIAL": "NV_CAR-SERVICOS_AUTOMOTIVOS_LTDA", "ENDERECO": "RUA_TOBIAS_BARRETO_180_PARQUE_RESIDENCIAL_MARENGO_ITAQUAQUECETUBA", "CIDADE": "ITAQUAQUECETUBA", "LATITUDE": -23.4862081, "LONGITUDE": -46.2985468 }, "geometry": { "type": "Point", "coordinates": [ -46.2985468, -23.4862081 ] } },
{ "type": "Feature", "properties": { "CNPJ": 37325307000172, "AGENTE": "VANESSA_ROCHA", "ACAO": "REALIZAR_PRIMEIRA_VISITA", "RAZAO_SOCIAL": "MIND_PSICOLOGIA_LTDA", "ENDERECO": "TRAVESSA_GUAIO_266_CENTRO_SUZANO", "CIDADE": "SUZANO", "LATITUDE": -23.5387568, "LONGITUDE": -46.3114946 }, "geometry": { "type": "Point", "coordinates": [ -46.3114946, -23.5387568 ] } },
{ "type": "Feature", "properties": { "CNPJ": 14563765000144, "AGENTE": "VANESSA_ROCHA", "ACAO": "REALIZAR_SEGUNDA_VISITA", "RAZAO_SOCIAL": "KI_MODAS_MUNDIAL_LTDA_-_KIMODAS_MUNDIAL", "ENDERECO": "AVENIDA_MIGUEL_BADRA_1589_MIGUEL_BADRA_SUZANO", "CIDADE": "SUZANO", "LATITUDE": -23.5413211, "LONGITUDE": -46.3108805 }, "geometry": { "type": "Point", "coordinates": [ -46.3108805, -23.5413211 ] } },
{ "type": "Feature", "properties": { "CNPJ": 28231977000139, "AGENTE": "VANESSA_ROCHA", "ACAO": "REALIZAR_SEGUNDA_VISITA", "RAZAO_SOCIAL": "MARIA_ILZA_DE_ALMEIDA_LOPES_-_FRUTARIA_MIRANTE", "ENDERECO": "AVENIDA_ROTARY_1_BOCAINA_RIBEIRAO_PIRES", "CIDADE": "RIBEIRAO_PIRES", "LATITUDE": -23.7065181, "LONGITUDE": -46.427896 }, "geometry": { "type": "Point", "coordinates": [ -46.427896, -23.7065181 ] } },
{ "type": "Feature", "properties": { "CNPJ": 52615522000100, "AGENTE": "VANESSA_ROCHA", "ACAO": "REALIZAR_SEGUNDA_VISITA", "RAZAO_SOCIAL": "52.615.522_VINICIUS_LUMINATI_CHAIA_MARQUES_DA_SILVA_-_UMBRELLA_SUPRIMENTOS", "ENDERECO": "PRACA_DOS_EXPEDICIONARIOS_79_VILA_COSTA_SUZANO", "CIDADE": "SUZANO", "LATITUDE": -23.5411973, "LONGITUDE": -46.3100163 }, "geometry": { "type": "Point", "coordinates": [ -46.3100163, -23.5411973 ] } },
{ "type": "Feature", "properties": { "CNPJ": 20013042000174, "AGENTE": "VANESSA_ROCHA", "ACAO": "REALIZAR_SEGUNDA_VISITA", "RAZAO_SOCIAL": "FOTO_E_CIA_MOGI_DAS_CRUZES_LTDA_-_FOTO_&_CIA", "ENDERECO": "RODOVIA_DOM_PAULO_ROLIM_LOUREIRO_1158_VILA_MOGILAR_MOGI_DAS_CRUZES", "CIDADE": "MOGI_DAS_CRUZES", "LATITUDE": -23.5211015, "LONGITUDE": -46.1951929 }, "geometry": { "type": "Point", "coordinates": [ -46.1951929, -23.5211015 ] } },
{ "type": "Feature", "properties": { "CNPJ": 56928324000149, "AGENTE": "VANESSA_ROCHA", "ACAO": "REALIZAR_SEGUNDA_VISITA", "RAZAO_SOCIAL": "56.928.324_KENIA_RUBIA_DOS_SANTOS_-_MAIZUMAULTILIDADES", "ENDERECO": "RODOVIA_SP-098_1690_CENTRO_MOGI_DAS_CRUZES", "CIDADE": "MOGI_DAS_CRUZES", "LATITUDE": -23.5257848, "LONGITUDE": -46.1940906 }, "geometry": { "type": "Point", "coordinates": [ -46.1940906, -23.5257848 ] } },
{ "type": "Feature", "properties": { "CNPJ": 5778281000121, "AGENTE": "VANESSA_ROCHA", "ACAO": "REALIZAR_SEGUNDA_VISITA", "RAZAO_SOCIAL": "N_&_K_SHOP_ELETRONICOS_LTDA_-_CENTER_CELL", "ENDERECO": "RODOVIA_SP-098_1700_CENTRO_MOGI_DAS_CRUZES", "CIDADE": "MOGI_DAS_CRUZES", "LATITUDE": -23.5257753, "LONGITUDE": -46.1940824 }, "geometry": { "type": "Point", "coordinates": [ -46.1940824, -23.5257753 ] } },
{ "type": "Feature", "properties": { "CNPJ": 17719292000110, "AGENTE": "VANESSA_ROCHA", "ACAO": "REALIZAR_SEGUNDA_VISITA", "RAZAO_SOCIAL": "MARIA_HELENA_NEPOMUCENO_DE_FARIAS_94879621820_-_BOX_DUQUEIJO", "ENDERECO": "RUA_15_760_CENTRO_SALESOPOLIS", "CIDADE": "SALESOPOLIS", "LATITUDE": -23.5301416, "LONGITUDE": -45.8472052 }, "geometry": { "type": "Point", "coordinates": [ -45.8472052, -23.5301416 ] } },
{ "type": "Feature", "properties": { "CNPJ": 34422573000125, "AGENTE": "VANESSA_ROCHA", "ACAO": "REALIZAR_SEGUNDA_VISITA", "RAZAO_SOCIAL": "HIT_SUSHI_ENTREGA_RAPIDA_LTDA_-_KHAISHI_SUSHI", "ENDERECO": "RUA_BARAO_DE_JACEGUAI_1465_CENTRO_MOGI_DAS_CRUZES", "CIDADE": "MOGI_DAS_CRUZES", "LATITUDE": -23.5208085, "LONGITUDE": -46.1835457 }, "geometry": { "type": "Point", "coordinates": [ -46.1835457, -23.5208085 ] } },
{ "type": "Feature", "properties": { "CNPJ": 15191373000164, "AGENTE": "VANESSA_ROCHA", "ACAO": "REALIZAR_SEGUNDA_VISITA", "RAZAO_SOCIAL": "DERMATOLUX_CLINICA_MEDICA_LTDA_-_DERMATOLUX", "ENDERECO": "RUA_BARAO_DE_JACEGUAI_1621_CENTRO_MOGI_DAS_CRUZES", "CIDADE": "MOGI_DAS_CRUZES", "LATITUDE": -23.5205605, "LONGITUDE": -46.1821708 }, "geometry": { "type": "Point", "coordinates": [ -46.1821708, -23.5205605 ] } },
{ "type": "Feature", "properties": { "CNPJ": 9632211000111, "AGENTE": "VANESSA_ROCHA", "ACAO": "REALIZAR_SEGUNDA_VISITA", "RAZAO_SOCIAL": "POWER_SOUND_MUSIC_STORE_LTDA_-_POWER_SOUND", "ENDERECO": "RUA_BENJAMIN_CONSTANT_663_CENTRO_SUZANO", "CIDADE": "SUZANO", "LATITUDE": -23.5398458, "LONGITUDE": -46.3113251 }, "geometry": { "type": "Point", "coordinates": [ -46.3113251, -23.5398458 ] } },
{ "type": "Feature", "properties": { "CNPJ": 3997618000166, "AGENTE": "VANESSA_ROCHA", "ACAO": "REALIZAR_SEGUNDA_VISITA", "RAZAO_SOCIAL": "BY_NIZUMA_BABY_LTDA_-_NIZUMA_BABY", "ENDERECO": "RUA_CORONEL_MOREIRA_DA_GLORIA_278_CENTRO_MOGI_DAS_CRUZES", "CIDADE": "MOGI_DAS_CRUZES", "LATITUDE": -23.5228299, "LONGITUDE": -46.1942227 }, "geometry": { "type": "Point", "coordinates": [ -46.1942227, -23.5228299 ] } },
{ "type": "Feature", "properties": { "CNPJ": 6251362000212, "AGENTE": "VANESSA_ROCHA", "ACAO": "REALIZAR_SEGUNDA_VISITA", "RAZAO_SOCIAL": "ROSA_RAQUEL_RYLANDER_-_IDEAL_BOLSAS", "ENDERECO": "RUA_CORONEL_SOUZA_FRANCO_111_CENTRO_MOGI_DAS_CRUZES", "CIDADE": "MOGI_DAS_CRUZES", "LATITUDE": -23.5225756, "LONGITUDE": -46.1966645 }, "geometry": { "type": "Point", "coordinates": [ -46.1966645, -23.5225756 ] } },
{ "type": "Feature", "properties": { "CNPJ": 11739962000183, "AGENTE": "VANESSA_ROCHA", "ACAO": "REALIZAR_SEGUNDA_VISITA", "RAZAO_SOCIAL": "PONTO_DESIGN_MOVEIS_E_DECORACOES_LTDA_-_PONTO_DESIGN", "ENDERECO": "RUA_CORONEL_SOUZA_FRANCO_388_CENTRO_MOGI_DAS_CRUZES", "CIDADE": "MOGI_DAS_CRUZES", "LATITUDE": -23.522403, "LONGITUDE": -46.1938806 }, "geometry": { "type": "Point", "coordinates": [ -46.1938806, -23.522403 ] } },
{ "type": "Feature", "properties": { "CNPJ": 9463249000108, "AGENTE": "VANESSA_ROCHA", "ACAO": "REALIZAR_SEGUNDA_VISITA", "RAZAO_SOCIAL": "MARGENET_ESPORTES_LTDA_-_MARGENET_ESPORTE", "ENDERECO": "RUA_CORONEL_SOUZA_FRANCO_396_CENTRO_MOGI_DAS_CRUZES", "CIDADE": "MOGI_DAS_CRUZES", "LATITUDE": -23.5223957, "LONGITUDE": -46.1937348 }, "geometry": { "type": "Point", "coordinates": [ -46.1937348, -23.5223957 ] } },
{ "type": "Feature", "properties": { "CNPJ": 43390511000170, "AGENTE": "VANESSA_ROCHA", "ACAO": "REALIZAR_SEGUNDA_VISITA", "RAZAO_SOCIAL": "CATARINA_TERESINHA_RAMIREZ_12438023830_-_TABACARIA_RAMIREZ", "ENDERECO": "RUA_DO_COMERCIO_115_CENTRO_RIBEIRAO_PIRES", "CIDADE": "RIBEIRAO_PIRES", "LATITUDE": -23.7119341, "LONGITUDE": -46.4144744 }, "geometry": { "type": "Point", "coordinates": [ -46.4144744, -23.7119341 ] } },
{ "type": "Feature", "properties": { "CNPJ": 12012154000182, "AGENTE": "VANESSA_ROCHA", "ACAO": "REALIZAR_SEGUNDA_VISITA", "RAZAO_SOCIAL": "MELCRA_VESTUARIO_LTDA_-_NATOON__MODA", "ENDERECO": "RUA_DOUTOR_DEODATO_WERTHEIMER_1338_CENTRO_MOGI_DAS_CRUZES", "CIDADE": "MOGI_DAS_CRUZES", "LATITUDE": -23.5225123, "LONGITUDE": -46.1948409 }, "geometry": { "type": "Point", "coordinates": [ -46.1948409, -23.5225123 ] } },
{ "type": "Feature", "properties": { "CNPJ": 26338125000110, "AGENTE": "VANESSA_ROCHA", "ACAO": "REALIZAR_SEGUNDA_VISITA", "RAZAO_SOCIAL": "JCL_ENXOVAIS_PARA_BEBE_LTDA_-_JESSICA_BABY", "ENDERECO": "RUA_DOUTOR_RICARDO_VILELA_1194_CENTRO_MOGI_DAS_CRUZES", "CIDADE": "MOGI_DAS_CRUZES", "LATITUDE": -23.5213144, "LONGITUDE": -46.1950152 }, "geometry": { "type": "Point", "coordinates": [ -46.1950152, -23.5213144 ] } },
{ "type": "Feature", "properties": { "CNPJ": 19668208000101, "AGENTE": "VANESSA_ROCHA", "ACAO": "REALIZAR_SEGUNDA_VISITA", "RAZAO_SOCIAL": "WELLINGTON_DANIEL_VIEIRA_ESTACIONAMENTOS_-_WV_ESTACIONAMENTO", "ENDERECO": "RUA_DOUTOR_RICARDO_VILELA_1352_CENTRO_MOGI_DAS_CRUZES", "CIDADE": "MOGI_DAS_CRUZES", "LATITUDE": -23.5200033, "LONGITUDE": -46.1827367 }, "geometry": { "type": "Point", "coordinates": [ -46.1827367, -23.5200033 ] } },
{ "type": "Feature", "properties": { "CNPJ": 68273747000157, "AGENTE": "VANESSA_ROCHA", "ACAO": "REALIZAR_SEGUNDA_VISITA", "RAZAO_SOCIAL": "MAQFAX_COMERCIO_E_SERVICOS_LTDA_-_MAQFAX_MOVEIS", "ENDERECO": "RUA_DOUTOR_RICARDO_VILELA_238_CENTRO_MOGI_DAS_CRUZES", "CIDADE": "MOGI_DAS_CRUZES", "LATITUDE": -23.521246, "LONGITUDE": -46.1936092 }, "geometry": { "type": "Point", "coordinates": [ -46.1936092, -23.521246 ] } },
{ "type": "Feature", "properties": { "CNPJ": 54039329000195, "AGENTE": "VANESSA_ROCHA", "ACAO": "REALIZAR_SEGUNDA_VISITA", "RAZAO_SOCIAL": "ESCOLA_IGNICAO_4.0_LTDA_-_ESCOLA_DE_IGNICAO", "ENDERECO": "RUA_DOUTOR_RICARDO_VILELA_357_CENTRO_MOGI_DAS_CRUZES", "CIDADE": "MOGI_DAS_CRUZES", "LATITUDE": -23.520967, "LONGITUDE": -46.1925175 }, "geometry": { "type": "Point", "coordinates": [ -46.1925175, -23.520967 ] } },
{ "type": "Feature", "properties": { "CNPJ": 37735167000100, "AGENTE": "VANESSA_ROCHA", "ACAO": "REALIZAR_SEGUNDA_VISITA", "RAZAO_SOCIAL": "ARQUITEX_TRANSACOES_IMOBILIARIAS_E_CORRETAGEM_DE_SEGUROS_LTDA_-_ARQUITEX_TRANSACOES_IMOBILIARIOS", "ENDERECO": "RUA_DOUTOR_RICARDO_VILELA_915_CENTRO_MOGI_DAS_CRUZES", "CIDADE": "MOGI_DAS_CRUZES", "LATITUDE": -23.5204302, "LONGITUDE": -46.1865806 }, "geometry": { "type": "Point", "coordinates": [ -46.1865806, -23.5204302 ] } },
{ "type": "Feature", "properties": { "CNPJ": 59922497000148, "AGENTE": "VANESSA_ROCHA", "ACAO": "REALIZAR_SEGUNDA_VISITA", "RAZAO_SOCIAL": "59.922.497_ALEX_RODGER_DO_SANTOS_-_ALEX_RODGER_DOS_SANTOS", "ENDERECO": "RUA_FRANCISCO_CABRERA_GOMES_188_JARDIM_LINCOLN_SUZANO", "CIDADE": "SUZANO", "LATITUDE": -23.5519385, "LONGITUDE": -46.3040154 }, "geometry": { "type": "Point", "coordinates": [ -46.3040154, -23.5519385 ] } },
{ "type": "Feature", "properties": { "CNPJ": 15017487000192, "AGENTE": "VANESSA_ROCHA", "ACAO": "REALIZAR_SEGUNDA_VISITA", "RAZAO_SOCIAL": "15.017.487_MAURO_HENRIQUE_QUEIROZ_DE_OLIVEIRA_-_REI_SALOMAO", "ENDERECO": "RUA_GENERAL_FRANCISCO_GLICERIO_1192_CENTRO_SUZANO", "CIDADE": "SUZANO", "LATITUDE": -23.5445204, "LONGITUDE": -46.3119579 }, "geometry": { "type": "Point", "coordinates": [ -46.3119579, -23.5445204 ] } },
{ "type": "Feature", "properties": { "CNPJ": 58504948000164, "AGENTE": "VANESSA_ROCHA", "ACAO": "REALIZAR_SEGUNDA_VISITA", "RAZAO_SOCIAL": "YUZENSEIKO_PAPELARIA_E_GRAFICA_RAPIDA_LTDA_-_YAMAPRINT", "ENDERECO": "RUA_GENERAL_FRANCISCO_GLICERIO_901_CENTRO_SUZANO", "CIDADE": "SUZANO", "LATITUDE": -23.5423782, "LONGITUDE": -46.3110866 }, "geometry": { "type": "Point", "coordinates": [ -46.3110866, -23.5423782 ] } },
{ "type": "Feature", "properties": { "CNPJ": 27697463000100, "AGENTE": "VANESSA_ROCHA", "ACAO": "REALIZAR_SEGUNDA_VISITA", "RAZAO_SOCIAL": "LL_IMOVEIS_LTDA_-_LEANDRO_IMOVEIS", "ENDERECO": "RUA_OLEGARIO_PAIVA_1275_SHANGAI_MOGI_DAS_CRUZES", "CIDADE": "MOGI_DAS_CRUZES", "LATITUDE": -23.5205567, "LONGITUDE": -46.1857117 }, "geometry": { "type": "Point", "coordinates": [ -46.1857117, -23.5205567 ] } },
{ "type": "Feature", "properties": { "CNPJ": 6072211000116, "AGENTE": "VANESSA_ROCHA", "ACAO": "REALIZAR_SEGUNDA_VISITA", "RAZAO_SOCIAL": "SONIA_MARIA_FREITAS_RAMOS_DA_SILVA_LTDA_-_PROMED_ARTIGOS_MEDICOS", "ENDERECO": "RUA_PRESIDENTE_RODRIGUES_ALVES_303_CENTRO_MOGI_DAS_CRUZES", "CIDADE": "MOGI_DAS_CRUZES", "LATITUDE": -23.521072, "LONGITUDE": -46.1930076 }, "geometry": { "type": "Point", "coordinates": [ -46.1930076, -23.521072 ] } },
{ "type": "Feature", "properties": { "CNPJ": 67499947000160, "AGENTE": "VANESSA_ROCHA", "ACAO": "REALIZAR_SEGUNDA_VISITA", "RAZAO_SOCIAL": "WALID_ABDEL_HADI_IBRAHIM_-_GARDENIA_AZUL_COLCHOES", "ENDERECO": "RUA_PRINCESA_ISABEL_DE_BRAGANCA_120_CENTRO_MOGI_DAS_CRUZES", "CIDADE": "MOGI_DAS_CRUZES", "LATITUDE": -23.5215567, "LONGITUDE": -46.1968617 }, "geometry": { "type": "Point", "coordinates": [ -46.1968617, -23.5215567 ] } },
{ "type": "Feature", "properties": { "CNPJ": 8034139000168, "AGENTE": "VANESSA_ROCHA", "ACAO": "REALIZAR_SEGUNDA_VISITA", "RAZAO_SOCIAL": "VERONICE_DE_JESUS_PIMENTA_-_ENTANTO_DA_LUA", "ENDERECO": "RUA_PROFESSOR_FLAVIANO_DE_MELO_715_CENTRO_MOGI_DAS_CRUZES", "CIDADE": "MOGI_DAS_CRUZES", "LATITUDE": -23.5229854, "LONGITUDE": -46.1959318 }, "geometry": { "type": "Point", "coordinates": [ -46.1959318, -23.5229854 ] } },
{ "type": "Feature", "properties": { "CNPJ": 35037649000161, "AGENTE": "VANESSA_ROCHA", "ACAO": "REALIZAR_SEGUNDA_VISITA", "RAZAO_SOCIAL": "35.037.649_HELDER_CARLOS_DE_OLIVEIRA_-_HCO_MOTOS", "ENDERECO": "RUA_QUINZE_DE_NOVEMBRO_1022_CENTRO_SALESOPOLIS", "CIDADE": "SALESOPOLIS", "LATITUDE": -23.5295939, "LONGITUDE": -45.844948 }, "geometry": { "type": "Point", "coordinates": [ -45.844948, -23.5295939 ] } },
{ "type": "Feature", "properties": { "CNPJ": 36076524000103, "AGENTE": "VANESSA_ROCHA", "ACAO": "REALIZAR_SEGUNDA_VISITA", "RAZAO_SOCIAL": "CLAUDETE_MORAES_16318482830_-_CACHACARIA_PARAIBUNA", "ENDERECO": "RUA_QUINZE_DE_NOVEMBRO_760_CENTRO_SALESOPOLIS", "CIDADE": "SALESOPOLIS", "LATITUDE": -23.5301136, "LONGITUDE": -45.8472866 }, "geometry": { "type": "Point", "coordinates": [ -45.8472866, -23.5301136 ] } },
{ "type": "Feature", "properties": { "CNPJ": 5044605000289, "AGENTE": "VANESSA_ROCHA", "ACAO": "REALIZAR_SEGUNDA_VISITA", "RAZAO_SOCIAL": "HTS_LAVANDERIA_LTDA_-_HTS", "ENDERECO": "RUA_SETE_DE_SETEMBRO_350_CENTRO_SUZANO", "CIDADE": "SUZANO", "LATITUDE": -23.5437786, "LONGITUDE": -46.3126019 }, "geometry": { "type": "Point", "coordinates": [ -46.3126019, -23.5437786 ] } },
{ "type": "Feature", "properties": { "CNPJ": 59718245000100, "AGENTE": "VANESSA_ROCHA", "ACAO": "REALIZAR_SEGUNDA_VISITA", "RAZAO_SOCIAL": "LASONIC_ELETRONICOS_LTDA_-_LASONIC", "ENDERECO": "TRAVESSA_GUAIO_368_CENTRO_SUZANO", "CIDADE": "SUZANO", "LATITUDE": -23.5389742, "LONGITUDE": -46.3104545 }, "geometry": { "type": "Point", "coordinates": [ -46.3104545, -23.5389742 ] } }
]
}
